{"timestamp": "2026-01-29T12:11:54.477556Z", "telemetry": {"lat": 0.0, "lon": 0.0, "satellites": 0, "altitude_gps_m": -0.10999999940395355, "groundspeed_mps": 0.09247045964002609}, "flight": {"mode": "STABILIZE", "armed": false}, "ekf": {"attitude": {"roll": -0.026428615674376488, "pitch": -0.021387984976172447, "yaw": 3.1388704776763916}, "local_position": {"x": null, "y": null, "z": null}, "status": {"flags": 135, "velocity_variance": 0.0, "pos_horiz_variance": 0.021992124617099762, "pos_vert_variance": 0.007761599496006966}}, "errors": []}
{"timestamp": "2026-01-29T12:11:55.476152Z", "telemetry": {"lat": 0.0, "lon": 0.0, "satellites": 0, "altitude_gps_m": -0.10999999940395355, "groundspeed_mps": 0.09283877164125443}, "flight": {"mode": "STABILIZE", "armed": false}, "ekf": {"attitude": {"roll": -0.026519974693655968, "pitch": -0.021287526935338974, "yaw": 3.1404709815979004}, "local_position": {"x": null, "y": null, "z": null}, "status": {"flags": 135, "velocity_variance": 0.0, "pos_horiz_variance": 0.022259904071688652, "pos_vert_variance": 0.0025350740179419518}}, "errors": []}
{"timestamp": "2026-01-29T12:11:56.457715Z", "telemetry": {"lat": 0.0, "lon": 0.0, "satellites": 0, "altitude_gps_m": -0.10999999940395355, "groundspeed_mps": 0.09388483315706253}, "flight": {"mode": "STABILIZE", "armed": false}, "ekf": {"attitude": {"roll": -0.02675674483180046, "pitch": -0.021283967420458794, "yaw": -3.141031265258789}, "local_position": {"x": null, "y": null, "z": null}, "status": {"flags": 135, "velocity_variance": 0.0, "pos_horiz_variance": 0.022701745852828026, "pos_vert_variance": 0.009594190865755081}}, "errors": []}
{"timestamp": "2026-01-29T12:11:57.457309Z", "telemetry": {"lat": 0.0, "lon": 0.0, "satellites": 0, "altitude_gps_m": -0.10999999940395355, "groundspeed_mps": 0.10074876248836517}, "flight": {"mode": "STABILIZE", "armed": false}, "ekf": {"attitude": {"roll": -0.026941834017634392, "pitch": -0.02128068171441555, "yaw": -3.139432907104492}, "local_position": {"x": null, "y": null, "z": null}, "status": {"flags": 135, "velocity_variance": 0.0, "pos_horiz_variance": 0.023510031402111053, "pos_vert_variance": 0.049203287810087204}}, "errors": []}
{"timestamp": "2026-01-29T12:11:58.457425Z", "telemetry": {"lat": 0.0, "lon": 0.0, "satellites": 0, "altitude_gps_m": -0.10999999940395355, "groundspeed_mps": 0.09610053151845932}, "flight": {"mode": "STABILIZE", "armed": false}, "ekf": {"attitude": {"roll": -0.026879452168941498, "pitch": -0.021140987053513527, "yaw": -3.137932300567627}, "local_position": {"x": null, "y": null, "z": null}, "status": {"flags": 135, "velocity_variance": 0.0, "pos_horiz_variance": 0.023573553189635277, "pos_vert_variance": 0.0604364350438118}}, "errors": ["PreArm: RC not found", "PreArm: Hardware safety switch", "PreArm: Compasses inconsistent"]}
{"timestamp": "2026-01-29T12:11:59.456960Z", "telemetry": {"lat": 0.0, "lon": 0.0, "satellites": 0, "altitude_gps_m": -0.10999999940395355, "groundspeed_mps": 0.09524587541818619}, "flight": {"mode": "STABILIZE", "armed": false}, "ekf": {"attitude": {"roll": -0.026924746111035347, "pitch": -0.021066563203930855, "yaw": -3.1365222930908203}, "local_position": {"x": null, "y": null, "z": null}, "status": {"flags": 135, "velocity_variance": 0.0, "pos_horiz_variance": 0.02324075996875763, "pos_vert_variance": 0.00855531357228756}}, "errors": ["PreArm: RC not found", "PreArm: Hardware safety switch", "PreArm: Compasses inconsistent"]}
{"timestamp": "2026-01-29T12:12:00.457744Z", "telemetry": {"lat": 0.0, "lon": 0.0, "satellites": 0, "altitude_gps_m": -0.10999999940395355, "groundspeed_mps": 0.09414880722761154}, "flight": {"mode": "STABILIZE", "armed": false}, "ekf": {"attitude": {"roll": -0.026859663426876068, "pitch": -0.021123742684721947, "yaw": -3.135164260864258}, "local_position": {"x": null, "y": null, "z": null}, "status": {"flags": 135, "velocity_variance": 0.0, "pos_horiz_variance": 0.0231153704226017, "pos_vert_variance": 0.009075144305825233}}, "errors": ["PreArm: RC not found", "PreArm: Hardware safety switch", "PreArm: Compasses inconsistent"]}
{"timestamp": "2026-01-29T12:12:01.456898Z", "telemetry": {"lat": 0.0, "lon": 0.0, "satellites": 0, "altitude_gps_m": -0.10999999940395355, "groundspeed_mps": 0.09407547116279602}, "flight": {"mode": "STABILIZE", "armed": false}, "ekf": {"attitude": {"roll": -0.026935100555419922, "pitch": -0.02121138945221901, "yaw": -3.133772850036621}, "local_position": {"x": null, "y": null, "z": null}, "status": {"flags": 135, "velocity_variance": 0.0, "pos_horiz_variance": 0.023143088445067406, "pos_vert_variance": 0.019962556660175323}}, "errors": ["PreArm: RC not found", "PreArm: Hardware safety switch", "PreArm: Compasses inconsistent"]}
{"timestamp": "2026-01-29T12:12:02.457404Z", "telemetry": {"lat": 0.0, "lon": 0.0, "satellites": 0, "altitude_gps_m": -0.10999999940395355, "groundspeed_mps": 0.09458974003791809}, "flight": {"mode": "STABILIZE", "armed": false}, "ekf": {"attitude": {"roll": -0.02683764509856701, "pitch": -0.021307338029146194, "yaw": -3.1327452659606934}, "local_position": {"x": null, "y": null, "z": null}, "status": {"flags": 135, "velocity_variance": 0.0, "pos_horiz_variance": 0.022872116416692734, "pos_vert_variance": 0.017708396539092064}}, "errors": ["PreArm: RC not found", "PreArm: Hardware safety switch", "PreArm: Compasses inconsistent"]}
{"timestamp": "2026-01-29T12:12:03.456348Z", "telemetry": {"lat": 0.0, "lon": 0.0, "satellites": 0, "altitude_gps_m": -0.10999999940395355, "groundspeed_mps": 0.09897928684949875}, "flight": {"mode": "STABILIZE", "armed": false}, "ekf": {"attitude": {"roll": -0.026440652087330818, "pitch": -0.022079193964600563, "yaw": -3.1310229301452637}, "local_position": {"x": null, "y": null, "z": null}, "status": {"flags": 135, "velocity_variance": 0.0, "pos_horiz_variance": 0.023515868932008743, "pos_vert_variance": 0.010424372740089893}}, "errors": ["PreArm: RC not found", "PreArm: Hardware safety switch", "PreArm: Compasses inconsistent"]}
{"timestamp": "2026-01-29T12:12:04.457348Z", "telemetry": {"lat": 0.0, "lon": 0.0, "satellites": 0, "altitude_gps_m": -0.10999999940395355, "groundspeed_mps": 0.10211582481861115}, "flight": {"mode": "STABILIZE", "armed": false}, "ekf": {"attitude": {"roll": -0.026506591588258743, "pitch": -0.021062733605504036, "yaw": -3.130186080932617}, "local_position": {"x": null, "y": null, "z": null}, "status": {"flags": 135, "velocity_variance": 0.0, "pos_horiz_variance": 0.023970892652869225, "pos_vert_variance": 0.08453947305679321}}, "errors": ["PreArm: RC not found", "PreArm: Hardware safety switch", "PreArm: Compasses inconsistent"]}
{"timestamp": "2026-01-29T12:12:05.456025Z", "telemetry": {"lat": 0.0, "lon": 0.0, "satellites": 0, "altitude_gps_m": -0.10999999940395355, "groundspeed_mps": 0.10149691998958588}, "flight": {"mode": "STABILIZE", "armed": false}, "ekf": {"attitude": {"roll": -0.026468049734830856, "pitch": -0.02146238274872303, "yaw": -3.128727912902832}, "local_position": {"x": null, "y": null, "z": null}, "status": {"flags": 135, "velocity_variance": 0.0, "pos_horiz_variance": 0.024632008746266365, "pos_vert_variance": 0.04957076907157898}}, "errors": ["PreArm: RC not found", "PreArm: Hardware safety switch", "PreArm: Compasses inconsistent"]}
{"timestamp": "2026-01-29T12:12:06.456983Z", "telemetry": {"lat": 0.0, "lon": 0.0, "satellites": 0, "altitude_gps_m": -0.10999999940395355, "groundspeed_mps": 0.10252155363559723}, "flight": {"mode": "STABILIZE", "armed": false}, "ekf": {"attitude": {"roll": -0.026298364624381065, "pitch": -0.021397234871983528, "yaw": -3.127528667449951}, "local_position": {"x": null, "y": null, "z": null}, "status": {"flags": 135, "velocity_variance": 0.0, "pos_horiz_variance": 0.024576203897595406, "pos_vert_variance": 0.013776561245322227}}, "errors": ["PreArm: RC not found", "PreArm: Hardware safety switch", "PreArm: Compasses inconsistent"]}
{"timestamp": "2026-01-29T12:12:07.455572Z", "telemetry": {"lat": 0.0, "lon": 0.0, "satellites": 0, "altitude_gps_m": -0.10999999940395355, "groundspeed_mps": 0.10194990038871765}, "flight": {"mode": "STABILIZE", "armed": false}, "ekf": {"attitude": {"roll": -0.02625824511051178, "pitch": -0.021273668855428696, "yaw": -3.126709222793579}, "local_position": {"x": null, "y": null, "z": null}, "status": {"flags": 135, "velocity_variance": 0.0, "pos_horiz_variance": 0.024894235655665398, "pos_vert_variance": 0.0027064275927841663}}, "errors": ["PreArm: RC not found", "PreArm: Hardware safety switch", "PreArm: Compasses inconsistent"]}
{"timestamp": "2026-01-29T12:12:08.456394Z", "telemetry": {"lat": 0.0, "lon": 0.0, "satellites": 0, "altitude_gps_m": -0.10999999940395355, "groundspeed_mps": 0.09998083859682083}, "flight": {"mode": "STABILIZE", "armed": false}, "ekf": {"attitude": {"roll": -0.02616661600768566, "pitch": -0.0210161991417408, "yaw": -3.1255877017974854}, "local_position": {"x": null, "y": null, "z": null}, "status": {"flags": 135, "velocity_variance": 0.0, "pos_horiz_variance": 0.02467738464474678, "pos_vert_variance": 0.029355207458138466}}, "errors": ["PreArm: RC not found", "PreArm: Hardware safety switch", "PreArm: Compasses inconsistent"]}
{"timestamp": "2026-01-29T12:12:09.455327Z", "telemetry": {"lat": 0.0, "lon": 0.0, "satellites": 0, "altitude_gps_m": -0.10999999940395355, "groundspeed_mps": 0.0922817513346672}, "flight": {"mode": "STABILIZE", "armed": false}, "ekf": {"attitude": {"roll": -0.026141809299588203, "pitch": -0.020845485851168633, "yaw": -3.1248526573181152}, "local_position": {"x": null, "y": null, "z": null}, "status": {"flags": 135, "velocity_variance": 0.0, "pos_horiz_variance": 0.024274928495287895, "pos_vert_variance": 0.03490234166383743}}, "errors": ["PreArm: RC not found", "PreArm: Hardware safety switch", "PreArm: Compasses inconsistent"]}
{"timestamp": "2026-01-29T12:12:10.455933Z", "telemetry": {"lat": 0.0, "lon": 0.0, "satellites": 0, "altitude_gps_m": -0.10999999940395355, "groundspeed_mps": 0.08803316950798035}, "flight": {"mode": "STABILIZE", "armed": false}, "ekf": {"attitude": {"roll": -0.0263237114995718, "pitch": -0.02076127752661705, "yaw": -3.1242306232452393}, "local_position": {"x": null, "y": null, "z": null}, "status": {"flags": 135, "velocity_variance": 0.0, "pos_horiz_variance": 0.023026026785373688, "pos_vert_variance": 0.03213442862033844}}, "errors": ["PreArm: RC not found", "PreArm: Hardware safety switch", "PreArm: Compasses inconsistent"]}
{"timestamp": "2026-01-29T12:12:11.454909Z", "telemetry": {"lat": 0.0, "lon": 0.0, "satellites": 0, "altitude_gps_m": -0.10999999940395355, "groundspeed_mps": 0.0888698622584343}, "flight": {"mode": "STABILIZE", "armed": false}, "ekf": {"attitude": {"roll": -0.026387521997094154, "pitch": -0.02079467475414276, "yaw": -3.123107433319092}, "local_position": {"x": null, "y": null, "z": null}, "status": {"flags": 135, "velocity_variance": 0.0, "pos_horiz_variance": 0.02229928784072399, "pos_vert_variance": 0.03715149313211441}}, "errors": ["PreArm: RC not found", "PreArm: Hardware safety switch", "PreArm: Compasses inconsistent"]}
{"timestamp": "2026-01-29T12:12:12.455690Z", "telemetry": {"lat": 0.0, "lon": 0.0, "satellites": 0, "altitude_gps_m": -0.10999999940395355, "groundspeed_mps": 0.08969449996948242}, "flight": {"mode": "STABILIZE", "armed": false}, "ekf": {"attitude": {"roll": -0.02624230645596981, "pitch": -0.020734019577503204, "yaw": -3.122267723083496}, "local_position": {"x": null, "y": null, "z": null}, "status": {"flags": 135, "velocity_variance": 0.0, "pos_horiz_variance": 0.022061070427298546, "pos_vert_variance": 0.0006162880454212427}}, "errors": ["PreArm: RC not found", "PreArm: Hardware safety switch", "PreArm: Compasses inconsistent"]}
{"timestamp": "2026-01-29T12:12:13.454600Z", "telemetry": {"lat": 0.0, "lon": 0.0, "satellites": 0, "altitude_gps_m": -0.10999999940395355, "groundspeed_mps": 0.08942392468452454}, "flight": {"mode": "STABILIZE", "armed": false}, "ekf": {"attitude": {"roll": -0.026191381737589836, "pitch": -0.020865537226200104, "yaw": -3.1218059062957764}, "local_position": {"x": null, "y": null, "z": null}, "status": {"flags": 135, "velocity_variance": 0.0, "pos_horiz_variance": 0.02223294973373413, "pos_vert_variance": 0.06124931201338768}}, "errors": ["PreArm: RC not found", "PreArm: Hardware safety switch", "PreArm: Compasses inconsistent"]}
{"timestamp": "2026-01-29T12:12:14.455818Z", "telemetry": {"lat": 0.0, "lon": 0.0, "satellites": 0, "altitude_gps_m": -0.10999999940395355, "groundspeed_mps": 0.09114433079957962}, "flight": {"mode": "STABILIZE", "armed": false}, "ekf": {"attitude": {"roll": -0.02616313099861145, "pitch": -0.021079499274492264, "yaw": -3.120811700820923}, "local_position": {"x": null, "y": null, "z": null}, "status": {"flags": 135, "velocity_variance": 0.0, "pos_horiz_variance": 0.02194339781999588, "pos_vert_variance": 0.08847128599882126}}, "errors": ["PreArm: RC not found", "PreArm: Hardware safety switch", "PreArm: Compasses inconsistent"]}
{"timestamp": "2026-01-29T12:12:15.454240Z", "telemetry": {"lat": 0.0, "lon": 0.0, "satellites": 0, "altitude_gps_m": -0.10999999940395355, "groundspeed_mps": 0.09429500997066498}, "flight": {"mode": "STABILIZE", "armed": false}, "ekf": {"attitude": {"roll": -0.02624954655766487, "pitch": -0.021266650408506393, "yaw": -3.1201999187469482}, "local_position": {"x": null, "y": null, "z": null}, "status": {"flags": 135, "velocity_variance": 0.0, "pos_horiz_variance": 0.022224092856049538, "pos_vert_variance": 0.05265984684228897}}, "errors": ["PreArm: RC not found", "PreArm: Hardware safety switch", "PreArm: Compasses inconsistent"]}
{"timestamp": "2026-01-29T12:12:16.454868Z", "telemetry": {"lat": 0.0, "lon": 0.0, "satellites": 0, "altitude_gps_m": -0.10999999940395355, "groundspeed_mps": 0.09595867246389389}, "flight": {"mode": "STABILIZE", "armed": false}, "ekf": {"attitude": {"roll": -0.0587247833609581, "pitch": 0.024349313229322433, "yaw": 3.1382558345794678}, "local_position": {"x": null, "y": null, "z": null}, "status": {"flags": 135, "velocity_variance": 0.0, "pos_horiz_variance": 0.022189749404788017, "pos_vert_variance": 0.04010531306266785}}, "errors": ["PreArm: RC not found", "PreArm: Hardware safety switch", "PreArm: Compasses inconsistent"]}
{"timestamp": "2026-01-29T12:12:17.453770Z", "telemetry": {"lat": 0.0, "lon": 0.0, "satellites": 0, "altitude_gps_m": -0.10999999940395355, "groundspeed_mps": 0.10256359726190567}, "flight": {"mode": "STABILIZE", "armed": false}, "ekf": {"attitude": {"roll": -0.12717534601688385, "pitch": 0.0057170577347278595, "yaw": -3.06803035736084}, "local_position": {"x": null, "y": null, "z": null}, "status": {"flags": 135, "velocity_variance": 0.0, "pos_horiz_variance": 0.026049448177218437, "pos_vert_variance": 0.018560072407126427}}, "errors": ["PreArm: RC not found", "PreArm: Hardware safety switch", "PreArm: Compasses inconsistent"]}
{"timestamp": "2026-01-29T12:12:18.454620Z", "telemetry": {"lat": 0.0, "lon": 0.0, "satellites": 0, "altitude_gps_m": -0.10999999940395355, "groundspeed_mps": 0.12119942903518677}, "flight": {"mode": "STABILIZE", "armed": false}, "ekf": {"attitude": {"roll": -0.15717577934265137, "pitch": -0.026211045682430267, "yaw": -3.0385262966156006}, "local_position": {"x": null, "y": null, "z": null}, "status": {"flags": 135, "velocity_variance": 0.0, "pos_horiz_variance": 0.02259685844182968, "pos_vert_variance": 0.02372983656823635}}, "errors": ["PreArm: RC not found", "PreArm: Hardware safety switch", "PreArm: Compasses inconsistent"]}
{"timestamp": "2026-01-29T12:12:19.453435Z", "telemetry": {"lat": 0.0, "lon": 0.0, "satellites": 0, "altitude_gps_m": -0.10999999940395355, "groundspeed_mps": 0.10705983638763428}, "flight": {"mode": "STABILIZE", "armed": false}, "ekf": {"attitude": {"roll": -0.15193414688110352, "pitch": -0.018083570525050163, "yaw": -3.0299503803253174}, "local_position": {"x": null, "y": null, "z": null}, "status": {"flags": 135, "velocity_variance": 0.0, "pos_horiz_variance": 0.024750877171754837, "pos_vert_variance": 0.009791449643671513}}, "errors": ["PreArm: RC not found", "PreArm: Hardware safety switch", "PreArm: Compasses inconsistent"]}
{"timestamp": "2026-01-29T12:12:20.454307Z", "telemetry": {"lat": 0.0, "lon": 0.0, "satellites": 0, "altitude_gps_m": -0.10999999940395355, "groundspeed_mps": 0.11103500425815582}, "flight": {"mode": "STABILIZE", "armed": false}, "ekf": {"attitude": {"roll": -0.1318618357181549, "pitch": -0.011538185179233551, "yaw": -3.0362703800201416}, "local_position": {"x": null, "y": null, "z": null}, "status": {"flags": 135, "velocity_variance": 0.0, "pos_horiz_variance": 0.024254774674773216, "pos_vert_variance": 0.023885222151875496}}, "errors": ["PreArm: RC not found", "PreArm: Hardware safety switch", "PreArm: Compasses inconsistent"]}
{"timestamp": "2026-01-29T12:12:21.453232Z", "telemetry": {"lat": 0.0, "lon": 0.0, "satellites": 0, "altitude_gps_m": -0.10999999940395355, "groundspeed_mps": 0.06465950608253479}, "flight": {"mode": "STABILIZE", "armed": false}, "ekf": {"attitude": {"roll": -0.1354154646396637, "pitch": 0.01172797754406929, "yaw": -3.028432846069336}, "local_position": {"x": null, "y": null, "z": null}, "status": {"flags": 135, "velocity_variance": 0.0, "pos_horiz_variance": 0.02329270914196968, "pos_vert_variance": 0.025388924404978752}}, "errors": ["PreArm: RC not found", "PreArm: Hardware safety switch", "PreArm: Compasses inconsistent"]}
{"timestamp": "2026-01-29T12:12:22.453574Z", "telemetry": {"lat": 0.0, "lon": 0.0, "satellites": 0, "altitude_gps_m": -0.10999999940395355, "groundspeed_mps": 0.09862152487039566}, "flight": {"mode": "STABILIZE", "armed": false}, "ekf": {"attitude": {"roll": -0.133088618516922, "pitch": -0.004137784242630005, "yaw": -3.043323040008545}, "local_position": {"x": null, "y": null, "z": null}, "status": {"flags": 135, "velocity_variance": 0.0, "pos_horiz_variance": 0.02030816301703453, "pos_vert_variance": 0.009898717515170574}}, "errors": ["PreArm: RC not found", "PreArm: Hardware safety switch", "PreArm: Compasses inconsistent"]}
{"timestamp": "2026-01-29T12:12:23.453141Z", "telemetry": {"lat": 0.0, "lon": 0.0, "satellites": 0, "altitude_gps_m": -0.10999999940395355, "groundspeed_mps": 0.05461324751377106}, "flight": {"mode": "STABILIZE", "armed": false}, "ekf": {"attitude": {"roll": -0.016988663002848625, "pitch": 0.02725393697619438, "yaw": -3.135312795639038}, "local_position": {"x": null, "y": null, "z": null}, "status": {"flags": 135, "velocity_variance": 0.0, "pos_horiz_variance": 0.018626369535923004, "pos_vert_variance": 0.02076639048755169}}, "errors": ["PreArm: RC not found", "PreArm: Hardware safety switch", "PreArm: Compasses inconsistent"]}
