{"timestamp": "2026-01-29T12:51:53.791491Z", "telemetry": {"lat": 13.3543508, "lon": 74.8647424, "satellites": 7, "altitude_gps_m": 43.86000061035156, "groundspeed_mps": 0.013193817809224129}, "flight": {"mode": "LOITER", "armed": false}, "ekf": {"attitude": {"roll": -0.019715074449777603, "pitch": -0.007717560976743698, "yaw": -2.7464282512664795}, "local_position": {"x": null, "y": null, "z": null}, "status": {"flags": 167, "velocity_variance": 0.0, "pos_horiz_variance": 0.002718981821089983, "pos_vert_variance": 0.0}}, "errors": ["EKF3 IMU0 origin set", "Field Elevation Set: 44m", "EKF3 IMU1 origin set"]}
{"timestamp": "2026-01-29T12:51:54.831092Z", "telemetry": {"lat": 13.3543507, "lon": 74.8647421, "satellites": 7, "altitude_gps_m": 44.06999969482422, "groundspeed_mps": 0.017428608611226082}, "flight": {"mode": "LOITER", "armed": false}, "ekf": {"attitude": {"roll": -0.01965462416410446, "pitch": -0.008092770352959633, "yaw": -2.7462332248687744}, "local_position": {"x": null, "y": null, "z": null}, "status": {"flags": 167, "velocity_variance": 0.0, "pos_horiz_variance": 0.0038660408463329077, "pos_vert_variance": 0.013871864415705204}}, "errors": ["EKF3 IMU0 origin set", "Field Elevation Set: 44m", "EKF3 IMU1 origin set"]}
{"timestamp": "2026-01-29T12:51:55.832529Z", "telemetry": {"lat": 13.3543509, "lon": 74.8647413, "satellites": 7, "altitude_gps_m": 44.099998474121094, "groundspeed_mps": 0.024122904986143112}, "flight": {"mode": "LOITER", "armed": false}, "ekf": {"attitude": {"roll": -0.01953631266951561, "pitch": -0.008121700957417488, "yaw": -2.745650053024292}, "local_position": {"x": null, "y": null, "z": null}, "status": {"flags": 167, "velocity_variance": 0.0, "pos_horiz_variance": 0.004995330236852169, "pos_vert_variance": 0.014184128493070602}}, "errors": ["EKF3 IMU0 origin set", "Field Elevation Set: 44m", "EKF3 IMU1 origin set"]}
{"timestamp": "2026-01-29T12:51:56.833024Z", "telemetry": {"lat": 13.3543507, "lon": 74.8647404, "satellites": 7, "altitude_gps_m": 44.16999816894531, "groundspeed_mps": 0.025883272290229797}, "flight": {"mode": "LOITER", "armed": false}, "ekf": {"attitude": {"roll": -0.01951255276799202, "pitch": -0.00828111357986927, "yaw": -2.7456541061401367}, "local_position": {"x": null, "y": null, "z": null}, "status": {"flags": 167, "velocity_variance": 0.0, "pos_horiz_variance": 0.005925548262894154, "pos_vert_variance": 0.014379789121448994}}, "errors": ["EKF3 IMU0 origin set", "Field Elevation Set: 44m", "EKF3 IMU1 origin set"]}
{"timestamp": "2026-01-29T12:51:57.832015Z", "telemetry": {"lat": 13.3543505, "lon": 74.86474, "satellites": 7, "altitude_gps_m": 44.29999923706055, "groundspeed_mps": 0.031055912375450134}, "flight": {"mode": "LOITER", "armed": false}, "ekf": {"attitude": {"roll": -0.019545679911971092, "pitch": -0.00853092223405838, "yaw": -2.74528431892395}, "local_position": {"x": null, "y": null, "z": null}, "status": {"flags": 167, "velocity_variance": 0.0, "pos_horiz_variance": 0.0069076851941645145, "pos_vert_variance": 0.01671404018998146}}, "errors": ["EKF3 IMU0 origin set", "Field Elevation Set: 44m", "EKF3 IMU1 origin set"]}
{"timestamp": "2026-01-29T12:51:58.832951Z", "telemetry": {"lat": 13.3543501, "lon": 74.8647402, "satellites": 7, "altitude_gps_m": 44.45000076293945, "groundspeed_mps": 0.03418374061584473}, "flight": {"mode": "LOITER", "armed": false}, "ekf": {"attitude": {"roll": -0.019478121772408485, "pitch": -0.008664820343255997, "yaw": -2.7455673217773438}, "local_position": {"x": null, "y": null, "z": null}, "status": {"flags": 167, "velocity_variance": 0.0, "pos_horiz_variance": 0.00795359443873167, "pos_vert_variance": 0.018076928332448006}}, "errors": ["EKF3 IMU0 origin set", "Field Elevation Set: 44m", "EKF3 IMU1 origin set"]}
{"timestamp": "2026-01-29T12:51:59.831661Z", "telemetry": {"lat": 13.3543502, "lon": 74.8647407, "satellites": 7, "altitude_gps_m": 44.56999969482422, "groundspeed_mps": 0.03654235601425171}, "flight": {"mode": "LOITER", "armed": false}, "ekf": {"attitude": {"roll": -0.01937911845743656, "pitch": -0.008795462548732758, "yaw": -2.745612621307373}, "local_position": {"x": null, "y": null, "z": null}, "status": {"flags": 167, "velocity_variance": 0.0, "pos_horiz_variance": 0.008870299905538559, "pos_vert_variance": 0.01786491647362709}}, "errors": ["EKF3 IMU0 origin set", "Field Elevation Set: 44m", "EKF3 IMU1 origin set"]}
{"timestamp": "2026-01-29T12:52:00.833869Z", "telemetry": {"lat": 13.3543503, "lon": 74.8647408, "satellites": 7, "altitude_gps_m": 44.57999801635742, "groundspeed_mps": 0.039757199585437775}, "flight": {"mode": "LOITER", "armed": false}, "ekf": {"attitude": {"roll": -0.01944057270884514, "pitch": -0.008840756490826607, "yaw": -2.7454915046691895}, "local_position": {"x": null, "y": null, "z": null}, "status": {"flags": 167, "velocity_variance": 0.0, "pos_horiz_variance": 0.010052932426333427, "pos_vert_variance": 0.004646566696465015}}, "errors": ["EKF3 IMU0 origin set", "Field Elevation Set: 44m", "EKF3 IMU1 origin set", "PreArm: Need Position Estimate"]}
{"timestamp": "2026-01-29T12:52:01.831361Z", "telemetry": {"lat": 13.3543499, "lon": 74.8647414, "satellites": 7, "altitude_gps_m": 44.56999969482422, "groundspeed_mps": 0.04374229907989502}, "flight": {"mode": "LOITER", "armed": false}, "ekf": {"attitude": {"roll": -0.019284777343273163, "pitch": -0.008928490802645683, "yaw": -2.745349407196045}, "local_position": {"x": null, "y": null, "z": null}, "status": {"flags": 167, "velocity_variance": 0.0, "pos_horiz_variance": 0.010939165949821472, "pos_vert_variance": 0.005636912304908037}}, "errors": ["EKF3 IMU0 origin set", "Field Elevation Set: 44m", "EKF3 IMU1 origin set", "PreArm: Need Position Estimate"]}
{"timestamp": "2026-01-29T12:52:02.833294Z", "telemetry": {"lat": 13.3543496, "lon": 74.864742, "satellites": 7, "altitude_gps_m": 44.62999725341797, "groundspeed_mps": 0.049203332513570786}, "flight": {"mode": "LOITER", "armed": false}, "ekf": {"attitude": {"roll": -0.019160263240337372, "pitch": -0.00900469720363617, "yaw": -2.7454757690429688}, "local_position": {"x": null, "y": null, "z": null}, "status": {"flags": 167, "velocity_variance": 0.0, "pos_horiz_variance": 0.011912220157682896, "pos_vert_variance": 0.007631294429302216}}, "errors": ["EKF3 IMU0 origin set", "Field Elevation Set: 44m", "EKF3 IMU1 origin set", "PreArm: Need Position Estimate"]}
{"timestamp": "2026-01-29T12:52:03.831053Z", "telemetry": {"lat": 13.3543492, "lon": 74.864743, "satellites": 7, "altitude_gps_m": 44.65999984741211, "groundspeed_mps": 0.04848000779747963}, "flight": {"mode": "LOITER", "armed": false}, "ekf": {"attitude": {"roll": -0.01880178600549698, "pitch": -0.00900285318493843, "yaw": -2.744910955429077}, "local_position": {"x": null, "y": null, "z": null}, "status": {"flags": 167, "velocity_variance": 0.0, "pos_horiz_variance": 0.013102998957037926, "pos_vert_variance": 0.014708546921610832}}, "errors": ["EKF3 IMU0 origin set", "Field Elevation Set: 44m", "EKF3 IMU1 origin set", "PreArm: Need Position Estimate"]}
{"timestamp": "2026-01-29T12:52:04.832698Z", "telemetry": {"lat": 13.3543488, "lon": 74.8647444, "satellites": 7, "altitude_gps_m": 44.689998626708984, "groundspeed_mps": 0.05090313404798508}, "flight": {"mode": "LOITER", "armed": false}, "ekf": {"attitude": {"roll": -0.018910279497504234, "pitch": -0.009157504886388779, "yaw": -2.7446558475494385}, "local_position": {"x": null, "y": null, "z": null}, "status": {"flags": 167, "velocity_variance": 0.0, "pos_horiz_variance": 0.01349758543074131, "pos_vert_variance": 0.01492207683622837}}, "errors": ["EKF3 IMU0 origin set", "Field Elevation Set: 44m", "EKF3 IMU1 origin set", "PreArm: Need Position Estimate"]}
{"timestamp": "2026-01-29T12:52:05.831015Z", "telemetry": {"lat": 13.3543487, "lon": 74.8647456, "satellites": 7, "altitude_gps_m": 44.77000045776367, "groundspeed_mps": 0.053159575909376144}, "flight": {"mode": "LOITER", "armed": false}, "ekf": {"attitude": {"roll": -0.018789192661643028, "pitch": -0.009202957153320312, "yaw": -2.744178533554077}, "local_position": {"x": null, "y": null, "z": null}, "status": {"flags": 167, "velocity_variance": 0.0, "pos_horiz_variance": 0.014209235087037086, "pos_vert_variance": 0.013837439939379692}}, "errors": ["EKF3 IMU0 origin set", "Field Elevation Set: 44m", "EKF3 IMU1 origin set", "PreArm: Need Position Estimate"]}
{"timestamp": "2026-01-29T12:52:06.831849Z", "telemetry": {"lat": 13.3543484, "lon": 74.8647465, "satellites": 7, "altitude_gps_m": 44.88999938964844, "groundspeed_mps": 0.055000025779008865}, "flight": {"mode": "LOITER", "armed": false}, "ekf": {"attitude": {"roll": -0.01860438473522663, "pitch": -0.009397059679031372, "yaw": -2.74401593208313}, "local_position": {"x": null, "y": null, "z": null}, "status": {"flags": 167, "velocity_variance": 0.0, "pos_horiz_variance": 0.014965986832976341, "pos_vert_variance": 0.010926480405032635}}, "errors": ["EKF3 IMU0 origin set", "Field Elevation Set: 44m", "EKF3 IMU1 origin set", "PreArm: Need Position Estimate"]}
{"timestamp": "2026-01-29T12:52:07.830730Z", "telemetry": {"lat": 13.3543487, "lon": 74.8647477, "satellites": 7, "altitude_gps_m": 44.959999084472656, "groundspeed_mps": 0.057723674923181534}, "flight": {"mode": "LOITER", "armed": false}, "ekf": {"attitude": {"roll": -0.018490921705961227, "pitch": -0.009469406679272652, "yaw": -2.7437615394592285}, "local_position": {"x": null, "y": null, "z": null}, "status": {"flags": 167, "velocity_variance": 0.0, "pos_horiz_variance": 0.015619102865457535, "pos_vert_variance": 0.012960517778992653}}, "errors": ["EKF3 IMU0 origin set", "Field Elevation Set: 44m", "EKF3 IMU1 origin set", "PreArm: Need Position Estimate"]}
{"timestamp": "2026-01-29T12:52:08.832038Z", "telemetry": {"lat": 13.3543484, "lon": 74.8647483, "satellites": 7, "altitude_gps_m": 45.06999969482422, "groundspeed_mps": 0.06284745037555695}, "flight": {"mode": "LOITER", "armed": false}, "ekf": {"attitude": {"roll": -0.018500423058867455, "pitch": -0.009725434705615044, "yaw": -2.7433676719665527}, "local_position": {"x": null, "y": null, "z": null}, "status": {"flags": 167, "velocity_variance": 0.0, "pos_horiz_variance": 0.016211945563554764, "pos_vert_variance": 0.011433599516749382}}, "errors": ["EKF3 IMU0 origin set", "Field Elevation Set: 44m", "EKF3 IMU1 origin set", "PreArm: Need Position Estimate"]}
{"timestamp": "2026-01-29T12:52:09.830162Z", "telemetry": {"lat": 13.3543482, "lon": 74.8647494, "satellites": 7, "altitude_gps_m": 45.06999969482422, "groundspeed_mps": 0.06812888383865356}, "flight": {"mode": "LOITER", "armed": false}, "ekf": {"attitude": {"roll": -0.01848338544368744, "pitch": -0.009822307154536247, "yaw": -2.7430882453918457}, "local_position": {"x": null, "y": null, "z": null}, "status": {"flags": 167, "velocity_variance": 0.0, "pos_horiz_variance": 0.017736874520778656, "pos_vert_variance": 0.017935682088136673}}, "errors": ["EKF3 IMU0 origin set", "Field Elevation Set: 44m", "EKF3 IMU1 origin set", "PreArm: Need Position Estimate"]}
{"timestamp": "2026-01-29T12:52:10.831615Z", "telemetry": {"lat": 13.3543476, "lon": 74.8647508, "satellites": 7, "altitude_gps_m": 45.0099983215332, "groundspeed_mps": 0.07398130744695663}, "flight": {"mode": "LOITER", "armed": false}, "ekf": {"attitude": {"roll": -0.018551820889115334, "pitch": -0.010067727416753769, "yaw": -2.7428133487701416}, "local_position": {"x": null, "y": null, "z": null}, "status": {"flags": 167, "velocity_variance": 0.0, "pos_horiz_variance": 0.019004808738827705, "pos_vert_variance": 0.025787264108657837}}, "errors": ["EKF3 IMU0 origin set", "Field Elevation Set: 44m", "EKF3 IMU1 origin set", "PreArm: Need Position Estimate"]}
{"timestamp": "2026-01-29T12:52:11.831821Z", "telemetry": {"lat": 13.3543472, "lon": 74.8647516, "satellites": 7, "altitude_gps_m": 45.16999816894531, "groundspeed_mps": 0.0809214860200882}, "flight": {"mode": "LOITER", "armed": false}, "ekf": {"attitude": {"roll": -0.01859688200056553, "pitch": -0.010306604206562042, "yaw": -2.7426915168762207}, "local_position": {"x": null, "y": null, "z": null}, "status": {"flags": 167, "velocity_variance": 0.0, "pos_horiz_variance": 0.020841363817453384, "pos_vert_variance": 0.015629081055521965}}, "errors": ["EKF3 IMU0 origin set", "Field Elevation Set: 44m", "EKF3 IMU1 origin set", "PreArm: Need Position Estimate"]}
{"timestamp": "2026-01-29T12:52:12.829840Z", "telemetry": {"lat": 13.3543466, "lon": 74.8647522, "satellites": 7, "altitude_gps_m": 45.18000030517578, "groundspeed_mps": 0.08881283551454544}, "flight": {"mode": "LOITER", "armed": false}, "ekf": {"attitude": {"roll": -0.01868416555225849, "pitch": -0.010551542043685913, "yaw": -2.7425787448883057}, "local_position": {"x": null, "y": null, "z": null}, "status": {"flags": 167, "velocity_variance": 0.0, "pos_horiz_variance": 0.022790849208831787, "pos_vert_variance": 0.019235169515013695}}, "errors": ["EKF3 IMU0 origin set", "Field Elevation Set: 44m", "EKF3 IMU1 origin set", "PreArm: Need Position Estimate"]}
{"timestamp": "2026-01-29T12:52:13.831543Z", "telemetry": {"lat": 13.3543465, "lon": 74.8647529, "satellites": 7, "altitude_gps_m": 45.30999755859375, "groundspeed_mps": 0.09251166135072708}, "flight": {"mode": "LOITER", "armed": false}, "ekf": {"attitude": {"roll": -0.018890326842665672, "pitch": -0.010564461350440979, "yaw": -2.742685079574585}, "local_position": {"x": null, "y": null, "z": null}, "status": {"flags": 167, "velocity_variance": 0.0, "pos_horiz_variance": 0.024703480303287506, "pos_vert_variance": 0.012433537282049656}}, "errors": ["EKF3 IMU0 origin set", "Field Elevation Set: 44m", "EKF3 IMU1 origin set", "PreArm: Need Position Estimate"]}
{"timestamp": "2026-01-29T12:52:14.830070Z", "telemetry": {"lat": 13.3543456, "lon": 74.8647531, "satellites": 7, "altitude_gps_m": 45.54999923706055, "groundspeed_mps": 0.06884694844484329}, "flight": {"mode": "LOITER", "armed": false}, "ekf": {"attitude": {"roll": -0.019033804535865784, "pitch": -0.010781394317746162, "yaw": -2.74273681640625}, "local_position": {"x": -0.5583826303482056, "y": 1.1703670024871826, "z": -1.6754099130630493}, "status": {"flags": 831, "velocity_variance": 0.013412189669907093, "pos_horiz_variance": 0.0010687120957300067, "pos_vert_variance": 0.012523772194981575}}, "errors": ["EKF3 IMU0 origin set", "Field Elevation Set: 44m", "EKF3 IMU1 origin set", "PreArm: Need Position Estimate", "EKF3 IMU1 is using GPS", "EKF3 IMU0 is using GPS"]}
{"timestamp": "2026-01-29T12:52:15.829024Z", "telemetry": {"lat": 13.3543447, "lon": 74.864754, "satellites": 7, "altitude_gps_m": 45.59000015258789, "groundspeed_mps": 0.053548410534858704}, "flight": {"mode": "LOITER", "armed": true}, "ekf": {"attitude": {"roll": -0.019031357020139694, "pitch": -0.011414967477321625, "yaw": -2.74286150932312}, "local_position": {"x": -0.6170743107795715, "y": 1.2717853784561157, "z": -1.7329418659210205}, "status": {"flags": 831, "velocity_variance": 0.025880571454763412, "pos_horiz_variance": 0.0036818182561546564, "pos_vert_variance": 0.0013781236484646797}}, "errors": ["EKF3 IMU0 origin set", "Field Elevation Set: 44m", "EKF3 IMU1 origin set", "PreArm: Need Position Estimate", "EKF3 IMU1 is using GPS", "EKF3 IMU0 is using GPS"]}
{"timestamp": "2026-01-29T12:52:16.830530Z", "telemetry": {"lat": 13.3543445, "lon": 74.8647538, "satellites": 7, "altitude_gps_m": 45.59000015258789, "groundspeed_mps": 0.027602028101682663}, "flight": {"mode": "LOITER", "armed": true}, "ekf": {"attitude": {"roll": -0.01894155889749527, "pitch": -0.011918183416128159, "yaw": -2.7425343990325928}, "local_position": {"x": -0.654751718044281, "y": 1.2645303010940552, "z": -1.7375805377960205}, "status": {"flags": 831, "velocity_variance": 0.06143634393811226, "pos_horiz_variance": 0.0030311844311654568, "pos_vert_variance": 0.0043225595727562904}}, "errors": ["EKF3 IMU0 origin set", "Field Elevation Set: 44m", "EKF3 IMU1 origin set", "PreArm: Need Position Estimate", "EKF3 IMU1 is using GPS", "EKF3 IMU0 is using GPS"]}
{"timestamp": "2026-01-29T12:52:17.828576Z", "telemetry": {"lat": 13.3543435, "lon": 74.8647533, "satellites": 7, "altitude_gps_m": 45.66999816894531, "groundspeed_mps": 0.09118027985095978}, "flight": {"mode": "LOITER", "armed": true}, "ekf": {"attitude": {"roll": -0.019109442830085754, "pitch": -0.01250169426202774, "yaw": -2.742480754852295}, "local_position": {"x": -0.6905925273895264, "y": 1.1764403581619263, "z": -1.7939188480377197}, "status": {"flags": 831, "velocity_variance": 0.03733070567250252, "pos_horiz_variance": 0.007358584553003311, "pos_vert_variance": 0.0070787472650408745}}, "errors": ["EKF3 IMU0 origin set", "Field Elevation Set: 44m", "EKF3 IMU1 origin set", "PreArm: Need Position Estimate", "EKF3 IMU1 is using GPS", "EKF3 IMU0 is using GPS"]}
{"timestamp": "2026-01-29T12:52:18.830057Z", "telemetry": {"lat": 13.3543424, "lon": 74.8647534, "satellites": 7, "altitude_gps_m": 45.75, "groundspeed_mps": 0.05536359176039696}, "flight": {"mode": "LOITER", "armed": true}, "ekf": {"attitude": {"roll": -0.019362512975931168, "pitch": -0.012981899082660675, "yaw": -2.741375207901001}, "local_position": {"x": -0.7920616269111633, "y": 1.203930377960205, "z": -1.894501805305481}, "status": {"flags": 831, "velocity_variance": 0.06565187126398087, "pos_horiz_variance": 0.00900505855679512, "pos_vert_variance": 0.007941493764519691}}, "errors": ["EKF3 IMU0 origin set", "Field Elevation Set: 44m", "EKF3 IMU1 origin set", "PreArm: Need Position Estimate", "EKF3 IMU1 is using GPS", "EKF3 IMU0 is using GPS"]}
{"timestamp": "2026-01-29T12:52:19.866805Z", "telemetry": {"lat": 13.3543421, "lon": 74.8647529, "satellites": 7, "altitude_gps_m": 45.84000015258789, "groundspeed_mps": 0.04544061794877052}, "flight": {"mode": "LOITER", "armed": true}, "ekf": {"attitude": {"roll": -0.019522076472640038, "pitch": -0.013511549681425095, "yaw": -2.741238594055176}, "local_position": {"x": -0.8049976825714111, "y": 1.1715507507324219, "z": -1.986219882965088}, "status": {"flags": 831, "velocity_variance": 0.04025009647011757, "pos_horiz_variance": 0.010069439187645912, "pos_vert_variance": 0.008239297196269035}}, "errors": ["EKF3 IMU0 origin set", "Field Elevation Set: 44m", "EKF3 IMU1 origin set", "PreArm: Need Position Estimate", "EKF3 IMU1 is using GPS", "EKF3 IMU0 is using GPS"]}
{"timestamp": "2026-01-29T12:52:20.828855Z", "telemetry": {"lat": 13.3543421, "lon": 74.8647522, "satellites": 7, "altitude_gps_m": 45.91999816894531, "groundspeed_mps": 0.04691528156399727}, "flight": {"mode": "LOITER", "armed": true}, "ekf": {"attitude": {"roll": -0.019681410863995552, "pitch": -0.01403607428073883, "yaw": -2.7407233715057373}, "local_position": {"x": -0.8508179783821106, "y": 1.1370763778686523, "z": -2.0659356117248535}, "status": {"flags": 831, "velocity_variance": 0.06522313505411148, "pos_horiz_variance": 0.009119919501245022, "pos_vert_variance": 0.013486435636878014}}, "errors": ["EKF3 IMU0 origin set", "Field Elevation Set: 44m", "EKF3 IMU1 origin set", "PreArm: Need Position Estimate", "EKF3 IMU1 is using GPS", "EKF3 IMU0 is using GPS"]}
{"timestamp": "2026-01-29T12:52:21.866527Z", "telemetry": {"lat": 13.3543418, "lon": 74.8647514, "satellites": 7, "altitude_gps_m": 46.0, "groundspeed_mps": 0.04066510498523712}, "flight": {"mode": "LOITER", "armed": true}, "ekf": {"attitude": {"roll": -0.020090678706765175, "pitch": -0.014956753700971603, "yaw": -2.7402851581573486}, "local_position": {"x": -0.8875572681427002, "y": 1.1459640264511108, "z": -2.1480352878570557}, "status": {"flags": 831, "velocity_variance": 0.018435565754771233, "pos_horiz_variance": 0.012315351516008377, "pos_vert_variance": 0.009010899811983109}}, "errors": ["EKF3 IMU0 origin set", "Field Elevation Set: 44m", "EKF3 IMU1 origin set", "PreArm: Need Position Estimate", "EKF3 IMU1 is using GPS", "EKF3 IMU0 is using GPS"]}
{"timestamp": "2026-01-29T12:52:22.830282Z", "telemetry": {"lat": 13.3543407, "lon": 74.86475, "satellites": 7, "altitude_gps_m": 46.11000061035156, "groundspeed_mps": 0.07499812543392181}, "flight": {"mode": "LOITER", "armed": true}, "ekf": {"attitude": {"roll": -0.02010621689260006, "pitch": -0.0157279334962368, "yaw": -2.7399344444274902}, "local_position": {"x": -0.9341113567352295, "y": 1.090613603591919, "z": -2.224135398864746}, "status": {"flags": 831, "velocity_variance": 0.06214241310954094, "pos_horiz_variance": 0.016246819868683815, "pos_vert_variance": 0.003336208639666438}}, "errors": ["EKF3 IMU0 origin set", "Field Elevation Set: 44m", "EKF3 IMU1 origin set", "PreArm: Need Position Estimate", "EKF3 IMU1 is using GPS", "EKF3 IMU0 is using GPS"]}
{"timestamp": "2026-01-29T12:52:23.866086Z", "telemetry": {"lat": 13.3543407, "lon": 74.8647493, "satellites": 7, "altitude_gps_m": 46.15999984741211, "groundspeed_mps": 0.07623761147260666}, "flight": {"mode": "LOITER", "armed": true}, "ekf": {"attitude": {"roll": -0.020320208743214607, "pitch": -0.01604202762246132, "yaw": -2.739558458328247}, "local_position": {"x": -1.0060927867889404, "y": 1.0084675550460815, "z": -2.3021881580352783}, "status": {"flags": 831, "velocity_variance": 0.08504924923181534, "pos_horiz_variance": 0.01718134619295597, "pos_vert_variance": 0.009395964443683624}}, "errors": ["EKF3 IMU0 origin set", "Field Elevation Set: 44m", "EKF3 IMU1 origin set", "PreArm: Need Position Estimate", "EKF3 IMU1 is using GPS", "EKF3 IMU0 is using GPS"]}
{"timestamp": "2026-01-29T12:52:24.866042Z", "telemetry": {"lat": 13.3543409, "lon": 74.8647475, "satellites": 7, "altitude_gps_m": 46.15999984741211, "groundspeed_mps": 0.09573829174041748}, "flight": {"mode": "LOITER", "armed": true}, "ekf": {"attitude": {"roll": -0.019934793934226036, "pitch": -0.016907643526792526, "yaw": -2.739119291305542}, "local_position": {"x": -1.0373455286026, "y": 0.8897335529327393, "z": -2.300821304321289}, "status": {"flags": 831, "velocity_variance": 0.02302495203912258, "pos_horiz_variance": 0.020992934703826904, "pos_vert_variance": 0.008981452323496342}}, "errors": ["EKF3 IMU0 origin set", "Field Elevation Set: 44m", "EKF3 IMU1 origin set", "PreArm: Need Position Estimate", "EKF3 IMU1 is using GPS", "EKF3 IMU0 is using GPS"]}
{"timestamp": "2026-01-29T12:52:25.865938Z", "telemetry": {"lat": 13.3543411, "lon": 74.8647462, "satellites": 7, "altitude_gps_m": 46.11000061035156, "groundspeed_mps": 0.12468373775482178}, "flight": {"mode": "LOITER", "armed": false}, "ekf": {"attitude": {"roll": -0.01995052397251129, "pitch": -0.017034195363521576, "yaw": -2.7385942935943604}, "local_position": {"x": -1.0850461721420288, "y": 0.7270664572715759, "z": -2.256450891494751}, "status": {"flags": 831, "velocity_variance": 0.09743271768093109, "pos_horiz_variance": 0.019701877608895302, "pos_vert_variance": 0.019992129877209663}}, "errors": ["EKF3 IMU0 origin set", "Field Elevation Set: 44m", "EKF3 IMU1 origin set", "PreArm: Need Position Estimate", "EKF3 IMU1 is using GPS", "EKF3 IMU0 is using GPS"]}
{"timestamp": "2026-01-29T12:52:26.861758Z", "telemetry": {"lat": 13.3543411, "lon": 74.8647442, "satellites": 7, "altitude_gps_m": 46.04999923706055, "groundspeed_mps": 0.13681811094284058}, "flight": {"mode": "LOITER", "armed": false}, "ekf": {"attitude": {"roll": -0.02016524225473404, "pitch": -0.01680576056241989, "yaw": -2.7381396293640137}, "local_position": {"x": -1.1175463199615479, "y": 0.578600287437439, "z": -2.1992440223693848}, "status": {"flags": 831, "velocity_variance": 0.08693452924489975, "pos_horiz_variance": 0.023479614406824112, "pos_vert_variance": 0.029848741367459297}}, "errors": ["EKF3 IMU0 origin set", "Field Elevation Set: 44m", "EKF3 IMU1 origin set", "PreArm: Need Position Estimate", "EKF3 IMU1 is using GPS", "EKF3 IMU0 is using GPS"]}
{"timestamp": "2026-01-29T12:52:27.861620Z", "telemetry": {"lat": 13.3543404, "lon": 74.8647423, "satellites": 7, "altitude_gps_m": 45.97999954223633, "groundspeed_mps": 0.15600603818893433}, "flight": {"mode": "LOITER", "armed": false}, "ekf": {"attitude": {"roll": -0.020562680438160896, "pitch": -0.017089853063225746, "yaw": -2.7381789684295654}, "local_position": {"x": -1.186671495437622, "y": 0.4072711765766144, "z": -2.1222949028015137}, "status": {"flags": 831, "velocity_variance": 0.021242307499051094, "pos_horiz_variance": 0.026799948886036873, "pos_vert_variance": 0.042502980679273605}}, "errors": ["EKF3 IMU0 origin set", "Field Elevation Set: 44m", "EKF3 IMU1 origin set", "PreArm: Need Position Estimate", "EKF3 IMU1 is using GPS", "EKF3 IMU0 is using GPS"]}
{"timestamp": "2026-01-29T12:52:28.861536Z", "telemetry": {"lat": 13.3543402, "lon": 74.8647409, "satellites": 7, "altitude_gps_m": 45.81999969482422, "groundspeed_mps": 0.15785551071166992}, "flight": {"mode": "LOITER", "armed": false}, "ekf": {"attitude": {"roll": -0.021039115265011787, "pitch": -0.01666717417538166, "yaw": -2.737936019897461}, "local_position": {"x": -1.2567756175994873, "y": 0.2533879578113556, "z": -1.9628154039382935}, "status": {"flags": 831, "velocity_variance": 0.04594627767801285, "pos_horiz_variance": 0.02632148005068302, "pos_vert_variance": 0.045819565653800964}}, "errors": ["EKF3 IMU0 origin set", "Field Elevation Set: 44m", "EKF3 IMU1 origin set", "PreArm: Need Position Estimate", "EKF3 IMU1 is using GPS", "EKF3 IMU0 is using GPS"]}
{"timestamp": "2026-01-29T12:52:29.861205Z", "telemetry": {"lat": 13.3543403, "lon": 74.8647402, "satellites": 7, "altitude_gps_m": 45.61000061035156, "groundspeed_mps": 0.12498778104782104}, "flight": {"mode": "LOITER", "armed": false}, "ekf": {"attitude": {"roll": -0.02117319591343403, "pitch": -0.015740182250738144, "yaw": -2.737576961517334}, "local_position": {"x": -1.25612473487854, "y": 0.13305814564228058, "z": -1.7495757341384888}, "status": {"flags": 831, "velocity_variance": 0.07354071736335754, "pos_horiz_variance": 0.023553267121315002, "pos_vert_variance": 0.04611408710479736}}, "errors": ["EKF3 IMU0 origin set", "Field Elevation Set: 44m", "EKF3 IMU1 origin set", "PreArm: Need Position Estimate", "EKF3 IMU1 is using GPS", "EKF3 IMU0 is using GPS"]}
{"timestamp": "2026-01-29T12:52:30.860966Z", "telemetry": {"lat": 13.3543402, "lon": 74.8647389, "satellites": 7, "altitude_gps_m": 45.43000030517578, "groundspeed_mps": 0.12548664212226868}, "flight": {"mode": "LOITER", "armed": false}, "ekf": {"attitude": {"roll": -0.020872855558991432, "pitch": -0.015968989580869675, "yaw": -2.737330675125122}, "local_position": {"x": -1.2461551427841187, "y": -0.0040810853242874146, "z": -1.61324942111969}, "status": {"flags": 831, "velocity_variance": 0.05061090365052223, "pos_horiz_variance": 0.02290406823158264, "pos_vert_variance": 0.050010111182928085}}, "errors": ["EKF3 IMU0 origin set", "Field Elevation Set: 44m", "EKF3 IMU1 origin set", "PreArm: Need Position Estimate", "EKF3 IMU1 is using GPS", "EKF3 IMU0 is using GPS"]}
{"timestamp": "2026-01-29T12:52:31.860941Z", "telemetry": {"lat": 13.3543391, "lon": 74.8647388, "satellites": 7, "altitude_gps_m": 45.23999786376953, "groundspeed_mps": 0.15293201804161072}, "flight": {"mode": "LOITER", "armed": true}, "ekf": {"attitude": {"roll": -0.020932484418153763, "pitch": -0.016706889495253563, "yaw": -2.7369587421417236}, "local_position": {"x": -1.3527556657791138, "y": -0.1805596500635147, "z": -1.3817007541656494}, "status": {"flags": 831, "velocity_variance": 0.06980692595243454, "pos_horiz_variance": 0.013805472292006016, "pos_vert_variance": 0.06609522551298141}}, "errors": ["EKF3 IMU0 origin set", "Field Elevation Set: 44m", "EKF3 IMU1 origin set", "PreArm: Need Position Estimate", "EKF3 IMU1 is using GPS", "EKF3 IMU0 is using GPS"]}
{"timestamp": "2026-01-29T12:52:32.860738Z", "telemetry": {"lat": 13.3543394, "lon": 74.864739, "satellites": 7, "altitude_gps_m": 44.98999786376953, "groundspeed_mps": 0.12473595887422562}, "flight": {"mode": "LOITER", "armed": true}, "ekf": {"attitude": {"roll": -0.021452469751238823, "pitch": -0.0165595430880785, "yaw": -2.73675799369812}, "local_position": {"x": -1.3715084791183472, "y": -0.2194935828447342, "z": -1.1317248344421387}, "status": {"flags": 831, "velocity_variance": 0.0862499251961708, "pos_horiz_variance": 0.010765228420495987, "pos_vert_variance": 0.05019483342766762}}, "errors": ["EKF3 IMU0 origin set", "Field Elevation Set: 44m", "EKF3 IMU1 origin set", "PreArm: Need Position Estimate", "EKF3 IMU1 is using GPS", "EKF3 IMU0 is using GPS"]}
{"timestamp": "2026-01-29T12:52:33.860600Z", "telemetry": {"lat": 13.3543395, "lon": 74.8647396, "satellites": 7, "altitude_gps_m": 44.7599983215332, "groundspeed_mps": 0.11171945184469223}, "flight": {"mode": "LOITER", "armed": true}, "ekf": {"attitude": {"roll": -0.021580548956990242, "pitch": -0.01701737754046917, "yaw": -2.7357969284057617}, "local_position": {"x": -1.3877753019332886, "y": -0.24641042947769165, "z": -0.9662950038909912}, "status": {"flags": 831, "velocity_variance": 0.04022529348731041, "pos_horiz_variance": 0.007923880591988564, "pos_vert_variance": 0.05137248709797859}}, "errors": ["EKF3 IMU0 origin set", "Field Elevation Set: 44m", "EKF3 IMU1 origin set", "PreArm: Need Position Estimate", "EKF3 IMU1 is using GPS", "EKF3 IMU0 is using GPS"]}
{"timestamp": "2026-01-29T12:52:34.860390Z", "telemetry": {"lat": 13.3543404, "lon": 74.8647413, "satellites": 7, "altitude_gps_m": 44.46999740600586, "groundspeed_mps": 0.09639643877744675}, "flight": {"mode": "LOITER", "armed": true}, "ekf": {"attitude": {"roll": -0.021644212305545807, "pitch": -0.017708614468574524, "yaw": -2.736095905303955}, "local_position": {"x": -1.381537914276123, "y": -0.2176789939403534, "z": -0.6851186156272888}, "status": {"flags": 831, "velocity_variance": 0.025255780667066574, "pos_horiz_variance": 0.013389920815825462, "pos_vert_variance": 0.056477535516023636}}, "errors": ["EKF3 IMU0 origin set", "Field Elevation Set: 44m", "EKF3 IMU1 origin set", "PreArm: Need Position Estimate", "EKF3 IMU1 is using GPS", "EKF3 IMU0 is using GPS"]}
{"timestamp": "2026-01-29T12:52:35.860330Z", "telemetry": {"lat": 13.3543412, "lon": 74.8647433, "satellites": 7, "altitude_gps_m": 44.22999954223633, "groundspeed_mps": 0.08463343232870102}, "flight": {"mode": "LOITER", "armed": true}, "ekf": {"attitude": {"roll": -0.021744530647993088, "pitch": -0.018131161108613014, "yaw": -2.736107110977173}, "local_position": {"x": -1.325990080833435, "y": -0.12768954038619995, "z": -0.37249648571014404}, "status": {"flags": 831, "velocity_variance": 0.03866008669137955, "pos_horiz_variance": 0.019325019791722298, "pos_vert_variance": 0.055895350873470306}}, "errors": ["EKF3 IMU0 origin set", "Field Elevation Set: 44m", "EKF3 IMU1 origin set", "PreArm: Need Position Estimate", "EKF3 IMU1 is using GPS", "EKF3 IMU0 is using GPS"]}
{"timestamp": "2026-01-29T12:52:36.859943Z", "telemetry": {"lat": 13.3543422, "lon": 74.864744, "satellites": 7, "altitude_gps_m": 44.0, "groundspeed_mps": 0.08089011907577515}, "flight": {"mode": "LOITER", "armed": true}, "ekf": {"attitude": {"roll": -0.02185305766761303, "pitch": -0.018951380625367165, "yaw": -2.7358033657073975}, "local_position": {"x": -1.2827050685882568, "y": -0.07379479706287384, "z": -0.18826372921466827}, "status": {"flags": 831, "velocity_variance": 0.06870408356189728, "pos_horiz_variance": 0.023443477228283882, "pos_vert_variance": 0.045349545776844025}}, "errors": ["EKF3 IMU0 origin set", "Field Elevation Set: 44m", "EKF3 IMU1 origin set", "PreArm: Need Position Estimate", "EKF3 IMU1 is using GPS", "EKF3 IMU0 is using GPS"]}
{"timestamp": "2026-01-29T12:52:37.859664Z", "telemetry": {"lat": 13.3543434, "lon": 74.8647456, "satellites": 7, "altitude_gps_m": 43.79999923706055, "groundspeed_mps": 0.07218935340642929}, "flight": {"mode": "LOITER", "armed": true}, "ekf": {"attitude": {"roll": -0.022235840559005737, "pitch": -0.019729360938072205, "yaw": -2.733513832092285}, "local_position": {"x": -1.2132505178451538, "y": 0.012053575366735458, "z": 0.015121905133128166}, "status": {"flags": 831, "velocity_variance": 0.059618204832077026, "pos_horiz_variance": 0.029437696561217308, "pos_vert_variance": 0.030504222959280014}}, "errors": ["EKF3 IMU0 origin set", "Field Elevation Set: 44m", "EKF3 IMU1 origin set", "PreArm: Need Position Estimate", "EKF3 IMU1 is using GPS", "EKF3 IMU0 is using GPS"]}
{"timestamp": "2026-01-29T12:52:38.859693Z", "telemetry": {"lat": 13.3543452, "lon": 74.8647476, "satellites": 7, "altitude_gps_m": 43.79999923706055, "groundspeed_mps": 0.21939069032669067}, "flight": {"mode": "LOITER", "armed": true}, "ekf": {"attitude": {"roll": -0.023365387693047523, "pitch": -0.017711441963911057, "yaw": -2.0596377849578857}, "local_position": {"x": -0.9785887002944946, "y": 0.2103072702884674, "z": 0.046084869652986526}, "status": {"flags": 831, "velocity_variance": 0.05453123897314072, "pos_horiz_variance": 0.03165397047996521, "pos_vert_variance": 0.02475934661924839}}, "errors": ["EKF3 IMU0 origin set", "Field Elevation Set: 44m", "EKF3 IMU1 origin set", "PreArm: Need Position Estimate", "EKF3 IMU1 is using GPS", "EKF3 IMU0 is using GPS"]}
{"timestamp": "2026-01-29T12:52:39.859504Z", "telemetry": {"lat": 13.3543472, "lon": 74.8647476, "satellites": 7, "altitude_gps_m": 44.09000015258789, "groundspeed_mps": 0.4389860928058624}, "flight": {"mode": "LOITER", "armed": true}, "ekf": {"attitude": {"roll": -0.061487987637519836, "pitch": 0.027740072458982468, "yaw": 0.05618296563625336}, "local_position": {"x": -0.7813483476638794, "y": 0.2896266579627991, "z": -0.19667963683605194}, "status": {"flags": 831, "velocity_variance": 0.06145745515823364, "pos_horiz_variance": 0.02854888327419758, "pos_vert_variance": 0.03019445203244686}}, "errors": ["EKF3 IMU0 origin set", "Field Elevation Set: 44m", "EKF3 IMU1 origin set", "PreArm: Need Position Estimate", "EKF3 IMU1 is using GPS", "EKF3 IMU0 is using GPS"]}
{"timestamp": "2026-01-29T12:52:40.859409Z", "telemetry": {"lat": 13.3543432, "lon": 74.8647487, "satellites": 7, "altitude_gps_m": 44.29999923706055, "groundspeed_mps": 0.48260587453842163}, "flight": {"mode": "LOITER", "armed": true}, "ekf": {"attitude": {"roll": -0.06423242390155792, "pitch": -6.501004099845886e-05, "yaw": 1.3683384656906128}, "local_position": {"x": -1.1744320392608643, "y": 0.3433748781681061, "z": -0.4439218044281006}, "status": {"flags": 831, "velocity_variance": 0.05022798106074333, "pos_horiz_variance": 0.021658172830939293, "pos_vert_variance": 0.016048545017838478}}, "errors": ["EKF3 IMU0 origin set", "Field Elevation Set: 44m", "EKF3 IMU1 origin set", "PreArm: Need Position Estimate", "EKF3 IMU1 is using GPS", "EKF3 IMU0 is using GPS"]}
{"timestamp": "2026-01-29T12:52:41.859132Z", "telemetry": {"lat": 13.3543392, "lon": 74.8647462, "satellites": 7, "altitude_gps_m": 44.619998931884766, "groundspeed_mps": 0.3364288806915283}, "flight": {"mode": "LOITER", "armed": true}, "ekf": {"attitude": {"roll": -0.054287392646074295, "pitch": 0.021891705691814423, "yaw": 2.9056854248046875}, "local_position": {"x": -1.354953646659851, "y": 0.09007617831230164, "z": -0.7676962018013}, "status": {"flags": 831, "velocity_variance": 0.21495775878429413, "pos_horiz_variance": 0.012734699063003063, "pos_vert_variance": 0.0054192012175917625}}, "errors": ["EKF3 IMU0 origin set", "Field Elevation Set: 44m", "EKF3 IMU1 origin set", "PreArm: Need Position Estimate", "EKF3 IMU1 is using GPS", "EKF3 IMU0 is using GPS"]}
{"timestamp": "2026-01-29T12:52:42.859033Z", "telemetry": {"lat": 13.3543406, "lon": 74.8647454, "satellites": 7, "altitude_gps_m": 45.02000045776367, "groundspeed_mps": 0.2925037145614624}, "flight": {"mode": "LOITER", "armed": true}, "ekf": {"attitude": {"roll": -0.049796212464571, "pitch": -0.005364369601011276, "yaw": -1.8435503244400024}, "local_position": {"x": -1.1779433488845825, "y": -0.027959629893302917, "z": -1.067923903465271}, "status": {"flags": 831, "velocity_variance": 0.20750686526298523, "pos_horiz_variance": 0.020512854680418968, "pos_vert_variance": 0.015009002760052681}}, "errors": ["EKF3 IMU0 origin set", "Field Elevation Set: 44m", "EKF3 IMU1 origin set", "PreArm: Need Position Estimate", "EKF3 IMU1 is using GPS", "EKF3 IMU0 is using GPS"]}
{"timestamp": "2026-01-29T12:52:43.858834Z", "telemetry": {"lat": 13.3543444, "lon": 74.8647459, "satellites": 7, "altitude_gps_m": 45.209999084472656, "groundspeed_mps": 0.2675204277038574}, "flight": {"mode": "LOITER", "armed": true}, "ekf": {"attitude": {"roll": -0.06535840779542923, "pitch": -0.0075902752578258514, "yaw": -0.5376401543617249}, "local_position": {"x": -0.9319378733634949, "y": 0.16159172356128693, "z": -1.3206802606582642}, "status": {"flags": 831, "velocity_variance": 0.04581213742494583, "pos_horiz_variance": 0.02039836160838604, "pos_vert_variance": 0.035341229289770126}}, "errors": ["EKF3 IMU0 origin set", "Field Elevation Set: 44m", "EKF3 IMU1 origin set", "PreArm: Need Position Estimate", "EKF3 IMU1 is using GPS", "EKF3 IMU0 is using GPS"]}
{"timestamp": "2026-01-29T12:52:44.858606Z", "telemetry": {"lat": 13.3543424, "lon": 74.8647493, "satellites": 7, "altitude_gps_m": 45.43000030517578, "groundspeed_mps": 0.33596527576446533}, "flight": {"mode": "LOITER", "armed": true}, "ekf": {"attitude": {"roll": -0.05276170000433922, "pitch": -0.018392546102404594, "yaw": 0.890937089920044}, "local_position": {"x": -1.150212287902832, "y": 0.3018001317977905, "z": -1.5791383981704712}, "status": {"flags": 831, "velocity_variance": 0.12158697843551636, "pos_horiz_variance": 0.026440639048814774, "pos_vert_variance": 0.0325162336230278}}, "errors": ["EKF3 IMU0 origin set", "Field Elevation Set: 44m", "EKF3 IMU1 origin set", "PreArm: Need Position Estimate", "EKF3 IMU1 is using GPS", "EKF3 IMU0 is using GPS"]}
{"timestamp": "2026-01-29T12:52:45.858624Z", "telemetry": {"lat": 13.3543394, "lon": 74.8647491, "satellites": 7, "altitude_gps_m": 45.54999923706055, "groundspeed_mps": 0.2885032892227173}, "flight": {"mode": "LOITER", "armed": true}, "ekf": {"attitude": {"roll": -0.051634982228279114, "pitch": 0.017528802156448364, "yaw": 2.1414852142333984}, "local_position": {"x": -1.3823646306991577, "y": 0.2543114721775055, "z": -1.692198395729065}, "status": {"flags": 831, "velocity_variance": 0.04331822693347931, "pos_horiz_variance": 0.025090079754590988, "pos_vert_variance": 0.02615785226225853}}, "errors": ["EKF3 IMU0 origin set", "Field Elevation Set: 44m", "EKF3 IMU1 origin set", "PreArm: Need Position Estimate", "EKF3 IMU1 is using GPS", "EKF3 IMU0 is using GPS"]}
{"timestamp": "2026-01-29T12:52:46.858332Z", "telemetry": {"lat": 13.3543402, "lon": 74.8647462, "satellites": 7, "altitude_gps_m": 45.53999710083008, "groundspeed_mps": 0.30063918232917786}, "flight": {"mode": "LOITER", "armed": true}, "ekf": {"attitude": {"roll": -0.018524302169680595, "pitch": -0.03281937167048454, "yaw": 2.7167282104492188}, "local_position": {"x": -1.2948496341705322, "y": 0.10353892296552658, "z": -1.6610283851623535}, "status": {"flags": 831, "velocity_variance": 0.0663401335477829, "pos_horiz_variance": 0.021071724593639374, "pos_vert_variance": 0.010982236824929714}}, "errors": ["EKF3 IMU0 origin set", "Field Elevation Set: 44m", "EKF3 IMU1 origin set", "PreArm: Need Position Estimate", "EKF3 IMU1 is using GPS", "EKF3 IMU0 is using GPS"]}
{"timestamp": "2026-01-29T12:52:47.858186Z", "telemetry": {"lat": 13.3543429, "lon": 74.8647438, "satellites": 7, "altitude_gps_m": 45.68000030517578, "groundspeed_mps": 0.034432366490364075}, "flight": {"mode": "LOITER", "armed": true}, "ekf": {"attitude": {"roll": -0.012593776918947697, "pitch": -0.05164293944835663, "yaw": 2.5508370399475098}, "local_position": {"x": -0.9864183068275452, "y": -0.03141690418124199, "z": -1.8206230401992798}, "status": {"flags": 831, "velocity_variance": 0.15715831518173218, "pos_horiz_variance": 0.013162009418010712, "pos_vert_variance": 0.012035048566758633}}, "errors": ["EKF3 IMU0 origin set", "Field Elevation Set: 44m", "EKF3 IMU1 origin set", "PreArm: Need Position Estimate", "EKF3 IMU1 is using GPS", "EKF3 IMU0 is using GPS"]}
{"timestamp": "2026-01-29T12:52:48.857961Z", "telemetry": {"lat": 13.3543434, "lon": 74.864743, "satellites": 7, "altitude_gps_m": 45.52000045776367, "groundspeed_mps": 0.0981617122888565}, "flight": {"mode": "LOITER", "armed": true}, "ekf": {"attitude": {"roll": -0.007297812961041927, "pitch": -0.0244249626994133, "yaw": 2.5602989196777344}, "local_position": {"x": -0.9967447519302368, "y": -0.007181372493505478, "z": -1.6752467155456543}, "status": {"flags": 831, "velocity_variance": 0.10108119249343872, "pos_horiz_variance": 0.011560428887605667, "pos_vert_variance": 0.014345425181090832}}, "errors": ["EKF3 IMU0 origin set", "Field Elevation Set: 44m", "EKF3 IMU1 origin set", "PreArm: Need Position Estimate", "EKF3 IMU1 is using GPS", "EKF3 IMU0 is using GPS"]}
{"timestamp": "2026-01-29T12:52:49.857967Z", "telemetry": {"lat": 13.354342, "lon": 74.8647421, "satellites": 7, "altitude_gps_m": 45.68000030517578, "groundspeed_mps": 0.11738916486501694}, "flight": {"mode": "LOITER", "armed": true}, "ekf": {"attitude": {"roll": -0.012584221549332142, "pitch": -0.029082100838422775, "yaw": 2.4479973316192627}, "local_position": {"x": -1.0589873790740967, "y": 0.0019767722114920616, "z": -1.830866813659668}, "status": {"flags": 831, "velocity_variance": 0.16347742080688477, "pos_horiz_variance": 0.004425317049026489, "pos_vert_variance": 0.01080218143761158}}, "errors": ["EKF3 IMU0 origin set", "Field Elevation Set: 44m", "EKF3 IMU1 origin set", "PreArm: Need Position Estimate", "EKF3 IMU1 is using GPS", "EKF3 IMU0 is using GPS"]}
{"timestamp": "2026-01-29T12:52:50.857543Z", "telemetry": {"lat": 13.3543424, "lon": 74.8647421, "satellites": 7, "altitude_gps_m": 45.93000030517578, "groundspeed_mps": 0.5261717438697815}, "flight": {"mode": "LOITER", "armed": true}, "ekf": {"attitude": {"roll": -0.012261534109711647, "pitch": -0.08375715464353561, "yaw": 2.232168674468994}, "local_position": {"x": -1.0628966093063354, "y": 0.010958075523376465, "z": -2.0829553604125977}, "status": {"flags": 831, "velocity_variance": 0.10787041485309601, "pos_horiz_variance": 0.0042349048890173435, "pos_vert_variance": 0.0066592455841600895}}, "errors": ["EKF3 IMU0 origin set", "Field Elevation Set: 44m", "EKF3 IMU1 origin set", "PreArm: Need Position Estimate", "EKF3 IMU1 is using GPS", "EKF3 IMU0 is using GPS"]}
{"timestamp": "2026-01-29T12:52:51.857518Z", "telemetry": {"lat": 13.3543391, "lon": 74.8647473, "satellites": 7, "altitude_gps_m": 46.13999938964844, "groundspeed_mps": 0.64723140001297}, "flight": {"mode": "LOITER", "armed": true}, "ekf": {"attitude": {"roll": -0.017872320488095284, "pitch": -0.024736661463975906, "yaw": 2.104653835296631}, "local_position": {"x": -1.368475317955017, "y": 0.46426135301589966, "z": -2.2834441661834717}, "status": {"flags": 831, "velocity_variance": 0.04219403862953186, "pos_horiz_variance": 0.011852223426103592, "pos_vert_variance": 0.025439666584134102}}, "errors": ["EKF3 IMU0 origin set", "Field Elevation Set: 44m", "EKF3 IMU1 origin set", "PreArm: Need Position Estimate", "EKF3 IMU1 is using GPS", "EKF3 IMU0 is using GPS"]}
{"timestamp": "2026-01-29T12:52:52.841705Z", "telemetry": {"lat": 13.3543361, "lon": 74.864752, "satellites": 7, "altitude_gps_m": 46.02000045776367, "groundspeed_mps": 0.5746738314628601}, "flight": {"mode": "LOITER", "armed": true}, "ekf": {"attitude": {"roll": -0.036396004259586334, "pitch": -0.03181665763258934, "yaw": 1.467410683631897}, "local_position": {"x": -1.7015819549560547, "y": 0.9077469110488892, "z": -2.159623146057129}, "status": {"flags": 831, "velocity_variance": 0.046944376081228256, "pos_horiz_variance": 0.01587570458650589, "pos_vert_variance": 0.033519625663757324}}, "errors": ["EKF3 IMU0 origin set", "Field Elevation Set: 44m", "EKF3 IMU1 origin set", "PreArm: Need Position Estimate", "EKF3 IMU1 is using GPS", "EKF3 IMU0 is using GPS"]}
{"timestamp": "2026-01-29T12:52:53.840290Z", "telemetry": {"lat": 13.3543316, "lon": 74.8647536, "satellites": 7, "altitude_gps_m": 45.96999740600586, "groundspeed_mps": 0.5683351755142212}, "flight": {"mode": "LOITER", "armed": true}, "ekf": {"attitude": {"roll": -0.024387218058109283, "pitch": -0.03268381580710411, "yaw": 1.6419782638549805}, "local_position": {"x": -1.9814367294311523, "y": 1.4146039485931396, "z": -2.1172449588775635}, "status": {"flags": 831, "velocity_variance": 0.030973011627793312, "pos_horiz_variance": 0.012879100628197193, "pos_vert_variance": 0.024164022877812386}}, "errors": ["EKF3 IMU0 origin set", "Field Elevation Set: 44m", "EKF3 IMU1 origin set", "PreArm: Need Position Estimate", "EKF3 IMU1 is using GPS", "EKF3 IMU0 is using GPS"]}
{"timestamp": "2026-01-29T12:52:54.839997Z", "telemetry": {"lat": 13.3543315, "lon": 74.864757, "satellites": 7, "altitude_gps_m": 46.03999710083008, "groundspeed_mps": 0.5797911882400513}, "flight": {"mode": "LOITER", "armed": true}, "ekf": {"attitude": {"roll": -0.026296494528651237, "pitch": -0.03126462176442146, "yaw": 1.4417822360992432}, "local_position": {"x": -2.1119580268859863, "y": 1.8550782203674316, "z": -2.184737205505371}, "status": {"flags": 831, "velocity_variance": 0.04684007167816162, "pos_horiz_variance": 0.008784150704741478, "pos_vert_variance": 0.04140106216073036}}, "errors": ["EKF3 IMU0 origin set", "Field Elevation Set: 44m", "EKF3 IMU1 origin set", "PreArm: Need Position Estimate", "EKF3 IMU1 is using GPS", "EKF3 IMU0 is using GPS"]}
{"timestamp": "2026-01-29T12:52:55.838281Z", "telemetry": {"lat": 13.354331, "lon": 74.8647643, "satellites": 7, "altitude_gps_m": 46.099998474121094, "groundspeed_mps": 1.4391791820526123}, "flight": {"mode": "LOITER", "armed": true}, "ekf": {"attitude": {"roll": 0.007068469189107418, "pitch": -0.045500218868255615, "yaw": 1.8157232999801636}, "local_position": {"x": -2.133005142211914, "y": 2.7899889945983887, "z": -2.2474722862243652}, "status": {"flags": 831, "velocity_variance": 0.04675481468439102, "pos_horiz_variance": 0.006289287470281124, "pos_vert_variance": 0.05121957138180733}}, "errors": ["EKF3 IMU0 origin set", "Field Elevation Set: 44m", "EKF3 IMU1 origin set", "PreArm: Need Position Estimate", "EKF3 IMU1 is using GPS", "EKF3 IMU0 is using GPS"]}
{"timestamp": "2026-01-29T12:52:56.840077Z", "telemetry": {"lat": 13.3543307, "lon": 74.8647759, "satellites": 7, "altitude_gps_m": 46.099998474121094, "groundspeed_mps": 1.1848652362823486}, "flight": {"mode": "LOITER", "armed": true}, "ekf": {"attitude": {"roll": -0.004728661850094795, "pitch": -0.024155696853995323, "yaw": 1.5625674724578857}, "local_position": {"x": -2.2336668968200684, "y": 4.007512092590332, "z": -2.2505593299865723}, "status": {"flags": 831, "velocity_variance": 0.0653291791677475, "pos_horiz_variance": 0.0060049789026379585, "pos_vert_variance": 0.05460669845342636}}, "errors": ["EKF3 IMU0 origin set", "Field Elevation Set: 44m", "EKF3 IMU1 origin set", "PreArm: Need Position Estimate", "EKF3 IMU1 is using GPS", "EKF3 IMU0 is using GPS"]}
{"timestamp": "2026-01-29T12:52:57.838828Z", "telemetry": {"lat": 13.3543287, "lon": 74.864784, "satellites": 7, "altitude_gps_m": 46.09000015258789, "groundspeed_mps": 0.5878615379333496}, "flight": {"mode": "LOITER", "armed": true}, "ekf": {"attitude": {"roll": -0.019858185201883316, "pitch": 0.01428646594285965, "yaw": 2.097465991973877}, "local_position": {"x": -2.4410974979400635, "y": 4.793834209442139, "z": -2.2374143600463867}, "status": {"flags": 831, "velocity_variance": 0.10040658712387085, "pos_horiz_variance": 0.007808145135641098, "pos_vert_variance": 0.05244448781013489}}, "errors": ["EKF3 IMU0 origin set", "Field Elevation Set: 44m", "EKF3 IMU1 origin set", "PreArm: Need Position Estimate", "EKF3 IMU1 is using GPS", "EKF3 IMU0 is using GPS"]}
{"timestamp": "2026-01-29T12:52:58.837813Z", "telemetry": {"lat": 13.354329, "lon": 74.8647875, "satellites": 7, "altitude_gps_m": 46.11000061035156, "groundspeed_mps": 0.5486227869987488}, "flight": {"mode": "LOITER", "armed": true}, "ekf": {"attitude": {"roll": -0.005748999770730734, "pitch": -0.038283515721559525, "yaw": 1.3664023876190186}, "local_position": {"x": -2.3442108631134033, "y": 5.204083442687988, "z": -2.258201837539673}, "status": {"flags": 831, "velocity_variance": 0.07785837352275848, "pos_horiz_variance": 0.013489673845469952, "pos_vert_variance": 0.042847637087106705}}, "errors": ["EKF3 IMU0 origin set", "Field Elevation Set: 44m", "EKF3 IMU1 origin set", "PreArm: Need Position Estimate", "EKF3 IMU1 is using GPS", "EKF3 IMU0 is using GPS"]}
{"timestamp": "2026-01-29T12:52:59.837824Z", "telemetry": {"lat": 13.3543297, "lon": 74.8647907, "satellites": 7, "altitude_gps_m": 46.16999816894531, "groundspeed_mps": 0.3448188602924347}, "flight": {"mode": "LOITER", "armed": true}, "ekf": {"attitude": {"roll": -0.012417220510542393, "pitch": -0.017406579107046127, "yaw": 0.6374254822731018}, "local_position": {"x": -2.306920289993286, "y": 5.435165882110596, "z": -2.310964822769165}, "status": {"flags": 831, "velocity_variance": 0.09974782913923264, "pos_horiz_variance": 0.010419311933219433, "pos_vert_variance": 0.036409273743629456}}, "errors": ["EKF3 IMU0 origin set", "Field Elevation Set: 44m", "EKF3 IMU1 origin set", "PreArm: Need Position Estimate", "EKF3 IMU1 is using GPS", "EKF3 IMU0 is using GPS"]}
{"timestamp": "2026-01-29T12:53:00.837373Z", "telemetry": {"lat": 13.3543299, "lon": 74.8647924, "satellites": 7, "altitude_gps_m": 46.21999740600586, "groundspeed_mps": 0.33544793725013733}, "flight": {"mode": "LOITER", "armed": true}, "ekf": {"attitude": {"roll": -0.019780725240707397, "pitch": -0.011394763365387917, "yaw": 0.2542188763618469}, "local_position": {"x": -2.3234381675720215, "y": 5.554062843322754, "z": -2.354227066040039}, "status": {"flags": 831, "velocity_variance": 0.05270729959011078, "pos_horiz_variance": 0.00869808904826641, "pos_vert_variance": 0.021251149475574493}}, "errors": ["EKF3 IMU0 origin set", "Field Elevation Set: 44m", "EKF3 IMU1 origin set", "PreArm: Need Position Estimate", "EKF3 IMU1 is using GPS", "EKF3 IMU0 is using GPS"]}
{"timestamp": "2026-01-29T12:53:01.839181Z", "telemetry": {"lat": 13.3543301, "lon": 74.8647938, "satellites": 7, "altitude_gps_m": 46.23999786376953, "groundspeed_mps": 0.12447406351566315}, "flight": {"mode": "LOITER", "armed": true}, "ekf": {"attitude": {"roll": -0.019352424889802933, "pitch": -0.009211018681526184, "yaw": 0.5570008754730225}, "local_position": {"x": -2.325845718383789, "y": 5.69018030166626, "z": -2.3854615688323975}, "status": {"flags": 831, "velocity_variance": 0.04199240356683731, "pos_horiz_variance": 0.007710582576692104, "pos_vert_variance": 0.006486080586910248}}, "errors": ["EKF3 IMU0 origin set", "Field Elevation Set: 44m", "EKF3 IMU1 origin set", "PreArm: Need Position Estimate", "EKF3 IMU1 is using GPS", "EKF3 IMU0 is using GPS"]}
{"timestamp": "2026-01-29T12:53:02.837198Z", "telemetry": {"lat": 13.354329, "lon": 74.8647935, "satellites": 7, "altitude_gps_m": 46.25, "groundspeed_mps": 0.10912434756755829}, "flight": {"mode": "LOITER", "armed": true}, "ekf": {"attitude": {"roll": -0.02013244479894638, "pitch": -0.02527141571044922, "yaw": 0.4491257965564728}, "local_position": {"x": -2.3852598667144775, "y": 5.631081581115723, "z": -2.396517515182495}, "status": {"flags": 831, "velocity_variance": 0.053026579320430756, "pos_horiz_variance": 0.008457591757178307, "pos_vert_variance": 0.009168046526610851}}, "errors": ["EKF3 IMU0 origin set", "Field Elevation Set: 44m", "EKF3 IMU1 origin set", "PreArm: Need Position Estimate", "EKF3 IMU1 is using GPS", "EKF3 IMU0 is using GPS"]}
{"timestamp": "2026-01-29T12:53:03.837835Z", "telemetry": {"lat": 13.3543286, "lon": 74.8647936, "satellites": 7, "altitude_gps_m": 46.27000045776367, "groundspeed_mps": 0.04531659930944443}, "flight": {"mode": "LOITER", "armed": true}, "ekf": {"attitude": {"roll": -0.024551402777433395, "pitch": -0.02401234582066536, "yaw": 0.7151992321014404}, "local_position": {"x": -2.4259800910949707, "y": 5.596383094787598, "z": -2.4162437915802}, "status": {"flags": 831, "velocity_variance": 0.06702777743339539, "pos_horiz_variance": 0.005333638284355402, "pos_vert_variance": 0.0024690586142241955}}, "errors": ["EKF3 IMU0 origin set", "Field Elevation Set: 44m", "EKF3 IMU1 origin set", "PreArm: Need Position Estimate", "EKF3 IMU1 is using GPS", "EKF3 IMU0 is using GPS"]}
{"timestamp": "2026-01-29T12:53:04.836696Z", "telemetry": {"lat": 13.3543296, "lon": 74.8647958, "satellites": 7, "altitude_gps_m": 46.2599983215332, "groundspeed_mps": 1.149370789527893}, "flight": {"mode": "LOITER", "armed": true}, "ekf": {"attitude": {"roll": -0.02980387955904007, "pitch": -0.09133702516555786, "yaw": 0.6495543718338013}, "local_position": {"x": -2.1748337745666504, "y": 5.837978363037109, "z": -2.4026939868927}, "status": {"flags": 831, "velocity_variance": 0.07651785016059875, "pos_horiz_variance": 0.004100170452147722, "pos_vert_variance": 0.006003902293741703}}, "errors": ["EKF3 IMU0 origin set", "Field Elevation Set: 44m", "EKF3 IMU1 origin set", "PreArm: Need Position Estimate", "EKF3 IMU1 is using GPS", "EKF3 IMU0 is using GPS"]}
{"timestamp": "2026-01-29T12:53:05.837016Z", "telemetry": {"lat": 13.3543386, "lon": 74.8648022, "satellites": 7, "altitude_gps_m": 46.23999786376953, "groundspeed_mps": 0.9431368112564087}, "flight": {"mode": "LOITER", "armed": true}, "ekf": {"attitude": {"roll": -0.0003482659813016653, "pitch": -0.023420654237270355, "yaw": 0.7871019840240479}, "local_position": {"x": -1.1341967582702637, "y": 6.585137844085693, "z": -2.3899664878845215}, "status": {"flags": 831, "velocity_variance": 0.11216048151254654, "pos_horiz_variance": 0.0010441092308610678, "pos_vert_variance": 0.003277182811871171}}, "errors": ["EKF3 IMU0 origin set", "Field Elevation Set: 44m", "EKF3 IMU1 origin set", "PreArm: Need Position Estimate", "EKF3 IMU1 is using GPS", "EKF3 IMU0 is using GPS"]}
{"timestamp": "2026-01-29T12:53:06.836340Z", "telemetry": {"lat": 13.354343, "lon": 74.8648053, "satellites": 7, "altitude_gps_m": 46.2599983215332, "groundspeed_mps": 0.36463165283203125}, "flight": {"mode": "LOITER", "armed": true}, "ekf": {"attitude": {"roll": 0.002132890047505498, "pitch": -0.010300630703568459, "yaw": 1.100135087966919}, "local_position": {"x": -0.797571063041687, "y": 6.819194316864014, "z": -2.3963592052459717}, "status": {"flags": 831, "velocity_variance": 0.055870171636343, "pos_horiz_variance": 0.004652359988540411, "pos_vert_variance": 0.0016621435061097145}}, "errors": ["EKF3 IMU0 origin set", "Field Elevation Set: 44m", "EKF3 IMU1 origin set", "PreArm: Need Position Estimate", "EKF3 IMU1 is using GPS", "EKF3 IMU0 is using GPS"]}
{"timestamp": "2026-01-29T12:53:07.836942Z", "telemetry": {"lat": 13.354344, "lon": 74.8648075, "satellites": 7, "altitude_gps_m": 46.22999954223633, "groundspeed_mps": 0.1971389502286911}, "flight": {"mode": "LOITER", "armed": true}, "ekf": {"attitude": {"roll": -0.002860098611563444, "pitch": -0.018517378717660904, "yaw": 1.2144384384155273}, "local_position": {"x": -0.629695475101471, "y": 7.015482425689697, "z": -2.3763983249664307}, "status": {"flags": 831, "velocity_variance": 0.08414289355278015, "pos_horiz_variance": 0.008088217116892338, "pos_vert_variance": 0.022408869117498398}}, "errors": ["EKF3 IMU0 origin set", "Field Elevation Set: 44m", "EKF3 IMU1 origin set", "PreArm: Need Position Estimate", "EKF3 IMU1 is using GPS", "EKF3 IMU0 is using GPS"]}
{"timestamp": "2026-01-29T12:53:08.836185Z", "telemetry": {"lat": 13.3543439, "lon": 74.8648086, "satellites": 7, "altitude_gps_m": 46.20000076293945, "groundspeed_mps": 0.10359469801187515}, "flight": {"mode": "LOITER", "armed": true}, "ekf": {"attitude": {"roll": -0.00904136523604393, "pitch": -0.008589563891291618, "yaw": 1.5693559646606445}, "local_position": {"x": -0.6571984887123108, "y": 7.129750728607178, "z": -2.342617988586426}, "status": {"flags": 831, "velocity_variance": 0.05525759235024452, "pos_horiz_variance": 0.008394132368266582, "pos_vert_variance": 0.02134884148836136}}, "errors": ["EKF3 IMU0 origin set", "Field Elevation Set: 44m", "EKF3 IMU1 origin set", "PreArm: Need Position Estimate", "EKF3 IMU1 is using GPS", "EKF3 IMU0 is using GPS"]}
{"timestamp": "2026-01-29T12:53:09.836472Z", "telemetry": {"lat": 13.3543433, "lon": 74.8648073, "satellites": 7, "altitude_gps_m": 46.189998626708984, "groundspeed_mps": 0.1069197878241539}, "flight": {"mode": "LOITER", "armed": true}, "ekf": {"attitude": {"roll": -0.03463112190365791, "pitch": -0.029795091599225998, "yaw": 2.0041561126708984}, "local_position": {"x": -0.7087913751602173, "y": 7.077178478240967, "z": -2.330644130706787}, "status": {"flags": 831, "velocity_variance": 0.06735044717788696, "pos_horiz_variance": 0.006704307626932859, "pos_vert_variance": 0.022009732201695442}}, "errors": ["EKF3 IMU0 origin set", "Field Elevation Set: 44m", "EKF3 IMU1 origin set", "PreArm: Need Position Estimate", "EKF3 IMU1 is using GPS", "EKF3 IMU0 is using GPS"]}
{"timestamp": "2026-01-29T12:53:10.835927Z", "telemetry": {"lat": 13.3543434, "lon": 74.8648056, "satellites": 7, "altitude_gps_m": 46.209999084472656, "groundspeed_mps": 0.22918596863746643}, "flight": {"mode": "LOITER", "armed": true}, "ekf": {"attitude": {"roll": -0.021002208814024925, "pitch": -0.03253480792045593, "yaw": 2.3111233711242676}, "local_position": {"x": -0.6699174046516418, "y": 6.968068599700928, "z": -2.356985569000244}, "status": {"flags": 831, "velocity_variance": 0.09042757749557495, "pos_horiz_variance": 0.012429573573172092, "pos_vert_variance": 0.007207994814962149}}, "errors": ["EKF3 IMU0 origin set", "Field Elevation Set: 44m", "EKF3 IMU1 origin set", "PreArm: Need Position Estimate", "EKF3 IMU1 is using GPS", "EKF3 IMU0 is using GPS"]}
{"timestamp": "2026-01-29T12:53:11.836982Z", "telemetry": {"lat": 13.3543444, "lon": 74.8648051, "satellites": 7, "altitude_gps_m": 46.23999786376953, "groundspeed_mps": 0.24819447100162506}, "flight": {"mode": "LOITER", "armed": true}, "ekf": {"attitude": {"roll": -0.0237775519490242, "pitch": -0.03003077581524849, "yaw": 2.6666617393493652}, "local_position": {"x": -0.5703268647193909, "y": 6.9949116706848145, "z": -2.38527774810791}, "status": {"flags": 831, "velocity_variance": 0.10733727365732193, "pos_horiz_variance": 0.015661554411053658, "pos_vert_variance": 0.002598435152322054}}, "errors": ["EKF3 IMU0 origin set", "Field Elevation Set: 44m", "EKF3 IMU1 origin set", "PreArm: Need Position Estimate", "EKF3 IMU1 is using GPS", "EKF3 IMU0 is using GPS"]}
{"timestamp": "2026-01-29T12:53:12.835360Z", "telemetry": {"lat": 13.3543455, "lon": 74.8648052, "satellites": 7, "altitude_gps_m": 46.27000045776367, "groundspeed_mps": 0.27856117486953735}, "flight": {"mode": "LOITER", "armed": true}, "ekf": {"attitude": {"roll": -0.024531396105885506, "pitch": -0.043258849531412125, "yaw": -2.4303808212280273}, "local_position": {"x": -0.45588502287864685, "y": 7.110276222229004, "z": -2.413682460784912}, "status": {"flags": 831, "velocity_variance": 0.05400679633021355, "pos_horiz_variance": 0.020017173141241074, "pos_vert_variance": 0.0029154345393180847}}, "errors": ["EKF3 IMU0 origin set", "Field Elevation Set: 44m", "EKF3 IMU1 origin set", "PreArm: Need Position Estimate", "EKF3 IMU1 is using GPS", "EKF3 IMU0 is using GPS"]}
