{"timestamp": "2026-01-24T15:33:52.860663Z", "telemetry": {"lat": 28.7536334, "lon": 77.1174938, "satellites": 8, "altitude_gps_m": 182.50999450683594, "groundspeed_mps": 0.010812965221703053}, "flight": {"mode": "STABILIZE", "armed": false}, "ekf": {"attitude": {"roll": 0.01833651028573513, "pitch": -0.004239525645971298, "yaw": 0.911043643951416}, "local_position": {"x": null, "y": null, "z": null}, "status": {"flags": 135, "velocity_variance": 0.0, "pos_horiz_variance": 0.0009858591947704554, "pos_vert_variance": 0.032000720500946045}}, "errors": []}
{"timestamp": "2026-01-24T15:33:53.899193Z", "telemetry": {"lat": 28.7535924, "lon": 77.1175097, "satellites": 8, "altitude_gps_m": 181.51998901367188, "groundspeed_mps": 0.0020410800352692604}, "flight": {"mode": "STABILIZE", "armed": false}, "ekf": {"attitude": {"roll": 0.018075009807944298, "pitch": -0.004565354436635971, "yaw": 0.9116213917732239}, "local_position": {"x": null, "y": null, "z": null}, "status": {"flags": 135, "velocity_variance": 0.0, "pos_horiz_variance": 0.000850888027343899, "pos_vert_variance": 0.01281298790127039}}, "errors": []}
{"timestamp": "2026-01-24T15:33:54.899366Z", "telemetry": {"lat": 28.7535569, "lon": 77.1175233, "satellites": 8, "altitude_gps_m": 181.5800018310547, "groundspeed_mps": 0.0027550316881388426}, "flight": {"mode": "STABILIZE", "armed": false}, "ekf": {"attitude": {"roll": 0.018093440681695938, "pitch": -0.004643891006708145, "yaw": 0.9116167426109314}, "local_position": {"x": null, "y": null, "z": null}, "status": {"flags": 135, "velocity_variance": 0.0, "pos_horiz_variance": 0.0006723098922520876, "pos_vert_variance": 0.03440879285335541}}, "errors": []}
{"timestamp": "2026-01-24T15:33:55.899405Z", "telemetry": {"lat": 28.7535189, "lon": 77.1175398, "satellites": 9, "altitude_gps_m": 185.1699981689453, "groundspeed_mps": 0.003038714872673154}, "flight": {"mode": "STABILIZE", "armed": false}, "ekf": {"attitude": {"roll": 0.018059423193335533, "pitch": -0.004616525024175644, "yaw": 0.9116050601005554}, "local_position": {"x": null, "y": null, "z": null}, "status": {"flags": 135, "velocity_variance": 0.0, "pos_horiz_variance": 0.0005282258498482406, "pos_vert_variance": 0.033782828599214554}}, "errors": []}
{"timestamp": "2026-01-24T15:33:56.899505Z", "telemetry": {"lat": 28.7534846, "lon": 77.1175511, "satellites": 8, "altitude_gps_m": 185.9499969482422, "groundspeed_mps": 0.006108615547418594}, "flight": {"mode": "STABILIZE", "armed": false}, "ekf": {"attitude": {"roll": 0.018004175275564194, "pitch": -0.0046957992017269135, "yaw": 0.9117340445518494}, "local_position": {"x": null, "y": null, "z": null}, "status": {"flags": 135, "velocity_variance": 0.0, "pos_horiz_variance": 0.0009616109309718013, "pos_vert_variance": 0.005973624996840954}}, "errors": []}
{"timestamp": "2026-01-24T15:33:57.899734Z", "telemetry": {"lat": 28.7534568, "lon": 77.117562, "satellites": 8, "altitude_gps_m": 186.5, "groundspeed_mps": 0.006445156875997782}, "flight": {"mode": "STABILIZE", "armed": false}, "ekf": {"attitude": {"roll": 0.017108341678977013, "pitch": -0.004591949284076691, "yaw": 0.9115687012672424}, "local_position": {"x": null, "y": null, "z": null}, "status": {"flags": 135, "velocity_variance": 0.0, "pos_horiz_variance": 0.0011487783631309867, "pos_vert_variance": 0.06030723452568054}}, "errors": []}
{"timestamp": "2026-01-24T15:33:58.900635Z", "telemetry": {"lat": 28.7534329, "lon": 77.1175802, "satellites": 8, "altitude_gps_m": 187.05999755859375, "groundspeed_mps": 0.007782182656228542}, "flight": {"mode": "STABILIZE", "armed": false}, "ekf": {"attitude": {"roll": 0.015583557076752186, "pitch": -0.004472650587558746, "yaw": 0.9116952419281006}, "local_position": {"x": null, "y": null, "z": null}, "status": {"flags": 135, "velocity_variance": 0.0, "pos_horiz_variance": 0.0011433992767706513, "pos_vert_variance": 0.022191308438777924}}, "errors": []}
{"timestamp": "2026-01-24T15:33:59.899897Z", "telemetry": {"lat": 28.7534161, "lon": 77.117604, "satellites": 8, "altitude_gps_m": 187.8300018310547, "groundspeed_mps": 0.015222077257931232}, "flight": {"mode": "STABILIZE", "armed": false}, "ekf": {"attitude": {"roll": 0.012574614956974983, "pitch": -0.004232998937368393, "yaw": 0.9116177558898926}, "local_position": {"x": null, "y": null, "z": null}, "status": {"flags": 135, "velocity_variance": 0.0, "pos_horiz_variance": 0.0012019718997180462, "pos_vert_variance": 0.0007290758076123893}}, "errors": []}
{"timestamp": "2026-01-24T15:34:00.900265Z", "telemetry": {"lat": 28.7533901, "lon": 77.1176207, "satellites": 8, "altitude_gps_m": 189.75999450683594, "groundspeed_mps": 0.015415141358971596}, "flight": {"mode": "STABILIZE", "armed": false}, "ekf": {"attitude": {"roll": 0.01774914190173149, "pitch": -0.005106575787067413, "yaw": 0.9116309881210327}, "local_position": {"x": null, "y": null, "z": null}, "status": {"flags": 135, "velocity_variance": 0.0, "pos_horiz_variance": 0.0012965785572305322, "pos_vert_variance": 0.056341398507356644}}, "errors": ["PreArm: Hardware safety switch"]}
{"timestamp": "2026-01-24T15:34:01.900228Z", "telemetry": {"lat": 28.7533702, "lon": 77.1176346, "satellites": 8, "altitude_gps_m": 191.13999938964844, "groundspeed_mps": 0.007548209745436907}, "flight": {"mode": "STABILIZE", "armed": false}, "ekf": {"attitude": {"roll": 0.017640357837080956, "pitch": -0.0038844868540763855, "yaw": 0.9116241931915283}, "local_position": {"x": null, "y": null, "z": null}, "status": {"flags": 135, "velocity_variance": 0.0, "pos_horiz_variance": 0.0017371358117088675, "pos_vert_variance": 0.055764053016901016}}, "errors": ["PreArm: Hardware safety switch"]}
{"timestamp": "2026-01-24T15:34:02.900292Z", "telemetry": {"lat": 28.7533513, "lon": 77.1176415, "satellites": 8, "altitude_gps_m": 191.8300018310547, "groundspeed_mps": 0.0027240144554525614}, "flight": {"mode": "STABILIZE", "armed": false}, "ekf": {"attitude": {"roll": 0.012920831330120564, "pitch": -0.0072312988340854645, "yaw": 0.911512017250061}, "local_position": {"x": null, "y": null, "z": null}, "status": {"flags": 135, "velocity_variance": 0.0, "pos_horiz_variance": 0.0011159548303112388, "pos_vert_variance": 0.015421263873577118}}, "errors": ["PreArm: Hardware safety switch"]}
{"timestamp": "2026-01-24T15:34:03.900662Z", "telemetry": {"lat": 28.7533393, "lon": 77.1176514, "satellites": 8, "altitude_gps_m": 192.97999572753906, "groundspeed_mps": 0.010231641121208668}, "flight": {"mode": "STABILIZE", "armed": false}, "ekf": {"attitude": {"roll": 0.012192008085548878, "pitch": -0.005656924098730087, "yaw": 0.912132978439331}, "local_position": {"x": null, "y": null, "z": null}, "status": {"flags": 135, "velocity_variance": 0.0, "pos_horiz_variance": 0.000936780299525708, "pos_vert_variance": 0.0006222762167453766}}, "errors": ["PreArm: Hardware safety switch"]}
{"timestamp": "2026-01-24T15:34:04.939262Z", "telemetry": {"lat": 28.7533193, "lon": 77.1176583, "satellites": 8, "altitude_gps_m": 193.44000244140625, "groundspeed_mps": 0.014982902444899082}, "flight": {"mode": "STABILIZE", "armed": false}, "ekf": {"attitude": {"roll": 0.01219887938350439, "pitch": -0.004868075251579285, "yaw": 0.9118301868438721}, "local_position": {"x": null, "y": null, "z": null}, "status": {"flags": 135, "velocity_variance": 0.0, "pos_horiz_variance": 0.0016094184247776866, "pos_vert_variance": 0.04279487580060959}}, "errors": ["PreArm: Hardware safety switch"]}
{"timestamp": "2026-01-24T15:34:05.900505Z", "telemetry": {"lat": 28.7533035, "lon": 77.1176666, "satellites": 8, "altitude_gps_m": 193.51998901367188, "groundspeed_mps": 0.018383948132395744}, "flight": {"mode": "STABILIZE", "armed": false}, "ekf": {"attitude": {"roll": 0.012125675566494465, "pitch": -0.004790779203176498, "yaw": 0.9117213487625122}, "local_position": {"x": null, "y": null, "z": null}, "status": {"flags": 135, "velocity_variance": 0.0, "pos_horiz_variance": 0.002936208387836814, "pos_vert_variance": 0.007514549884945154}}, "errors": ["PreArm: Hardware safety switch"]}
{"timestamp": "2026-01-24T15:34:06.939533Z", "telemetry": {"lat": 28.7532976, "lon": 77.1176659, "satellites": 8, "altitude_gps_m": 193.8199920654297, "groundspeed_mps": 0.014865697361528873}, "flight": {"mode": "STABILIZE", "armed": false}, "ekf": {"attitude": {"roll": 0.012282349169254303, "pitch": -0.004740290343761444, "yaw": 0.9118115305900574}, "local_position": {"x": null, "y": null, "z": null}, "status": {"flags": 135, "velocity_variance": 0.0, "pos_horiz_variance": 0.0037186271511018276, "pos_vert_variance": 0.005277174524962902}}, "errors": ["PreArm: Hardware safety switch"]}
{"timestamp": "2026-01-24T15:34:07.901845Z", "telemetry": {"lat": 28.7532858, "lon": 77.1176674, "satellites": 8, "altitude_gps_m": 192.47000122070312, "groundspeed_mps": 0.013260976411402225}, "flight": {"mode": "STABILIZE", "armed": false}, "ekf": {"attitude": {"roll": 0.01237639132887125, "pitch": -0.004720237106084824, "yaw": 0.9119234085083008}, "local_position": {"x": null, "y": null, "z": null}, "status": {"flags": 135, "velocity_variance": 0.0, "pos_horiz_variance": 0.003814000403508544, "pos_vert_variance": 0.060787416994571686}}, "errors": ["PreArm: Hardware safety switch"]}
{"timestamp": "2026-01-24T15:34:08.901540Z", "telemetry": {"lat": 28.7532744, "lon": 77.1176806, "satellites": 7, "altitude_gps_m": 191.30999755859375, "groundspeed_mps": 0.010950278490781784}, "flight": {"mode": "STABILIZE", "armed": false}, "ekf": {"attitude": {"roll": 0.012365027330815792, "pitch": -0.00471549853682518, "yaw": 0.9118784666061401}, "local_position": {"x": null, "y": null, "z": null}, "status": {"flags": 135, "velocity_variance": 0.0, "pos_horiz_variance": 0.0035919155925512314, "pos_vert_variance": 0.04888216406106949}}, "errors": ["PreArm: Hardware safety switch"]}
{"timestamp": "2026-01-24T15:34:09.901816Z", "telemetry": {"lat": 28.7532739, "lon": 77.1176898, "satellites": 6, "altitude_gps_m": 190.239990234375, "groundspeed_mps": 0.008850923739373684}, "flight": {"mode": "STABILIZE", "armed": false}, "ekf": {"attitude": {"roll": 0.012436224147677422, "pitch": -0.004630785435438156, "yaw": 0.9120956659317017}, "local_position": {"x": null, "y": null, "z": null}, "status": {"flags": 135, "velocity_variance": 0.0, "pos_horiz_variance": 0.003128224750980735, "pos_vert_variance": 0.021695952862501144}}, "errors": ["PreArm: Hardware safety switch"]}
{"timestamp": "2026-01-24T15:34:10.901720Z", "telemetry": {"lat": 28.7532765, "lon": 77.117685, "satellites": 7, "altitude_gps_m": 190.20999145507812, "groundspeed_mps": 0.006025173235684633}, "flight": {"mode": "STABILIZE", "armed": false}, "ekf": {"attitude": {"roll": 0.012467412278056145, "pitch": -0.004577871412038803, "yaw": 0.9120951890945435}, "local_position": {"x": null, "y": null, "z": null}, "status": {"flags": 135, "velocity_variance": 0.0, "pos_horiz_variance": 0.002542356727644801, "pos_vert_variance": 0.008736539632081985}}, "errors": ["PreArm: Hardware safety switch"]}
{"timestamp": "2026-01-24T15:34:11.902203Z", "telemetry": {"lat": 28.7532775, "lon": 77.1176907, "satellites": 7, "altitude_gps_m": 189.45999145507812, "groundspeed_mps": 0.006226500496268272}, "flight": {"mode": "STABILIZE", "armed": false}, "ekf": {"attitude": {"roll": 0.012525757774710655, "pitch": -0.0046624355018138885, "yaw": 0.9121124148368835}, "local_position": {"x": null, "y": null, "z": null}, "status": {"flags": 135, "velocity_variance": 0.0, "pos_horiz_variance": 0.0019576039630919695, "pos_vert_variance": 0.03781124949455261}}, "errors": ["PreArm: Hardware safety switch"]}
{"timestamp": "2026-01-24T15:34:12.902093Z", "telemetry": {"lat": 28.7532726, "lon": 77.1176928, "satellites": 7, "altitude_gps_m": 187.5800018310547, "groundspeed_mps": 0.010284035466611385}, "flight": {"mode": "STABILIZE", "armed": false}, "ekf": {"attitude": {"roll": 0.012588026002049446, "pitch": -0.0047991350293159485, "yaw": 0.9122113585472107}, "local_position": {"x": null, "y": null, "z": null}, "status": {"flags": 135, "velocity_variance": 0.0, "pos_horiz_variance": 0.0018995923455804586, "pos_vert_variance": 0.06059328839182854}}, "errors": ["PreArm: Hardware safety switch"]}
{"timestamp": "2026-01-24T15:34:13.902394Z", "telemetry": {"lat": 28.7532645, "lon": 77.1176898, "satellites": 6, "altitude_gps_m": 187.97000122070312, "groundspeed_mps": 0.011610540561378002}, "flight": {"mode": "STABILIZE", "armed": false}, "ekf": {"attitude": {"roll": 0.01261006761342287, "pitch": -0.0048223137855529785, "yaw": 0.9122505784034729}, "local_position": {"x": null, "y": null, "z": null}, "status": {"flags": 135, "velocity_variance": 0.0, "pos_horiz_variance": 0.0025560338981449604, "pos_vert_variance": 0.021979548037052155}}, "errors": ["PreArm: Hardware safety switch"]}
{"timestamp": "2026-01-24T15:34:14.902477Z", "telemetry": {"lat": 28.7532654, "lon": 77.1176924, "satellites": 6, "altitude_gps_m": 189.02999877929688, "groundspeed_mps": 0.0147961201146245}, "flight": {"mode": "STABILIZE", "armed": false}, "ekf": {"attitude": {"roll": 0.012555043213069439, "pitch": -0.004865843802690506, "yaw": 0.9122055768966675}, "local_position": {"x": null, "y": null, "z": null}, "status": {"flags": 135, "velocity_variance": 0.0, "pos_horiz_variance": 0.0031840798910707235, "pos_vert_variance": 0.014712544158101082}}, "errors": ["PreArm: Hardware safety switch"]}
{"timestamp": "2026-01-24T15:34:15.902404Z", "telemetry": {"lat": 28.7532577, "lon": 77.1177001, "satellites": 6, "altitude_gps_m": 187.86000061035156, "groundspeed_mps": 0.015060137026011944}, "flight": {"mode": "STABILIZE", "armed": false}, "ekf": {"attitude": {"roll": 0.01245476771146059, "pitch": -0.004825696349143982, "yaw": 0.9121647477149963}, "local_position": {"x": null, "y": null, "z": null}, "status": {"flags": 135, "velocity_variance": 0.0, "pos_horiz_variance": 0.00392606807872653, "pos_vert_variance": 0.062611423432827}}, "errors": ["PreArm: Hardware safety switch"]}
{"timestamp": "2026-01-24T15:34:16.902707Z", "telemetry": {"lat": 28.7532568, "lon": 77.1177013, "satellites": 6, "altitude_gps_m": 186.75999450683594, "groundspeed_mps": 0.014842627570033073}, "flight": {"mode": "STABILIZE", "armed": false}, "ekf": {"attitude": {"roll": 0.012418782338500023, "pitch": -0.004843700677156448, "yaw": 0.9121886491775513}, "local_position": {"x": null, "y": null, "z": null}, "status": {"flags": 135, "velocity_variance": 0.0, "pos_horiz_variance": 0.004093751311302185, "pos_vert_variance": 0.03873871639370918}}, "errors": ["PreArm: Hardware safety switch"]}
{"timestamp": "2026-01-24T15:34:17.902687Z", "telemetry": {"lat": 28.753253, "lon": 77.1177031, "satellites": 6, "altitude_gps_m": 185.95999145507812, "groundspeed_mps": 0.014789888635277748}, "flight": {"mode": "STABILIZE", "armed": false}, "ekf": {"attitude": {"roll": 0.01237412728369236, "pitch": -0.004876554012298584, "yaw": 0.912214994430542}, "local_position": {"x": null, "y": null, "z": null}, "status": {"flags": 135, "velocity_variance": 0.0, "pos_horiz_variance": 0.004153552930802107, "pos_vert_variance": 0.0030115479603409767}}, "errors": ["PreArm: Hardware safety switch"]}
{"timestamp": "2026-01-24T15:34:18.902950Z", "telemetry": {"lat": 28.7532452, "lon": 77.1177019, "satellites": 6, "altitude_gps_m": 184.33999633789062, "groundspeed_mps": 0.016754675656557083}, "flight": {"mode": "STABILIZE", "armed": false}, "ekf": {"attitude": {"roll": 0.012333384715020657, "pitch": -0.005063008517026901, "yaw": 0.9122612476348877}, "local_position": {"x": null, "y": null, "z": null}, "status": {"flags": 135, "velocity_variance": 0.0, "pos_horiz_variance": 0.004218747839331627, "pos_vert_variance": 0.002333583077415824}}, "errors": ["PreArm: Hardware safety switch"]}
{"timestamp": "2026-01-24T15:34:19.883095Z", "telemetry": {"lat": 28.7532451, "lon": 77.1177035, "satellites": 6, "altitude_gps_m": 184.22000122070312, "groundspeed_mps": 0.0181342251598835}, "flight": {"mode": "STABILIZE", "armed": false}, "ekf": {"attitude": {"roll": 0.012397358193993568, "pitch": -0.005049165338277817, "yaw": 0.9122905731201172}, "local_position": {"x": null, "y": null, "z": null}, "status": {"flags": 135, "velocity_variance": 0.0, "pos_horiz_variance": 0.004434130620211363, "pos_vert_variance": 0.008589688688516617}}, "errors": ["PreArm: Hardware safety switch"]}
{"timestamp": "2026-01-24T15:34:20.883510Z", "telemetry": {"lat": 28.7532404, "lon": 77.1177084, "satellites": 6, "altitude_gps_m": 185.44000244140625, "groundspeed_mps": 0.017696592956781387}, "flight": {"mode": "STABILIZE", "armed": false}, "ekf": {"attitude": {"roll": 0.012390166521072388, "pitch": -0.0050262100994586945, "yaw": 0.9123268723487854}, "local_position": {"x": null, "y": null, "z": null}, "status": {"flags": 135, "velocity_variance": 0.0, "pos_horiz_variance": 0.004847247619181871, "pos_vert_variance": 0.01183442585170269}}, "errors": ["PreArm: Hardware safety switch"]}
{"timestamp": "2026-01-24T15:34:21.883642Z", "telemetry": {"lat": 28.7532339, "lon": 77.1177133, "satellites": 6, "altitude_gps_m": 187.12998962402344, "groundspeed_mps": 0.019800134003162384}, "flight": {"mode": "STABILIZE", "armed": false}, "ekf": {"attitude": {"roll": 0.012329192832112312, "pitch": -0.004988454282283783, "yaw": 0.9124082922935486}, "local_position": {"x": null, "y": null, "z": null}, "status": {"flags": 135, "velocity_variance": 0.0, "pos_horiz_variance": 0.004908055532723665, "pos_vert_variance": 0.0010594906052574515}}, "errors": ["PreArm: Hardware safety switch"]}
{"timestamp": "2026-01-24T15:34:22.883732Z", "telemetry": {"lat": 28.7532414, "lon": 77.117719, "satellites": 6, "altitude_gps_m": 188.52999877929688, "groundspeed_mps": 0.01920192688703537}, "flight": {"mode": "STABILIZE", "armed": false}, "ekf": {"attitude": {"roll": 0.012345637194812298, "pitch": -0.004980683326721191, "yaw": 0.9123433828353882}, "local_position": {"x": null, "y": null, "z": null}, "status": {"flags": 135, "velocity_variance": 0.0, "pos_horiz_variance": 0.005191871430724859, "pos_vert_variance": 0.04565410688519478}}, "errors": ["PreArm: Hardware safety switch"]}
{"timestamp": "2026-01-24T15:34:23.883451Z", "telemetry": {"lat": 28.7532344, "lon": 77.1177195, "satellites": 6, "altitude_gps_m": 189.33999633789062, "groundspeed_mps": 0.01863766461610794}, "flight": {"mode": "STABILIZE", "armed": false}, "ekf": {"attitude": {"roll": 0.012374482117593288, "pitch": -0.005032528191804886, "yaw": 0.9123491048812866}, "local_position": {"x": null, "y": null, "z": null}, "status": {"flags": 135, "velocity_variance": 0.0, "pos_horiz_variance": 0.005335768219083548, "pos_vert_variance": 0.07294444739818573}}, "errors": ["PreArm: Hardware safety switch"]}
{"timestamp": "2026-01-24T15:34:24.883831Z", "telemetry": {"lat": 28.7532291, "lon": 77.1177224, "satellites": 6, "altitude_gps_m": 190.08999633789062, "groundspeed_mps": 0.017892824485898018}, "flight": {"mode": "STABILIZE", "armed": false}, "ekf": {"attitude": {"roll": 0.012497635558247566, "pitch": -0.00516301766037941, "yaw": 0.9125105738639832}, "local_position": {"x": null, "y": null, "z": null}, "status": {"flags": 135, "velocity_variance": 0.0, "pos_horiz_variance": 0.005161853972822428, "pos_vert_variance": 0.07042451202869415}}, "errors": ["PreArm: Hardware safety switch"]}
{"timestamp": "2026-01-24T15:34:25.883714Z", "telemetry": {"lat": 28.753236, "lon": 77.1177277, "satellites": 6, "altitude_gps_m": 190.3000030517578, "groundspeed_mps": 0.02160400152206421}, "flight": {"mode": "STABILIZE", "armed": false}, "ekf": {"attitude": {"roll": 0.01248168759047985, "pitch": -0.005035229027271271, "yaw": 0.912434458732605}, "local_position": {"x": null, "y": null, "z": null}, "status": {"flags": 135, "velocity_variance": 0.0, "pos_horiz_variance": 0.005304974038153887, "pos_vert_variance": 0.04770096018910408}}, "errors": ["PreArm: Hardware safety switch"]}
{"timestamp": "2026-01-24T15:34:26.883663Z", "telemetry": {"lat": 28.7532307, "lon": 77.1177373, "satellites": 7, "altitude_gps_m": 190.4499969482422, "groundspeed_mps": 0.020736968144774437}, "flight": {"mode": "STABILIZE", "armed": false}, "ekf": {"attitude": {"roll": 0.012505849823355675, "pitch": -0.00491693988442421, "yaw": 0.9124345779418945}, "local_position": {"x": null, "y": null, "z": null}, "status": {"flags": 135, "velocity_variance": 0.0, "pos_horiz_variance": 0.005719217471778393, "pos_vert_variance": 0.0550360269844532}}, "errors": ["PreArm: Hardware safety switch"]}
{"timestamp": "2026-01-24T15:34:27.921771Z", "telemetry": {"lat": 28.7532307, "lon": 77.1177437, "satellites": 7, "altitude_gps_m": 190.76998901367188, "groundspeed_mps": 0.018868662416934967}, "flight": {"mode": "STABILIZE", "armed": false}, "ekf": {"attitude": {"roll": 0.012527259066700935, "pitch": -0.004797946661710739, "yaw": 0.9123423099517822}, "local_position": {"x": null, "y": null, "z": null}, "status": {"flags": 135, "velocity_variance": 0.0, "pos_horiz_variance": 0.0057348329573869705, "pos_vert_variance": 0.03275308758020401}}, "errors": ["PreArm: Hardware safety switch"]}
{"timestamp": "2026-01-24T15:34:28.921787Z", "telemetry": {"lat": 28.7532367, "lon": 77.1177452, "satellites": 7, "altitude_gps_m": 191.52999877929688, "groundspeed_mps": 0.017480427399277687}, "flight": {"mode": "STABILIZE", "armed": false}, "ekf": {"attitude": {"roll": 0.01263035461306572, "pitch": -0.004781704396009445, "yaw": 0.9123318195343018}, "local_position": {"x": null, "y": null, "z": null}, "status": {"flags": 135, "velocity_variance": 0.0, "pos_horiz_variance": 0.005434789694845676, "pos_vert_variance": 0.02003740333020687}}, "errors": ["PreArm: Hardware safety switch"]}
{"timestamp": "2026-01-24T15:34:29.922042Z", "telemetry": {"lat": 28.7532443, "lon": 77.1177515, "satellites": 7, "altitude_gps_m": 190.989990234375, "groundspeed_mps": 0.012504901736974716}, "flight": {"mode": "STABILIZE", "armed": false}, "ekf": {"attitude": {"roll": 0.012653806246817112, "pitch": -0.004715412855148315, "yaw": 0.9122515916824341}, "local_position": {"x": null, "y": null, "z": null}, "status": {"flags": 135, "velocity_variance": 0.0, "pos_horiz_variance": 0.004730782005935907, "pos_vert_variance": 0.03710482269525528}}, "errors": ["PreArm: Hardware safety switch"]}
{"timestamp": "2026-01-24T15:34:30.922153Z", "telemetry": {"lat": 28.7532435, "lon": 77.1177545, "satellites": 7, "altitude_gps_m": 190.72999572753906, "groundspeed_mps": 0.010991093702614307}, "flight": {"mode": "STABILIZE", "armed": false}, "ekf": {"attitude": {"roll": 0.01264982670545578, "pitch": -0.004609718918800354, "yaw": 0.9121946692466736}, "local_position": {"x": null, "y": null, "z": null}, "status": {"flags": 135, "velocity_variance": 0.0, "pos_horiz_variance": 0.0038821171037852764, "pos_vert_variance": 0.009708931669592857}}, "errors": ["PreArm: Hardware safety switch", "PreArm: Hardware safety switch"]}
{"timestamp": "2026-01-24T15:34:31.922332Z", "telemetry": {"lat": 28.7532426, "lon": 77.1177571, "satellites": 6, "altitude_gps_m": 190.70999145507812, "groundspeed_mps": 0.012283768504858017}, "flight": {"mode": "STABILIZE", "armed": false}, "ekf": {"attitude": {"roll": 0.012729920446872711, "pitch": -0.0046695321798324585, "yaw": 0.912147581577301}, "local_position": {"x": null, "y": null, "z": null}, "status": {"flags": 135, "velocity_variance": 0.0, "pos_horiz_variance": 0.0035912087187170982, "pos_vert_variance": 0.032504916191101074}}, "errors": ["PreArm: Hardware safety switch", "PreArm: Hardware safety switch"]}
{"timestamp": "2026-01-24T15:34:32.922492Z", "telemetry": {"lat": 28.753251, "lon": 77.1177561, "satellites": 6, "altitude_gps_m": 191.72000122070312, "groundspeed_mps": 0.012324596755206585}, "flight": {"mode": "STABILIZE", "armed": false}, "ekf": {"attitude": {"roll": 0.012769566848874092, "pitch": -0.004609659314155579, "yaw": 0.912140965461731}, "local_position": {"x": null, "y": null, "z": null}, "status": {"flags": 135, "velocity_variance": 0.0, "pos_horiz_variance": 0.0035127189476042986, "pos_vert_variance": 0.0031365372706204653}}, "errors": ["PreArm: Hardware safety switch", "PreArm: Hardware safety switch"]}
{"timestamp": "2026-01-24T15:34:33.922358Z", "telemetry": {"lat": 28.753256, "lon": 77.1177587, "satellites": 7, "altitude_gps_m": 191.7899932861328, "groundspeed_mps": 0.013926305808126926}, "flight": {"mode": "STABILIZE", "armed": false}, "ekf": {"attitude": {"roll": 0.012905796989798546, "pitch": -0.004580002278089523, "yaw": 0.9121639728546143}, "local_position": {"x": null, "y": null, "z": null}, "status": {"flags": 135, "velocity_variance": 0.0, "pos_horiz_variance": 0.0035102663096040487, "pos_vert_variance": 0.05463986471295357}}, "errors": ["PreArm: Hardware safety switch", "PreArm: Hardware safety switch"]}
{"timestamp": "2026-01-24T15:34:34.922675Z", "telemetry": {"lat": 28.7532562, "lon": 77.117766, "satellites": 7, "altitude_gps_m": 193.6699981689453, "groundspeed_mps": 0.015037369914352894}, "flight": {"mode": "STABILIZE", "armed": false}, "ekf": {"attitude": {"roll": 0.012850413098931313, "pitch": -0.004578728228807449, "yaw": 0.9121103882789612}, "local_position": {"x": null, "y": null, "z": null}, "status": {"flags": 135, "velocity_variance": 0.0, "pos_horiz_variance": 0.0037617720663547516, "pos_vert_variance": 0.005985863972455263}}, "errors": ["PreArm: Hardware safety switch", "PreArm: Hardware safety switch"]}
{"timestamp": "2026-01-24T15:34:35.922609Z", "telemetry": {"lat": 28.7532684, "lon": 77.1177721, "satellites": 7, "altitude_gps_m": 196.58999633789062, "groundspeed_mps": 0.015537943691015244}, "flight": {"mode": "STABILIZE", "armed": false}, "ekf": {"attitude": {"roll": 0.012797468341886997, "pitch": -0.004546456038951874, "yaw": 0.9120383262634277}, "local_position": {"x": null, "y": null, "z": null}, "status": {"flags": 135, "velocity_variance": 0.0, "pos_horiz_variance": 0.004090575501322746, "pos_vert_variance": 0.07895440608263016}}, "errors": ["PreArm: Hardware safety switch", "PreArm: Hardware safety switch"]}
{"timestamp": "2026-01-24T15:34:36.885440Z", "telemetry": {"lat": 28.753275, "lon": 77.1177819, "satellites": 7, "altitude_gps_m": 197.02999877929688, "groundspeed_mps": 0.015937788411974907}, "flight": {"mode": "STABILIZE", "armed": false}, "ekf": {"attitude": {"roll": 0.012661222368478775, "pitch": -0.004491385072469711, "yaw": 0.9119229316711426}, "local_position": {"x": null, "y": null, "z": null}, "status": {"flags": 135, "velocity_variance": 0.0, "pos_horiz_variance": 0.004298228304833174, "pos_vert_variance": 0.05398871377110481}}, "errors": ["PreArm: Hardware safety switch", "PreArm: Hardware safety switch"]}
{"timestamp": "2026-01-24T15:34:37.922995Z", "telemetry": {"lat": 28.7532736, "lon": 77.1177804, "satellites": 7, "altitude_gps_m": 198.37998962402344, "groundspeed_mps": 0.012291355058550835}, "flight": {"mode": "STABILIZE", "armed": false}, "ekf": {"attitude": {"roll": 0.01261444017291069, "pitch": -0.004445385187864304, "yaw": 0.9118490219116211}, "local_position": {"x": null, "y": null, "z": null}, "status": {"flags": 135, "velocity_variance": 0.0, "pos_horiz_variance": 0.004196549765765667, "pos_vert_variance": 0.02514306828379631}}, "errors": ["PreArm: Hardware safety switch", "PreArm: Hardware safety switch"]}
{"timestamp": "2026-01-24T15:34:38.885809Z", "telemetry": {"lat": 28.7532628, "lon": 77.1177805, "satellites": 8, "altitude_gps_m": 199.489990234375, "groundspeed_mps": 0.009180780500173569}, "flight": {"mode": "STABILIZE", "armed": false}, "ekf": {"attitude": {"roll": 0.01254212111234665, "pitch": -0.0042114779353141785, "yaw": 0.9118718504905701}, "local_position": {"x": null, "y": null, "z": null}, "status": {"flags": 135, "velocity_variance": 0.0, "pos_horiz_variance": 0.0035709175281226635, "pos_vert_variance": 0.09583138674497604}}, "errors": ["PreArm: Hardware safety switch", "PreArm: Hardware safety switch"]}
{"timestamp": "2026-01-24T15:34:39.923298Z", "telemetry": {"lat": 28.7532497, "lon": 77.1177859, "satellites": 8, "altitude_gps_m": 199.77999877929688, "groundspeed_mps": 0.004112666938453913}, "flight": {"mode": "STABILIZE", "armed": false}, "ekf": {"attitude": {"roll": 0.012489760294556618, "pitch": -0.004145745187997818, "yaw": 0.9119710922241211}, "local_position": {"x": null, "y": null, "z": null}, "status": {"flags": 135, "velocity_variance": 0.0, "pos_horiz_variance": 0.0025504943914711475, "pos_vert_variance": 0.04092111811041832}}, "errors": ["PreArm: Hardware safety switch", "PreArm: Hardware safety switch"]}
{"timestamp": "2026-01-24T15:34:40.886084Z", "telemetry": {"lat": 28.753253, "lon": 77.1177877, "satellites": 7, "altitude_gps_m": 200.86000061035156, "groundspeed_mps": 0.0013316412223502994}, "flight": {"mode": "STABILIZE", "armed": false}, "ekf": {"attitude": {"roll": 0.012310156598687172, "pitch": -0.004241529852151871, "yaw": 0.9118948578834534}, "local_position": {"x": null, "y": null, "z": null}, "status": {"flags": 135, "velocity_variance": 0.0, "pos_horiz_variance": 0.0014260411262512207, "pos_vert_variance": 0.04946039989590645}}, "errors": ["PreArm: Hardware safety switch", "PreArm: Hardware safety switch"]}
{"timestamp": "2026-01-24T15:34:41.923659Z", "telemetry": {"lat": 28.7532625, "lon": 77.1177912, "satellites": 8, "altitude_gps_m": 201.489990234375, "groundspeed_mps": 0.002523748902603984}, "flight": {"mode": "STABILIZE", "armed": false}, "ekf": {"attitude": {"roll": 0.012319274246692657, "pitch": -0.004977766424417496, "yaw": 0.9119238257408142}, "local_position": {"x": null, "y": null, "z": null}, "status": {"flags": 135, "velocity_variance": 0.0, "pos_horiz_variance": 0.0009518447332084179, "pos_vert_variance": 0.052900247275829315}}, "errors": ["PreArm: Hardware safety switch", "PreArm: Hardware safety switch"]}
{"timestamp": "2026-01-24T15:34:42.886450Z", "telemetry": {"lat": 28.7532657, "lon": 77.1177982, "satellites": 8, "altitude_gps_m": 202.0500030517578, "groundspeed_mps": 0.004878087434917688}, "flight": {"mode": "STABILIZE", "armed": false}, "ekf": {"attitude": {"roll": 0.012465553358197212, "pitch": -0.003839578479528427, "yaw": 0.9125112295150757}, "local_position": {"x": null, "y": null, "z": null}, "status": {"flags": 135, "velocity_variance": 0.0, "pos_horiz_variance": 0.0005479036481119692, "pos_vert_variance": 0.02495913952589035}}, "errors": ["PreArm: Hardware safety switch", "PreArm: Hardware safety switch"]}
{"timestamp": "2026-01-24T15:34:43.923714Z", "telemetry": {"lat": 28.7532566, "lon": 77.1178002, "satellites": 8, "altitude_gps_m": 205.1199951171875, "groundspeed_mps": 0.004677336663007736}, "flight": {"mode": "STABILIZE", "armed": false}, "ekf": {"attitude": {"roll": 0.012319187633693218, "pitch": -0.004360504448413849, "yaw": 0.9120556712150574}, "local_position": {"x": null, "y": null, "z": null}, "status": {"flags": 135, "velocity_variance": 0.0, "pos_horiz_variance": 0.000743749609682709, "pos_vert_variance": 0.03495560958981514}}, "errors": ["PreArm: Hardware safety switch", "PreArm: Hardware safety switch"]}
{"timestamp": "2026-01-24T15:34:44.886169Z", "telemetry": {"lat": 28.7532478, "lon": 77.1177928, "satellites": 8, "altitude_gps_m": 207.77999877929688, "groundspeed_mps": 0.0032965277787297964}, "flight": {"mode": "STABILIZE", "armed": false}, "ekf": {"attitude": {"roll": 0.012470417656004429, "pitch": -0.003722000867128372, "yaw": 0.9128425121307373}, "local_position": {"x": null, "y": null, "z": null}, "status": {"flags": 135, "velocity_variance": 0.0, "pos_horiz_variance": 0.0009706559358164668, "pos_vert_variance": 0.024356264621019363}}, "errors": ["PreArm: Hardware safety switch", "PreArm: Hardware safety switch"]}
{"timestamp": "2026-01-24T15:34:45.923980Z", "telemetry": {"lat": 28.7532434, "lon": 77.117796, "satellites": 8, "altitude_gps_m": 208.63999938964844, "groundspeed_mps": 0.0006257121567614377}, "flight": {"mode": "STABILIZE", "armed": false}, "ekf": {"attitude": {"roll": 0.012807534076273441, "pitch": -0.0030077695846557617, "yaw": 0.9134299159049988}, "local_position": {"x": null, "y": null, "z": null}, "status": {"flags": 135, "velocity_variance": 0.0, "pos_horiz_variance": 0.0006594190490432084, "pos_vert_variance": 0.08631351590156555}}, "errors": ["PreArm: Hardware safety switch", "PreArm: Hardware safety switch"]}
{"timestamp": "2026-01-24T15:34:46.886632Z", "telemetry": {"lat": 28.7532431, "lon": 77.1177961, "satellites": 8, "altitude_gps_m": 208.1599884033203, "groundspeed_mps": 0.0032992647029459476}, "flight": {"mode": "STABILIZE", "armed": false}, "ekf": {"attitude": {"roll": 0.012651032768189907, "pitch": -0.003867868334054947, "yaw": 0.9134112000465393}, "local_position": {"x": null, "y": null, "z": null}, "status": {"flags": 135, "velocity_variance": 0.0, "pos_horiz_variance": 0.00013431427942123264, "pos_vert_variance": 0.08996313810348511}}, "errors": ["PreArm: Hardware safety switch", "PreArm: Hardware safety switch"]}
{"timestamp": "2026-01-24T15:34:47.886472Z", "telemetry": {"lat": 28.7532387, "lon": 77.1178037, "satellites": 8, "altitude_gps_m": 208.8300018310547, "groundspeed_mps": 0.005920185707509518}, "flight": {"mode": "STABILIZE", "armed": false}, "ekf": {"attitude": {"roll": 0.012822345830500126, "pitch": -0.0035207532346248627, "yaw": 0.9130374789237976}, "local_position": {"x": null, "y": null, "z": null}, "status": {"flags": 135, "velocity_variance": 0.0, "pos_horiz_variance": 0.0004823182534892112, "pos_vert_variance": 0.004544313531368971}}, "errors": ["PreArm: Hardware safety switch", "PreArm: Hardware safety switch"]}
{"timestamp": "2026-01-24T15:34:48.924314Z", "telemetry": {"lat": 28.7532322, "lon": 77.1178044, "satellites": 8, "altitude_gps_m": 209.19000244140625, "groundspeed_mps": 0.005433359183371067}, "flight": {"mode": "STABILIZE", "armed": false}, "ekf": {"attitude": {"roll": 0.012880663387477398, "pitch": -0.0029563196003437042, "yaw": 0.9135871529579163}, "local_position": {"x": null, "y": null, "z": null}, "status": {"flags": 135, "velocity_variance": 0.0, "pos_horiz_variance": 0.000994092202745378, "pos_vert_variance": 0.0669306218624115}}, "errors": ["PreArm: Hardware safety switch", "PreArm: Hardware safety switch"]}
{"timestamp": "2026-01-24T15:34:49.924044Z", "telemetry": {"lat": 28.7532314, "lon": 77.1178032, "satellites": 8, "altitude_gps_m": 210.08999633789062, "groundspeed_mps": 0.0059748804196715355}, "flight": {"mode": "STABILIZE", "armed": false}, "ekf": {"attitude": {"roll": 0.012902834452688694, "pitch": -0.00315798819065094, "yaw": 0.9133949875831604}, "local_position": {"x": null, "y": null, "z": null}, "status": {"flags": 135, "velocity_variance": 0.0, "pos_horiz_variance": 0.0012697180500254035, "pos_vert_variance": 0.010054218582808971}}, "errors": ["PreArm: Hardware safety switch", "PreArm: Hardware safety switch"]}
{"timestamp": "2026-01-24T15:34:50.924331Z", "telemetry": {"lat": 28.7532299, "lon": 77.1178059, "satellites": 8, "altitude_gps_m": 209.20999145507812, "groundspeed_mps": 0.005605608224868774}, "flight": {"mode": "STABILIZE", "armed": false}, "ekf": {"attitude": {"roll": 0.012581486254930496, "pitch": -0.004003126174211502, "yaw": 0.9128416180610657}, "local_position": {"x": null, "y": null, "z": null}, "status": {"flags": 135, "velocity_variance": 0.0, "pos_horiz_variance": 0.0014752661809325218, "pos_vert_variance": 0.07454454898834229}}, "errors": ["PreArm: Hardware safety switch", "PreArm: Hardware safety switch"]}
{"timestamp": "2026-01-24T15:34:51.924585Z", "telemetry": {"lat": 28.7532255, "lon": 77.1178041, "satellites": 8, "altitude_gps_m": 210.0399932861328, "groundspeed_mps": 0.004108063876628876}, "flight": {"mode": "STABILIZE", "armed": false}, "ekf": {"attitude": {"roll": 0.012843186035752296, "pitch": -0.0035666264593601227, "yaw": 0.9133461117744446}, "local_position": {"x": null, "y": null, "z": null}, "status": {"flags": 135, "velocity_variance": 0.0, "pos_horiz_variance": 0.001484437147155404, "pos_vert_variance": 0.05510877072811127}}, "errors": ["PreArm: Hardware safety switch", "PreArm: Hardware safety switch"]}
{"timestamp": "2026-01-24T15:34:52.924397Z", "telemetry": {"lat": 28.753221, "lon": 77.1178024, "satellites": 8, "altitude_gps_m": 208.59999084472656, "groundspeed_mps": 0.003816531039774418}, "flight": {"mode": "STABILIZE", "armed": false}, "ekf": {"attitude": {"roll": 0.013104002922773361, "pitch": -0.0030407533049583435, "yaw": 0.9134491682052612}, "local_position": {"x": null, "y": null, "z": null}, "status": {"flags": 135, "velocity_variance": 0.0, "pos_horiz_variance": 0.0010286170290783048, "pos_vert_variance": 0.006145437713712454}}, "errors": ["PreArm: Hardware safety switch", "PreArm: Hardware safety switch"]}
{"timestamp": "2026-01-24T15:34:53.924849Z", "telemetry": {"lat": 28.753224, "lon": 77.1178069, "satellites": 8, "altitude_gps_m": 207.22000122070312, "groundspeed_mps": 0.004836074076592922}, "flight": {"mode": "STABILIZE", "armed": false}, "ekf": {"attitude": {"roll": 0.013297258876264095, "pitch": -0.0031081177294254303, "yaw": 0.9134312272071838}, "local_position": {"x": null, "y": null, "z": null}, "status": {"flags": 135, "velocity_variance": 0.0, "pos_horiz_variance": 0.0010842701885849237, "pos_vert_variance": 0.01019595842808485}}, "errors": ["PreArm: Hardware safety switch", "PreArm: Hardware safety switch"]}
{"timestamp": "2026-01-24T15:34:54.924789Z", "telemetry": {"lat": 28.7532242, "lon": 77.1178061, "satellites": 8, "altitude_gps_m": 205.26998901367188, "groundspeed_mps": 0.008501699194312096}, "flight": {"mode": "STABILIZE", "armed": false}, "ekf": {"attitude": {"roll": 0.013357079587876797, "pitch": -0.0038163401186466217, "yaw": 0.9135184288024902}, "local_position": {"x": null, "y": null, "z": null}, "status": {"flags": 135, "velocity_variance": 0.0, "pos_horiz_variance": 0.001370306359604001, "pos_vert_variance": 0.07593894749879837}}, "errors": ["PreArm: Hardware safety switch", "PreArm: Hardware safety switch"]}
{"timestamp": "2026-01-24T15:34:55.925132Z", "telemetry": {"lat": 28.753225, "lon": 77.1178026, "satellites": 8, "altitude_gps_m": 204.80999755859375, "groundspeed_mps": 0.012402014806866646}, "flight": {"mode": "STABILIZE", "armed": false}, "ekf": {"attitude": {"roll": 0.013392080552875996, "pitch": -0.002918582409620285, "yaw": 0.9142608046531677}, "local_position": {"x": null, "y": null, "z": null}, "status": {"flags": 135, "velocity_variance": 0.0, "pos_horiz_variance": 0.0022020426113158464, "pos_vert_variance": 0.08563719689846039}}, "errors": ["PreArm: Hardware safety switch", "PreArm: Hardware safety switch"]}
{"timestamp": "2026-01-24T15:34:56.924974Z", "telemetry": {"lat": 28.7532295, "lon": 77.1178058, "satellites": 9, "altitude_gps_m": 202.30999755859375, "groundspeed_mps": 0.013504636473953724}, "flight": {"mode": "STABILIZE", "armed": false}, "ekf": {"attitude": {"roll": 0.013110805302858353, "pitch": -0.003327310085296631, "yaw": 0.9138113856315613}, "local_position": {"x": null, "y": null, "z": null}, "status": {"flags": 135, "velocity_variance": 0.0, "pos_horiz_variance": 0.002971990965306759, "pos_vert_variance": 0.05767646059393883}}, "errors": ["PreArm: Hardware safety switch", "PreArm: Hardware safety switch"]}
{"timestamp": "2026-01-24T15:34:57.925176Z", "telemetry": {"lat": 28.7532329, "lon": 77.1178108, "satellites": 9, "altitude_gps_m": 199.5500030517578, "groundspeed_mps": 0.01740194298326969}, "flight": {"mode": "STABILIZE", "armed": false}, "ekf": {"attitude": {"roll": 0.013372316025197506, "pitch": -0.0032995231449604034, "yaw": 0.9139904379844666}, "local_position": {"x": null, "y": null, "z": null}, "status": {"flags": 135, "velocity_variance": 0.0, "pos_horiz_variance": 0.0034508933313190937, "pos_vert_variance": 0.09034279733896255}}, "errors": ["PreArm: Hardware safety switch", "PreArm: Hardware safety switch"]}
{"timestamp": "2026-01-24T15:34:58.925218Z", "telemetry": {"lat": 28.7532394, "lon": 77.1178037, "satellites": 9, "altitude_gps_m": 198.01998901367188, "groundspeed_mps": 0.01809421181678772}, "flight": {"mode": "STABILIZE", "armed": false}, "ekf": {"attitude": {"roll": 0.013084197416901588, "pitch": -0.0037610456347465515, "yaw": 0.9134568572044373}, "local_position": {"x": null, "y": null, "z": null}, "status": {"flags": 135, "velocity_variance": 0.0, "pos_horiz_variance": 0.004102030768990517, "pos_vert_variance": 0.02068919502198696}}, "errors": ["PreArm: Hardware safety switch", "PreArm: Hardware safety switch"]}
{"timestamp": "2026-01-24T15:34:59.925430Z", "telemetry": {"lat": 28.7532414, "lon": 77.1178065, "satellites": 9, "altitude_gps_m": 197.239990234375, "groundspeed_mps": 0.018327146768569946}, "flight": {"mode": "STABILIZE", "armed": false}, "ekf": {"attitude": {"roll": 0.013490290381014347, "pitch": -0.00366012379527092, "yaw": 0.9134353399276733}, "local_position": {"x": null, "y": null, "z": null}, "status": {"flags": 135, "velocity_variance": 0.0, "pos_horiz_variance": 0.004514674656093121, "pos_vert_variance": 0.007725836243480444}}, "errors": ["PreArm: Hardware safety switch", "PreArm: Hardware safety switch"]}
{"timestamp": "2026-01-24T15:35:00.975755Z", "telemetry": {"lat": 28.7532427, "lon": 77.1178067, "satellites": 9, "altitude_gps_m": 197.239990234375, "groundspeed_mps": 0.018327146768569946}, "flight": {"mode": "STABILIZE", "armed": false}, "ekf": {"attitude": {"roll": 0.013490290381014347, "pitch": -0.00366012379527092, "yaw": 0.9134353399276733}, "local_position": {"x": null, "y": null, "z": null}, "status": {"flags": 135, "velocity_variance": 0.0, "pos_horiz_variance": 0.004563461989164352, "pos_vert_variance": 0.0038048012647777796}}, "errors": ["PreArm: Hardware safety switch", "PreArm: Hardware safety switch"]}
