{"timestamp": "2026-01-24T15:26:55.911651Z", "telemetry": {"lat": 28.7532236, "lon": 77.117844, "satellites": 8, "altitude_gps_m": 208.22000122070312, "groundspeed_mps": 0.008705652318894863}, "flight": {"mode": "STABILIZE", "armed": false}, "ekf": {"attitude": {"roll": 0.017517056316137314, "pitch": -0.005269300192594528, "yaw": 0.9130598306655884}, "local_position": {"x": null, "y": null, "z": null}, "status": {"flags": 135, "velocity_variance": 0.0, "pos_horiz_variance": 0.0021053217351436615, "pos_vert_variance": 0.0004924054373987019}}, "errors": []}
{"timestamp": "2026-01-24T15:26:56.912321Z", "telemetry": {"lat": 28.7532188, "lon": 77.1178459, "satellites": 8, "altitude_gps_m": 209.25, "groundspeed_mps": 0.00749154994264245}, "flight": {"mode": "STABILIZE", "armed": false}, "ekf": {"attitude": {"roll": 0.01757184974849224, "pitch": -0.005178771913051605, "yaw": 0.9129737019538879}, "local_position": {"x": null, "y": null, "z": null}, "status": {"flags": 135, "velocity_variance": 0.0, "pos_horiz_variance": 0.0022478881292045116, "pos_vert_variance": 0.031216414645314217}}, "errors": []}
{"timestamp": "2026-01-24T15:26:57.912831Z", "telemetry": {"lat": 28.7532226, "lon": 77.1178451, "satellites": 9, "altitude_gps_m": 211.25999450683594, "groundspeed_mps": 0.007724561728537083}, "flight": {"mode": "STABILIZE", "armed": false}, "ekf": {"attitude": {"roll": 0.01758503168821335, "pitch": -0.004929199814796448, "yaw": 0.9130282998085022}, "local_position": {"x": null, "y": null, "z": null}, "status": {"flags": 135, "velocity_variance": 0.0, "pos_horiz_variance": 0.002211763057857752, "pos_vert_variance": 0.011891022324562073}}, "errors": []}
{"timestamp": "2026-01-24T15:26:58.913587Z", "telemetry": {"lat": 28.7532219, "lon": 77.1178448, "satellites": 9, "altitude_gps_m": 210.489990234375, "groundspeed_mps": 0.005662164650857449}, "flight": {"mode": "STABILIZE", "armed": false}, "ekf": {"attitude": {"roll": 0.017672087997198105, "pitch": -0.0049357302486896515, "yaw": 0.9130477905273438}, "local_position": {"x": null, "y": null, "z": null}, "status": {"flags": 135, "velocity_variance": 0.0, "pos_horiz_variance": 0.0019937369506806135, "pos_vert_variance": 0.002401577541604638}}, "errors": []}
{"timestamp": "2026-01-24T15:26:59.914248Z", "telemetry": {"lat": 28.7532202, "lon": 77.1178434, "satellites": 9, "altitude_gps_m": 209.59999084472656, "groundspeed_mps": 0.0032996966037899256}, "flight": {"mode": "STABILIZE", "armed": false}, "ekf": {"attitude": {"roll": 0.017607443034648895, "pitch": -0.00496702641248703, "yaw": 0.9131965637207031}, "local_position": {"x": null, "y": null, "z": null}, "status": {"flags": 135, "velocity_variance": 0.0, "pos_horiz_variance": 0.0016503960359841585, "pos_vert_variance": 0.05542774498462677}}, "errors": []}
{"timestamp": "2026-01-24T15:27:00.914965Z", "telemetry": {"lat": 28.7532199, "lon": 77.1178425, "satellites": 9, "altitude_gps_m": 210.5800018310547, "groundspeed_mps": 0.0024690718855708838}, "flight": {"mode": "STABILIZE", "armed": false}, "ekf": {"attitude": {"roll": 0.017571423202753067, "pitch": -0.005016271024942398, "yaw": 0.913282573223114}, "local_position": {"x": null, "y": null, "z": null}, "status": {"flags": 135, "velocity_variance": 0.0, "pos_horiz_variance": 0.0009937003487721086, "pos_vert_variance": 0.003355167107656598}}, "errors": []}
{"timestamp": "2026-01-24T15:27:01.915716Z", "telemetry": {"lat": 28.7532287, "lon": 77.1178366, "satellites": 8, "altitude_gps_m": 211.4199981689453, "groundspeed_mps": 0.0017716728616505861}, "flight": {"mode": "STABILIZE", "armed": false}, "ekf": {"attitude": {"roll": 0.01741054467856884, "pitch": -0.004941068589687347, "yaw": 0.9132713079452515}, "local_position": {"x": null, "y": null, "z": null}, "status": {"flags": 135, "velocity_variance": 0.0, "pos_horiz_variance": 0.0007944036624394357, "pos_vert_variance": 0.020671114325523376}}, "errors": []}
{"timestamp": "2026-01-24T15:27:02.916228Z", "telemetry": {"lat": 28.7532281, "lon": 77.1178361, "satellites": 8, "altitude_gps_m": 211.0699920654297, "groundspeed_mps": 0.003096455242484808}, "flight": {"mode": "STABILIZE", "armed": false}, "ekf": {"attitude": {"roll": 0.01739644631743431, "pitch": -0.005074426531791687, "yaw": 0.9131900668144226}, "local_position": {"x": null, "y": null, "z": null}, "status": {"flags": 135, "velocity_variance": 0.0, "pos_horiz_variance": 0.0005795123870484531, "pos_vert_variance": 0.11637085676193237}}, "errors": []}
{"timestamp": "2026-01-24T15:27:03.916880Z", "telemetry": {"lat": 28.7532246, "lon": 77.1178359, "satellites": 8, "altitude_gps_m": 209.1999969482422, "groundspeed_mps": 0.004926128312945366}, "flight": {"mode": "STABILIZE", "armed": false}, "ekf": {"attitude": {"roll": 0.017382437363266945, "pitch": -0.005194678902626038, "yaw": 0.913166880607605}, "local_position": {"x": null, "y": null, "z": null}, "status": {"flags": 135, "velocity_variance": 0.0, "pos_horiz_variance": 0.0010370828676968813, "pos_vert_variance": 0.048993997275829315}}, "errors": []}
{"timestamp": "2026-01-24T15:27:04.917311Z", "telemetry": {"lat": 28.7532253, "lon": 77.117837, "satellites": 7, "altitude_gps_m": 208.9099884033203, "groundspeed_mps": 0.008459903299808502}, "flight": {"mode": "STABILIZE", "armed": false}, "ekf": {"attitude": {"roll": 0.017342526465654373, "pitch": -0.005226153880357742, "yaw": 0.9131907224655151}, "local_position": {"x": null, "y": null, "z": null}, "status": {"flags": 135, "velocity_variance": 0.0, "pos_horiz_variance": 0.0015599429607391357, "pos_vert_variance": 0.0326823890209198}}, "errors": []}
{"timestamp": "2026-01-24T15:27:05.918084Z", "telemetry": {"lat": 28.7532206, "lon": 77.1178401, "satellites": 7, "altitude_gps_m": 209.47999572753906, "groundspeed_mps": 0.01279414352029562}, "flight": {"mode": "STABILIZE", "armed": false}, "ekf": {"attitude": {"roll": 0.0172914769500494, "pitch": -0.0052921362221241, "yaw": 0.9131534695625305}, "local_position": {"x": null, "y": null, "z": null}, "status": {"flags": 135, "velocity_variance": 0.0, "pos_horiz_variance": 0.00225622090511024, "pos_vert_variance": 0.048543866723775864}}, "errors": []}
{"timestamp": "2026-01-24T15:27:06.918512Z", "telemetry": {"lat": 28.7532193, "lon": 77.1178403, "satellites": 6, "altitude_gps_m": 209.86000061035156, "groundspeed_mps": 0.015491537749767303}, "flight": {"mode": "STABILIZE", "armed": false}, "ekf": {"attitude": {"roll": 0.017329197376966476, "pitch": -0.005402673035860062, "yaw": 0.9132331013679504}, "local_position": {"x": null, "y": null, "z": null}, "status": {"flags": 135, "velocity_variance": 0.0, "pos_horiz_variance": 0.0032028169371187687, "pos_vert_variance": 0.01479626540094614}}, "errors": []}
{"timestamp": "2026-01-24T15:27:07.919328Z", "telemetry": {"lat": 28.7532161, "lon": 77.1178424, "satellites": 8, "altitude_gps_m": 210.5, "groundspeed_mps": 0.016021432355046272}, "flight": {"mode": "STABILIZE", "armed": false}, "ekf": {"attitude": {"roll": 0.01739495061337948, "pitch": -0.00530485063791275, "yaw": 0.913175642490387}, "local_position": {"x": null, "y": null, "z": null}, "status": {"flags": 135, "velocity_variance": 0.0, "pos_horiz_variance": 0.003860832890495658, "pos_vert_variance": 0.018494656309485435}}, "errors": []}
{"timestamp": "2026-01-24T15:27:08.919847Z", "telemetry": {"lat": 28.7532147, "lon": 77.1178411, "satellites": 8, "altitude_gps_m": 210.9199981689453, "groundspeed_mps": 0.013931692577898502}, "flight": {"mode": "STABILIZE", "armed": false}, "ekf": {"attitude": {"roll": 0.017382163554430008, "pitch": -0.005351606756448746, "yaw": 0.9131697416305542}, "local_position": {"x": null, "y": null, "z": null}, "status": {"flags": 135, "velocity_variance": 0.0, "pos_horiz_variance": 0.004078788682818413, "pos_vert_variance": 0.05325305461883545}}, "errors": []}
{"timestamp": "2026-01-24T15:27:09.920491Z", "telemetry": {"lat": 28.7532147, "lon": 77.1178411, "satellites": 8, "altitude_gps_m": 210.9199981689453, "groundspeed_mps": 0.013931692577898502}, "flight": {"mode": "STABILIZE", "armed": false}, "ekf": {"attitude": {"roll": 0.017382163554430008, "pitch": -0.005351606756448746, "yaw": 0.9131697416305542}, "local_position": {"x": null, "y": null, "z": null}, "status": {"flags": 135, "velocity_variance": 0.0, "pos_horiz_variance": 0.004078788682818413, "pos_vert_variance": 0.05325305461883545}}, "errors": []}
{"timestamp": "2026-01-24T15:27:10.921240Z", "telemetry": {"lat": 28.7532147, "lon": 77.1178411, "satellites": 8, "altitude_gps_m": 210.9199981689453, "groundspeed_mps": 0.013931692577898502}, "flight": {"mode": "STABILIZE", "armed": false}, "ekf": {"attitude": {"roll": 0.017382163554430008, "pitch": -0.005351606756448746, "yaw": 0.9131697416305542}, "local_position": {"x": null, "y": null, "z": null}, "status": {"flags": 135, "velocity_variance": 0.0, "pos_horiz_variance": 0.004078788682818413, "pos_vert_variance": 0.05325305461883545}}, "errors": []}
{"timestamp": "2026-01-24T15:27:11.921563Z", "telemetry": {"lat": 28.7532147, "lon": 77.1178411, "satellites": 8, "altitude_gps_m": 210.9199981689453, "groundspeed_mps": 0.013931692577898502}, "flight": {"mode": "STABILIZE", "armed": false}, "ekf": {"attitude": {"roll": 0.017382163554430008, "pitch": -0.005351606756448746, "yaw": 0.9131697416305542}, "local_position": {"x": null, "y": null, "z": null}, "status": {"flags": 135, "velocity_variance": 0.0, "pos_horiz_variance": 0.004078788682818413, "pos_vert_variance": 0.05325305461883545}}, "errors": []}
{"timestamp": "2026-01-24T15:27:12.922166Z", "telemetry": {"lat": 28.7532147, "lon": 77.1178411, "satellites": 8, "altitude_gps_m": 210.9199981689453, "groundspeed_mps": 0.013931692577898502}, "flight": {"mode": "STABILIZE", "armed": false}, "ekf": {"attitude": {"roll": 0.017382163554430008, "pitch": -0.005351606756448746, "yaw": 0.9131697416305542}, "local_position": {"x": null, "y": null, "z": null}, "status": {"flags": 135, "velocity_variance": 0.0, "pos_horiz_variance": 0.004078788682818413, "pos_vert_variance": 0.05325305461883545}}, "errors": []}
{"timestamp": "2026-01-24T15:27:13.885569Z", "telemetry": {"lat": 28.7532127, "lon": 77.1178415, "satellites": 8, "altitude_gps_m": 213.80999755859375, "groundspeed_mps": 0.014633400365710258}, "flight": {"mode": "STABILIZE", "armed": false}, "ekf": {"attitude": {"roll": 0.01787424087524414, "pitch": -0.005467206239700317, "yaw": 0.9132933616638184}, "local_position": {"x": null, "y": null, "z": null}, "status": {"flags": 135, "velocity_variance": 0.0, "pos_horiz_variance": 0.003674910170957446, "pos_vert_variance": 0.004013427998870611}}, "errors": []}
{"timestamp": "2026-01-24T15:27:14.923682Z", "telemetry": {"lat": 28.7532102, "lon": 77.1178403, "satellites": 8, "altitude_gps_m": 214.44000244140625, "groundspeed_mps": 0.01588546857237816}, "flight": {"mode": "STABILIZE", "armed": false}, "ekf": {"attitude": {"roll": 0.01786954142153263, "pitch": -0.005523014813661575, "yaw": 0.9133245944976807}, "local_position": {"x": null, "y": null, "z": null}, "status": {"flags": 135, "velocity_variance": 0.0, "pos_horiz_variance": 0.0037910330574959517, "pos_vert_variance": 0.02477443218231201}}, "errors": ["ArduCopter V4.6.1 (57591cb8)", "ChibiOS: 88b84600", "fmuv3 00240032 33385119 36353030", "IOMCU: 420 1001 411FC231", "RCOut: PWM:1-14", "IMU0: fast sampling enabled 8.0kHz/1.0kHz", "Frame: QUAD/X"]}
{"timestamp": "2026-01-24T15:27:15.924180Z", "telemetry": {"lat": 28.7532005, "lon": 77.1178435, "satellites": 8, "altitude_gps_m": 217.8300018310547, "groundspeed_mps": 0.016349846497178078}, "flight": {"mode": "STABILIZE", "armed": false}, "ekf": {"attitude": {"roll": 0.01783687248826027, "pitch": -0.0055230483412742615, "yaw": 0.9134222865104675}, "local_position": {"x": null, "y": null, "z": null}, "status": {"flags": 135, "velocity_variance": 0.0, "pos_horiz_variance": 0.004171421285718679, "pos_vert_variance": 0.03468681871891022}}, "errors": ["ArduCopter V4.6.1 (57591cb8)", "ChibiOS: 88b84600", "fmuv3 00240032 33385119 36353030", "IOMCU: 420 1001 411FC231", "RCOut: PWM:1-14", "IMU0: fast sampling enabled 8.0kHz/1.0kHz", "Frame: QUAD/X"]}
{"timestamp": "2026-01-24T15:27:16.925257Z", "telemetry": {"lat": 28.753211, "lon": 77.1178373, "satellites": 8, "altitude_gps_m": 217.7899932861328, "groundspeed_mps": 0.014825385063886642}, "flight": {"mode": "STABILIZE", "armed": false}, "ekf": {"attitude": {"roll": 0.017831511795520782, "pitch": -0.005536068230867386, "yaw": 0.9134988188743591}, "local_position": {"x": null, "y": null, "z": null}, "status": {"flags": 135, "velocity_variance": 0.0, "pos_horiz_variance": 0.004376108758151531, "pos_vert_variance": 0.017875520512461662}}, "errors": ["ArduCopter V4.6.1 (57591cb8)", "ChibiOS: 88b84600", "fmuv3 00240032 33385119 36353030", "IOMCU: 420 1001 411FC231", "RCOut: PWM:1-14", "IMU0: fast sampling enabled 8.0kHz/1.0kHz", "Frame: QUAD/X"]}
{"timestamp": "2026-01-24T15:27:17.924954Z", "telemetry": {"lat": 28.7532109, "lon": 77.1178366, "satellites": 8, "altitude_gps_m": 217.70999145507812, "groundspeed_mps": 0.01267881691455841}, "flight": {"mode": "STABILIZE", "armed": false}, "ekf": {"attitude": {"roll": 0.017844585701823235, "pitch": -0.0055697523057460785, "yaw": 0.9134774208068848}, "local_position": {"x": null, "y": null, "z": null}, "status": {"flags": 135, "velocity_variance": 0.0, "pos_horiz_variance": 0.0041561368852853775, "pos_vert_variance": 0.004994910676032305}}, "errors": ["ArduCopter V4.6.1 (57591cb8)", "ChibiOS: 88b84600", "fmuv3 00240032 33385119 36353030", "IOMCU: 420 1001 411FC231", "RCOut: PWM:1-14", "IMU0: fast sampling enabled 8.0kHz/1.0kHz", "Frame: QUAD/X"]}
{"timestamp": "2026-01-24T15:27:18.925555Z", "telemetry": {"lat": 28.7532062, "lon": 77.1178411, "satellites": 8, "altitude_gps_m": 219.22000122070312, "groundspeed_mps": 0.012738664634525776}, "flight": {"mode": "STABILIZE", "armed": false}, "ekf": {"attitude": {"roll": 0.017967991530895233, "pitch": -0.005516834557056427, "yaw": 0.9133959412574768}, "local_position": {"x": null, "y": null, "z": null}, "status": {"flags": 135, "velocity_variance": 0.0, "pos_horiz_variance": 0.003851776011288166, "pos_vert_variance": 0.019526051357388496}}, "errors": ["ArduCopter V4.6.1 (57591cb8)", "ChibiOS: 88b84600", "fmuv3 00240032 33385119 36353030", "IOMCU: 420 1001 411FC231", "RCOut: PWM:1-14", "IMU0: fast sampling enabled 8.0kHz/1.0kHz", "Frame: QUAD/X"]}
{"timestamp": "2026-01-24T15:27:19.888372Z", "telemetry": {"lat": 28.7532031, "lon": 77.1178393, "satellites": 8, "altitude_gps_m": 218.84999084472656, "groundspeed_mps": 0.013523931615054607}, "flight": {"mode": "STABILIZE", "armed": false}, "ekf": {"attitude": {"roll": 0.01794511079788208, "pitch": -0.005434215068817139, "yaw": 0.9134793281555176}, "local_position": {"x": null, "y": null, "z": null}, "status": {"flags": 135, "velocity_variance": 0.0, "pos_horiz_variance": 0.0038746767677366734, "pos_vert_variance": 0.00391062255948782}}, "errors": ["ArduCopter V4.6.1 (57591cb8)", "ChibiOS: 88b84600", "fmuv3 00240032 33385119 36353030", "IOMCU: 420 1001 411FC231", "RCOut: PWM:1-14", "IMU0: fast sampling enabled 8.0kHz/1.0kHz", "Frame: QUAD/X", "PreArm: Hardware safety switch"]}
{"timestamp": "2026-01-24T15:27:20.889029Z", "telemetry": {"lat": 28.7531998, "lon": 77.1178379, "satellites": 8, "altitude_gps_m": 218.52999877929688, "groundspeed_mps": 0.010757124051451683}, "flight": {"mode": "STABILIZE", "armed": false}, "ekf": {"attitude": {"roll": 0.017963910475373268, "pitch": -0.005409888923168182, "yaw": 0.9134178161621094}, "local_position": {"x": null, "y": null, "z": null}, "status": {"flags": 135, "velocity_variance": 0.0, "pos_horiz_variance": 0.0037725595757365227, "pos_vert_variance": 0.023061009123921394}}, "errors": ["ArduCopter V4.6.1 (57591cb8)", "ChibiOS: 88b84600", "fmuv3 00240032 33385119 36353030", "IOMCU: 420 1001 411FC231", "RCOut: PWM:1-14", "IMU0: fast sampling enabled 8.0kHz/1.0kHz", "Frame: QUAD/X", "PreArm: Hardware safety switch"]}
{"timestamp": "2026-01-24T15:27:21.927027Z", "telemetry": {"lat": 28.7531928, "lon": 77.117838, "satellites": 8, "altitude_gps_m": 219.11000061035156, "groundspeed_mps": 0.011802015826106071}, "flight": {"mode": "STABILIZE", "armed": false}, "ekf": {"attitude": {"roll": 0.017787322402000427, "pitch": -0.0054376982152462006, "yaw": 0.9133113622665405}, "local_position": {"x": null, "y": null, "z": null}, "status": {"flags": 135, "velocity_variance": 0.0, "pos_horiz_variance": 0.003589787520468235, "pos_vert_variance": 0.033939559012651443}}, "errors": ["ArduCopter V4.6.1 (57591cb8)", "ChibiOS: 88b84600", "fmuv3 00240032 33385119 36353030", "IOMCU: 420 1001 411FC231", "RCOut: PWM:1-14", "IMU0: fast sampling enabled 8.0kHz/1.0kHz", "Frame: QUAD/X", "PreArm: Hardware safety switch"]}
{"timestamp": "2026-01-24T15:27:22.889593Z", "telemetry": {"lat": 28.7532098, "lon": 77.1178315, "satellites": 8, "altitude_gps_m": 218.02999877929688, "groundspeed_mps": 0.012143172323703766}, "flight": {"mode": "STABILIZE", "armed": false}, "ekf": {"attitude": {"roll": 0.01785225421190262, "pitch": -0.0054789818823337555, "yaw": 0.9132797718048096}, "local_position": {"x": null, "y": null, "z": null}, "status": {"flags": 135, "velocity_variance": 0.0, "pos_horiz_variance": 0.0036119541618973017, "pos_vert_variance": 0.01049797609448433}}, "errors": ["ArduCopter V4.6.1 (57591cb8)", "ChibiOS: 88b84600", "fmuv3 00240032 33385119 36353030", "IOMCU: 420 1001 411FC231", "RCOut: PWM:1-14", "IMU0: fast sampling enabled 8.0kHz/1.0kHz", "Frame: QUAD/X", "PreArm: Hardware safety switch"]}
{"timestamp": "2026-01-24T15:27:23.927978Z", "telemetry": {"lat": 28.7532224, "lon": 77.1178257, "satellites": 8, "altitude_gps_m": 217.1999969482422, "groundspeed_mps": 0.001903371186926961}, "flight": {"mode": "STABILIZE", "armed": false}, "ekf": {"attitude": {"roll": 0.013692262582480907, "pitch": -0.004993651062250137, "yaw": 0.9132125973701477}, "local_position": {"x": null, "y": null, "z": null}, "status": {"flags": 135, "velocity_variance": 0.0, "pos_horiz_variance": 0.0031058175954967737, "pos_vert_variance": 0.019033309072256088}}, "errors": ["ArduCopter V4.6.1 (57591cb8)", "ChibiOS: 88b84600", "fmuv3 00240032 33385119 36353030", "IOMCU: 420 1001 411FC231", "RCOut: PWM:1-14", "IMU0: fast sampling enabled 8.0kHz/1.0kHz", "Frame: QUAD/X", "PreArm: Hardware safety switch"]}
{"timestamp": "2026-01-24T15:27:24.928286Z", "telemetry": {"lat": 28.7532263, "lon": 77.1178281, "satellites": 8, "altitude_gps_m": 216.5, "groundspeed_mps": 0.015251966193318367}, "flight": {"mode": "STABILIZE", "armed": false}, "ekf": {"attitude": {"roll": 0.01764090731739998, "pitch": -0.004932224750518799, "yaw": 0.913191556930542}, "local_position": {"x": null, "y": null, "z": null}, "status": {"flags": 135, "velocity_variance": 0.0, "pos_horiz_variance": 0.0036524084862321615, "pos_vert_variance": 0.07239589095115662}}, "errors": ["ArduCopter V4.6.1 (57591cb8)", "ChibiOS: 88b84600", "fmuv3 00240032 33385119 36353030", "IOMCU: 420 1001 411FC231", "RCOut: PWM:1-14", "IMU0: fast sampling enabled 8.0kHz/1.0kHz", "Frame: QUAD/X", "PreArm: Hardware safety switch"]}
{"timestamp": "2026-01-24T15:27:25.929012Z", "telemetry": {"lat": 28.7532354, "lon": 77.1178291, "satellites": 8, "altitude_gps_m": 215.1199951171875, "groundspeed_mps": 0.012421559542417526}, "flight": {"mode": "STABILIZE", "armed": false}, "ekf": {"attitude": {"roll": 0.017819423228502274, "pitch": -0.005663849413394928, "yaw": 0.9132326245307922}, "local_position": {"x": null, "y": null, "z": null}, "status": {"flags": 135, "velocity_variance": 0.0, "pos_horiz_variance": 0.0034005451016128063, "pos_vert_variance": 0.030296549201011658}}, "errors": ["ArduCopter V4.6.1 (57591cb8)", "ChibiOS: 88b84600", "fmuv3 00240032 33385119 36353030", "IOMCU: 420 1001 411FC231", "RCOut: PWM:1-14", "IMU0: fast sampling enabled 8.0kHz/1.0kHz", "Frame: QUAD/X", "PreArm: Hardware safety switch"]}
{"timestamp": "2026-01-24T15:27:26.929462Z", "telemetry": {"lat": 28.7532472, "lon": 77.1178213, "satellites": 8, "altitude_gps_m": 213.87998962402344, "groundspeed_mps": 0.013691684231162071}, "flight": {"mode": "STABILIZE", "armed": false}, "ekf": {"attitude": {"roll": 0.01760275848209858, "pitch": -0.005526576191186905, "yaw": 0.9133137464523315}, "local_position": {"x": null, "y": null, "z": null}, "status": {"flags": 135, "velocity_variance": 0.0, "pos_horiz_variance": 0.0033731507137417793, "pos_vert_variance": 0.04769148677587509}}, "errors": ["ArduCopter V4.6.1 (57591cb8)", "ChibiOS: 88b84600", "fmuv3 00240032 33385119 36353030", "IOMCU: 420 1001 411FC231", "RCOut: PWM:1-14", "IMU0: fast sampling enabled 8.0kHz/1.0kHz", "Frame: QUAD/X", "PreArm: Hardware safety switch"]}
{"timestamp": "2026-01-24T15:27:27.929884Z", "telemetry": {"lat": 28.7532483, "lon": 77.1178114, "satellites": 7, "altitude_gps_m": 214.25, "groundspeed_mps": 0.014336059801280499}, "flight": {"mode": "STABILIZE", "armed": false}, "ekf": {"attitude": {"roll": 0.017583446577191353, "pitch": -0.005584783852100372, "yaw": 0.9131951928138733}, "local_position": {"x": null, "y": null, "z": null}, "status": {"flags": 135, "velocity_variance": 0.0, "pos_horiz_variance": 0.0035902978852391243, "pos_vert_variance": 0.003973064944148064}}, "errors": ["ArduCopter V4.6.1 (57591cb8)", "ChibiOS: 88b84600", "fmuv3 00240032 33385119 36353030", "IOMCU: 420 1001 411FC231", "RCOut: PWM:1-14", "IMU0: fast sampling enabled 8.0kHz/1.0kHz", "Frame: QUAD/X", "PreArm: Hardware safety switch"]}
{"timestamp": "2026-01-24T15:27:28.930398Z", "telemetry": {"lat": 28.7532488, "lon": 77.117817, "satellites": 7, "altitude_gps_m": 213.86000061035156, "groundspeed_mps": 0.015709541738033295}, "flight": {"mode": "STABILIZE", "armed": false}, "ekf": {"attitude": {"roll": 0.017548201605677605, "pitch": -0.005487523972988129, "yaw": 0.9130941033363342}, "local_position": {"x": null, "y": null, "z": null}, "status": {"flags": 135, "velocity_variance": 0.0, "pos_horiz_variance": 0.003973603248596191, "pos_vert_variance": 0.015478260815143585}}, "errors": ["ArduCopter V4.6.1 (57591cb8)", "ChibiOS: 88b84600", "fmuv3 00240032 33385119 36353030", "IOMCU: 420 1001 411FC231", "RCOut: PWM:1-14", "IMU0: fast sampling enabled 8.0kHz/1.0kHz", "Frame: QUAD/X", "PreArm: Hardware safety switch"]}
{"timestamp": "2026-01-24T15:27:29.930863Z", "telemetry": {"lat": 28.7532557, "lon": 77.1178178, "satellites": 7, "altitude_gps_m": 213.63999938964844, "groundspeed_mps": 0.013685577549040318}, "flight": {"mode": "STABILIZE", "armed": false}, "ekf": {"attitude": {"roll": 0.017592934891581535, "pitch": -0.0053518302738666534, "yaw": 0.912956953048706}, "local_position": {"x": null, "y": null, "z": null}, "status": {"flags": 135, "velocity_variance": 0.0, "pos_horiz_variance": 0.003933771047741175, "pos_vert_variance": 0.01535707339644432}}, "errors": ["ArduCopter V4.6.1 (57591cb8)", "ChibiOS: 88b84600", "fmuv3 00240032 33385119 36353030", "IOMCU: 420 1001 411FC231", "RCOut: PWM:1-14", "IMU0: fast sampling enabled 8.0kHz/1.0kHz", "Frame: QUAD/X", "PreArm: Hardware safety switch"]}
{"timestamp": "2026-01-24T15:27:30.893727Z", "telemetry": {"lat": 28.7532595, "lon": 77.1178164, "satellites": 7, "altitude_gps_m": 214.34999084472656, "groundspeed_mps": 0.011033270508050919}, "flight": {"mode": "STABILIZE", "armed": false}, "ekf": {"attitude": {"roll": 0.017713267356157303, "pitch": -0.0052641890943050385, "yaw": 0.9130017161369324}, "local_position": {"x": null, "y": null, "z": null}, "status": {"flags": 135, "velocity_variance": 0.0, "pos_horiz_variance": 0.0037980973720550537, "pos_vert_variance": 0.04030727595090866}}, "errors": ["ArduCopter V4.6.1 (57591cb8)", "ChibiOS: 88b84600", "fmuv3 00240032 33385119 36353030", "IOMCU: 420 1001 411FC231", "RCOut: PWM:1-14", "IMU0: fast sampling enabled 8.0kHz/1.0kHz", "Frame: QUAD/X", "PreArm: Hardware safety switch"]}
{"timestamp": "2026-01-24T15:27:31.931697Z", "telemetry": {"lat": 28.7532545, "lon": 77.1178276, "satellites": 8, "altitude_gps_m": 214.7899932861328, "groundspeed_mps": 0.010711127892136574}, "flight": {"mode": "STABILIZE", "armed": false}, "ekf": {"attitude": {"roll": 0.017706649377942085, "pitch": -0.005026709288358688, "yaw": 0.913002073764801}, "local_position": {"x": null, "y": null, "z": null}, "status": {"flags": 135, "velocity_variance": 0.0, "pos_horiz_variance": 0.0033586013596504927, "pos_vert_variance": 0.003216621233150363}}, "errors": ["ArduCopter V4.6.1 (57591cb8)", "ChibiOS: 88b84600", "fmuv3 00240032 33385119 36353030", "IOMCU: 420 1001 411FC231", "RCOut: PWM:1-14", "IMU0: fast sampling enabled 8.0kHz/1.0kHz", "Frame: QUAD/X", "PreArm: Hardware safety switch"]}
{"timestamp": "2026-01-24T15:27:32.895020Z", "telemetry": {"lat": 28.753255, "lon": 77.1178257, "satellites": 8, "altitude_gps_m": 214.64999389648438, "groundspeed_mps": 0.007094944827258587}, "flight": {"mode": "STABILIZE", "armed": false}, "ekf": {"attitude": {"roll": 0.017830248922109604, "pitch": -0.005066346377134323, "yaw": 0.9129869937896729}, "local_position": {"x": null, "y": null, "z": null}, "status": {"flags": 135, "velocity_variance": 0.0, "pos_horiz_variance": 0.0031080711632966995, "pos_vert_variance": 0.0030083139427006245}}, "errors": ["ArduCopter V4.6.1 (57591cb8)", "ChibiOS: 88b84600", "fmuv3 00240032 33385119 36353030", "IOMCU: 420 1001 411FC231", "RCOut: PWM:1-14", "IMU0: fast sampling enabled 8.0kHz/1.0kHz", "Frame: QUAD/X", "PreArm: Hardware safety switch"]}
{"timestamp": "2026-01-24T15:27:33.895192Z", "telemetry": {"lat": 28.753255, "lon": 77.1178257, "satellites": 8, "altitude_gps_m": 214.64999389648438, "groundspeed_mps": 0.007094944827258587}, "flight": {"mode": "STABILIZE", "armed": false}, "ekf": {"attitude": {"roll": 0.017830248922109604, "pitch": -0.005066346377134323, "yaw": 0.9129869937896729}, "local_position": {"x": null, "y": null, "z": null}, "status": {"flags": 135, "velocity_variance": 0.0, "pos_horiz_variance": 0.0031080711632966995, "pos_vert_variance": 0.0030083139427006245}}, "errors": ["ArduCopter V4.6.1 (57591cb8)", "ChibiOS: 88b84600", "fmuv3 00240032 33385119 36353030", "IOMCU: 420 1001 411FC231", "RCOut: PWM:1-14", "IMU0: fast sampling enabled 8.0kHz/1.0kHz", "Frame: QUAD/X", "PreArm: Hardware safety switch"]}
