{"timestamp": "2026-01-30T12:58:35.818099Z", "telemetry": {"lat": 0.0, "lon": 0.0, "satellites": 0, "altitude_gps_m": -0.5899999737739563, "groundspeed_mps": 0.004438282921910286}, "flight": {"mode": "STABILIZE", "armed": false}, "ekf": {"attitude": {"roll": -0.028750529512763023, "pitch": -0.017577972263097763, "yaw": 0.9173476696014404}, "local_position": {"x": null, "y": null, "z": null}, "status": {"flags": 135, "velocity_variance": 0.0, "pos_horiz_variance": 0.00045843058614991605, "pos_vert_variance": 0.09672704339027405}}, "errors": ["GPS 1: probing for u-blox at 230400 baud", "GPS 1: detected u-blox"]}
{"timestamp": "2026-01-30T12:58:36.778783Z", "telemetry": {"lat": 0.0, "lon": 0.0, "satellites": 0, "altitude_gps_m": -0.5899999737739563, "groundspeed_mps": 0.002080649370327592}, "flight": {"mode": "STABILIZE", "armed": false}, "ekf": {"attitude": {"roll": -0.02873240038752556, "pitch": -0.017460526898503304, "yaw": 0.9173812866210938}, "local_position": {"x": null, "y": null, "z": null}, "status": {"flags": 135, "velocity_variance": 0.0, "pos_horiz_variance": 0.0003174089652020484, "pos_vert_variance": 0.024673795327544212}}, "errors": ["GPS 1: probing for u-blox at 230400 baud", "GPS 1: detected u-blox"]}
{"timestamp": "2026-01-30T12:58:37.777717Z", "telemetry": {"lat": 0.0, "lon": 0.0, "satellites": 0, "altitude_gps_m": -0.5899999737739563, "groundspeed_mps": 0.004093821160495281}, "flight": {"mode": "STABILIZE", "armed": false}, "ekf": {"attitude": {"roll": -0.02865716814994812, "pitch": -0.017654314637184143, "yaw": 0.9180639386177063}, "local_position": {"x": null, "y": null, "z": null}, "status": {"flags": 135, "velocity_variance": 0.0, "pos_horiz_variance": 0.00042373104952275753, "pos_vert_variance": 0.07724703848361969}}, "errors": ["GPS 1: probing for u-blox at 230400 baud", "GPS 1: detected u-blox"]}
{"timestamp": "2026-01-30T12:58:38.777877Z", "telemetry": {"lat": 0.0, "lon": 0.0, "satellites": 0, "altitude_gps_m": -0.5899999737739563, "groundspeed_mps": 0.00560251297429204}, "flight": {"mode": "STABILIZE", "armed": false}, "ekf": {"attitude": {"roll": -0.028839213773608208, "pitch": -0.01759439706802368, "yaw": 0.9161683320999146}, "local_position": {"x": null, "y": null, "z": null}, "status": {"flags": 135, "velocity_variance": 0.0, "pos_horiz_variance": 0.0005450729513540864, "pos_vert_variance": 0.037144675850868225}}, "errors": ["GPS 1: probing for u-blox at 230400 baud", "GPS 1: detected u-blox", "ArduCopter V4.6.1 (57591cb8)", "ChibiOS: 88b84600", "fmuv3 00240032 33385119 36353030", "IOMCU: 420 1001 411FC231", "RCOut: PWM:1-14", "IMU0: fast sampling enabled 8.0kHz/1.0kHz", "Frame: QUAD/X"]}
{"timestamp": "2026-01-30T12:58:39.778702Z", "telemetry": {"lat": 0.0, "lon": 0.0, "satellites": 0, "altitude_gps_m": -0.5899999737739563, "groundspeed_mps": 0.007577773183584213}, "flight": {"mode": "STABILIZE", "armed": false}, "ekf": {"attitude": {"roll": -0.028909556567668915, "pitch": -0.017714131623506546, "yaw": 0.9153555631637573}, "local_position": {"x": null, "y": null, "z": null}, "status": {"flags": 135, "velocity_variance": 0.0, "pos_horiz_variance": 0.0008315749000757933, "pos_vert_variance": 0.001875405665487051}}, "errors": ["GPS 1: probing for u-blox at 230400 baud", "GPS 1: detected u-blox", "ArduCopter V4.6.1 (57591cb8)", "ChibiOS: 88b84600", "fmuv3 00240032 33385119 36353030", "IOMCU: 420 1001 411FC231", "RCOut: PWM:1-14", "IMU0: fast sampling enabled 8.0kHz/1.0kHz", "Frame: QUAD/X", "GPS 1: u-blox saving config"]}
{"timestamp": "2026-01-30T12:58:40.777817Z", "telemetry": {"lat": 0.0, "lon": 0.0, "satellites": 0, "altitude_gps_m": -0.5899999737739563, "groundspeed_mps": 0.008484221063554287}, "flight": {"mode": "STABILIZE", "armed": false}, "ekf": {"attitude": {"roll": -0.029056262224912643, "pitch": -0.018237104639410973, "yaw": 0.9149341583251953}, "local_position": {"x": null, "y": null, "z": null}, "status": {"flags": 135, "velocity_variance": 0.0, "pos_horiz_variance": 0.001043822499923408, "pos_vert_variance": 0.030196165665984154}}, "errors": ["GPS 1: probing for u-blox at 230400 baud", "GPS 1: detected u-blox", "ArduCopter V4.6.1 (57591cb8)", "ChibiOS: 88b84600", "fmuv3 00240032 33385119 36353030", "IOMCU: 420 1001 411FC231", "RCOut: PWM:1-14", "IMU0: fast sampling enabled 8.0kHz/1.0kHz", "Frame: QUAD/X", "GPS 1: u-blox saving config"]}
{"timestamp": "2026-01-30T12:58:41.777922Z", "telemetry": {"lat": 0.0, "lon": 0.0, "satellites": 0, "altitude_gps_m": -0.5899999737739563, "groundspeed_mps": 0.012904955074191093}, "flight": {"mode": "STABILIZE", "armed": false}, "ekf": {"attitude": {"roll": -0.028960948809981346, "pitch": -0.018547313287854195, "yaw": 0.9154641032218933}, "local_position": {"x": null, "y": null, "z": null}, "status": {"flags": 135, "velocity_variance": 0.0, "pos_horiz_variance": 0.0013984452234581113, "pos_vert_variance": 0.018113430589437485}}, "errors": ["GPS 1: probing for u-blox at 230400 baud", "GPS 1: detected u-blox", "ArduCopter V4.6.1 (57591cb8)", "ChibiOS: 88b84600", "fmuv3 00240032 33385119 36353030", "IOMCU: 420 1001 411FC231", "RCOut: PWM:1-14", "IMU0: fast sampling enabled 8.0kHz/1.0kHz", "Frame: QUAD/X", "GPS 1: u-blox saving config"]}
{"timestamp": "2026-01-30T12:58:42.777953Z", "telemetry": {"lat": 0.0, "lon": 0.0, "satellites": 0, "altitude_gps_m": -0.5899999737739563, "groundspeed_mps": 0.021820614114403725}, "flight": {"mode": "STABILIZE", "armed": false}, "ekf": {"attitude": {"roll": -0.028864406049251556, "pitch": -0.01900167018175125, "yaw": 0.9152459502220154}, "local_position": {"x": null, "y": null, "z": null}, "status": {"flags": 135, "velocity_variance": 0.0, "pos_horiz_variance": 0.0026501682586967945, "pos_vert_variance": 0.002122150734066963}}, "errors": ["GPS 1: probing for u-blox at 230400 baud", "GPS 1: detected u-blox", "ArduCopter V4.6.1 (57591cb8)", "ChibiOS: 88b84600", "fmuv3 00240032 33385119 36353030", "IOMCU: 420 1001 411FC231", "RCOut: PWM:1-14", "IMU0: fast sampling enabled 8.0kHz/1.0kHz", "Frame: QUAD/X", "GPS 1: u-blox saving config"]}
{"timestamp": "2026-01-30T12:58:43.777964Z", "telemetry": {"lat": 0.0, "lon": 0.0, "satellites": 0, "altitude_gps_m": -0.5899999737739563, "groundspeed_mps": 0.021820614114403725}, "flight": {"mode": "STABILIZE", "armed": false}, "ekf": {"attitude": {"roll": -0.028864406049251556, "pitch": -0.01900167018175125, "yaw": 0.9152459502220154}, "local_position": {"x": null, "y": null, "z": null}, "status": {"flags": 135, "velocity_variance": 0.0, "pos_horiz_variance": 0.0026501682586967945, "pos_vert_variance": 0.002122150734066963}}, "errors": ["GPS 1: probing for u-blox at 230400 baud", "GPS 1: detected u-blox", "ArduCopter V4.6.1 (57591cb8)", "ChibiOS: 88b84600", "fmuv3 00240032 33385119 36353030", "IOMCU: 420 1001 411FC231", "RCOut: PWM:1-14", "IMU0: fast sampling enabled 8.0kHz/1.0kHz", "Frame: QUAD/X", "GPS 1: u-blox saving config", "u-blox 1 HW: 00070000 SW: 1.00 (59842)"]}
{"timestamp": "2026-01-30T12:58:44.777810Z", "telemetry": {"lat": 0.0, "lon": 0.0, "satellites": 0, "altitude_gps_m": -0.5899999737739563, "groundspeed_mps": 0.0415755994617939}, "flight": {"mode": "STABILIZE", "armed": false}, "ekf": {"attitude": {"roll": -0.028551284223794937, "pitch": -0.01977354660630226, "yaw": 0.9151194095611572}, "local_position": {"x": null, "y": null, "z": null}, "status": {"flags": 135, "velocity_variance": 0.0, "pos_horiz_variance": 0.0066156876273453236, "pos_vert_variance": 0.10155428946018219}}, "errors": ["GPS 1: probing for u-blox at 230400 baud", "GPS 1: detected u-blox", "ArduCopter V4.6.1 (57591cb8)", "ChibiOS: 88b84600", "fmuv3 00240032 33385119 36353030", "IOMCU: 420 1001 411FC231", "RCOut: PWM:1-14", "IMU0: fast sampling enabled 8.0kHz/1.0kHz", "Frame: QUAD/X", "GPS 1: u-blox saving config", "u-blox 1 HW: 00070000 SW: 1.00 (59842)"]}
{"timestamp": "2026-01-30T12:58:45.777713Z", "telemetry": {"lat": 0.0, "lon": 0.0, "satellites": 0, "altitude_gps_m": -0.5899999737739563, "groundspeed_mps": 0.04681837186217308}, "flight": {"mode": "STABILIZE", "armed": false}, "ekf": {"attitude": {"roll": -0.028600066900253296, "pitch": -0.019977319985628128, "yaw": 0.9147693514823914}, "local_position": {"x": null, "y": null, "z": null}, "status": {"flags": 135, "velocity_variance": 0.0, "pos_horiz_variance": 0.00806328747421503, "pos_vert_variance": 0.014324630610644817}}, "errors": ["GPS 1: probing for u-blox at 230400 baud", "GPS 1: detected u-blox", "ArduCopter V4.6.1 (57591cb8)", "ChibiOS: 88b84600", "fmuv3 00240032 33385119 36353030", "IOMCU: 420 1001 411FC231", "RCOut: PWM:1-14", "IMU0: fast sampling enabled 8.0kHz/1.0kHz", "Frame: QUAD/X", "GPS 1: u-blox saving config", "u-blox 1 HW: 00070000 SW: 1.00 (59842)"]}
{"timestamp": "2026-01-30T12:58:46.777854Z", "telemetry": {"lat": 0.0, "lon": 0.0, "satellites": 0, "altitude_gps_m": -0.5899999737739563, "groundspeed_mps": 0.05277596414089203}, "flight": {"mode": "STABILIZE", "armed": false}, "ekf": {"attitude": {"roll": -0.02870059944689274, "pitch": -0.0203615240752697, "yaw": 0.9149190187454224}, "local_position": {"x": null, "y": null, "z": null}, "status": {"flags": 135, "velocity_variance": 0.0, "pos_horiz_variance": 0.009582498110830784, "pos_vert_variance": 0.0008767324034124613}}, "errors": ["GPS 1: probing for u-blox at 230400 baud", "GPS 1: detected u-blox", "ArduCopter V4.6.1 (57591cb8)", "ChibiOS: 88b84600", "fmuv3 00240032 33385119 36353030", "IOMCU: 420 1001 411FC231", "RCOut: PWM:1-14", "IMU0: fast sampling enabled 8.0kHz/1.0kHz", "Frame: QUAD/X", "GPS 1: u-blox saving config", "u-blox 1 HW: 00070000 SW: 1.00 (59842)"]}
{"timestamp": "2026-01-30T12:58:47.777739Z", "telemetry": {"lat": 0.0, "lon": 0.0, "satellites": 0, "altitude_gps_m": -0.5899999737739563, "groundspeed_mps": 0.06189333274960518}, "flight": {"mode": "STABILIZE", "armed": false}, "ekf": {"attitude": {"roll": -0.028700027614831924, "pitch": -0.020754374563694, "yaw": 0.9153099656105042}, "local_position": {"x": null, "y": null, "z": null}, "status": {"flags": 135, "velocity_variance": 0.0, "pos_horiz_variance": 0.011534476652741432, "pos_vert_variance": 0.03324682265520096}}, "errors": ["GPS 1: probing for u-blox at 230400 baud", "GPS 1: detected u-blox", "ArduCopter V4.6.1 (57591cb8)", "ChibiOS: 88b84600", "fmuv3 00240032 33385119 36353030", "IOMCU: 420 1001 411FC231", "RCOut: PWM:1-14", "IMU0: fast sampling enabled 8.0kHz/1.0kHz", "Frame: QUAD/X", "GPS 1: u-blox saving config", "u-blox 1 HW: 00070000 SW: 1.00 (59842)"]}
{"timestamp": "2026-01-30T12:58:48.777746Z", "telemetry": {"lat": 0.0, "lon": 0.0, "satellites": 0, "altitude_gps_m": -0.5899999737739563, "groundspeed_mps": 0.06822244077920914}, "flight": {"mode": "STABILIZE", "armed": false}, "ekf": {"attitude": {"roll": -0.0287624541670084, "pitch": -0.02088780701160431, "yaw": 0.9148019552230835}, "local_position": {"x": null, "y": null, "z": null}, "status": {"flags": 135, "velocity_variance": 0.0, "pos_horiz_variance": 0.013387315906584263, "pos_vert_variance": 0.10218802839517593}}, "errors": ["GPS 1: probing for u-blox at 230400 baud", "GPS 1: detected u-blox", "ArduCopter V4.6.1 (57591cb8)", "ChibiOS: 88b84600", "fmuv3 00240032 33385119 36353030", "IOMCU: 420 1001 411FC231", "RCOut: PWM:1-14", "IMU0: fast sampling enabled 8.0kHz/1.0kHz", "Frame: QUAD/X", "GPS 1: u-blox saving config", "u-blox 1 HW: 00070000 SW: 1.00 (59842)"]}
{"timestamp": "2026-01-30T12:58:49.777669Z", "telemetry": {"lat": 0.0, "lon": 0.0, "satellites": 0, "altitude_gps_m": -0.5899999737739563, "groundspeed_mps": 0.02714391238987446}, "flight": {"mode": "STABILIZE", "armed": false}, "ekf": {"attitude": {"roll": -0.03629305958747864, "pitch": -0.020238732919096947, "yaw": 0.9725090861320496}, "local_position": {"x": null, "y": null, "z": null}, "status": {"flags": 135, "velocity_variance": 0.0, "pos_horiz_variance": 0.014376819133758545, "pos_vert_variance": 0.005413644481450319}}, "errors": ["GPS 1: probing for u-blox at 230400 baud", "GPS 1: detected u-blox", "ArduCopter V4.6.1 (57591cb8)", "ChibiOS: 88b84600", "fmuv3 00240032 33385119 36353030", "IOMCU: 420 1001 411FC231", "RCOut: PWM:1-14", "IMU0: fast sampling enabled 8.0kHz/1.0kHz", "Frame: QUAD/X", "GPS 1: u-blox saving config", "u-blox 1 HW: 00070000 SW: 1.00 (59842)"]}
{"timestamp": "2026-01-30T12:58:50.777750Z", "telemetry": {"lat": 0.0, "lon": 0.0, "satellites": 0, "altitude_gps_m": -0.5899999737739563, "groundspeed_mps": 0.0928298756480217}, "flight": {"mode": "STABILIZE", "armed": false}, "ekf": {"attitude": {"roll": 0.03996119648218155, "pitch": -0.016434377059340477, "yaw": 1.1102023124694824}, "local_position": {"x": null, "y": null, "z": null}, "status": {"flags": 135, "velocity_variance": 0.0, "pos_horiz_variance": 0.0030494704842567444, "pos_vert_variance": 0.022829124704003334}}, "errors": ["GPS 1: probing for u-blox at 230400 baud", "GPS 1: detected u-blox", "ArduCopter V4.6.1 (57591cb8)", "ChibiOS: 88b84600", "fmuv3 00240032 33385119 36353030", "IOMCU: 420 1001 411FC231", "RCOut: PWM:1-14", "IMU0: fast sampling enabled 8.0kHz/1.0kHz", "Frame: QUAD/X", "GPS 1: u-blox saving config", "u-blox 1 HW: 00070000 SW: 1.00 (59842)"]}
{"timestamp": "2026-01-30T12:58:51.777555Z", "telemetry": {"lat": 0.0, "lon": 0.0, "satellites": 0, "altitude_gps_m": -0.5899999737739563, "groundspeed_mps": 0.2027590423822403}, "flight": {"mode": "STABILIZE", "armed": false}, "ekf": {"attitude": {"roll": -0.015427776612341404, "pitch": 0.01057615876197815, "yaw": 2.4234352111816406}, "local_position": {"x": null, "y": null, "z": null}, "status": {"flags": 135, "velocity_variance": 0.0, "pos_horiz_variance": 0.004992308095097542, "pos_vert_variance": 0.05755890533328056}}, "errors": ["GPS 1: probing for u-blox at 230400 baud", "GPS 1: detected u-blox", "ArduCopter V4.6.1 (57591cb8)", "ChibiOS: 88b84600", "fmuv3 00240032 33385119 36353030", "IOMCU: 420 1001 411FC231", "RCOut: PWM:1-14", "IMU0: fast sampling enabled 8.0kHz/1.0kHz", "Frame: QUAD/X", "GPS 1: u-blox saving config", "u-blox 1 HW: 00070000 SW: 1.00 (59842)"]}
{"timestamp": "2026-01-30T12:58:52.777699Z", "telemetry": {"lat": 0.0, "lon": 0.0, "satellites": 0, "altitude_gps_m": -0.5899999737739563, "groundspeed_mps": 0.041762955486774445}, "flight": {"mode": "STABILIZE", "armed": false}, "ekf": {"attitude": {"roll": 0.11058127135038376, "pitch": -0.05608128756284714, "yaw": -2.4887330532073975}, "local_position": {"x": null, "y": null, "z": null}, "status": {"flags": 135, "velocity_variance": 0.0, "pos_horiz_variance": 0.013081992045044899, "pos_vert_variance": 0.10316414386034012}}, "errors": ["GPS 1: probing for u-blox at 230400 baud", "GPS 1: detected u-blox", "ArduCopter V4.6.1 (57591cb8)", "ChibiOS: 88b84600", "fmuv3 00240032 33385119 36353030", "IOMCU: 420 1001 411FC231", "RCOut: PWM:1-14", "IMU0: fast sampling enabled 8.0kHz/1.0kHz", "Frame: QUAD/X", "GPS 1: u-blox saving config", "u-blox 1 HW: 00070000 SW: 1.00 (59842)", "PreArm: RC not found", "PreArm: Hardware safety switch", "PreArm: Compasses inconsistent"]}
{"timestamp": "2026-01-30T12:58:53.777703Z", "telemetry": {"lat": 0.0, "lon": 0.0, "satellites": 0, "altitude_gps_m": -0.5899999737739563, "groundspeed_mps": 0.18047654628753662}, "flight": {"mode": "STABILIZE", "armed": false}, "ekf": {"attitude": {"roll": -0.024304894730448723, "pitch": -0.03725065663456917, "yaw": -2.2339584827423096}, "local_position": {"x": null, "y": null, "z": null}, "status": {"flags": 135, "velocity_variance": 0.0, "pos_horiz_variance": 0.014067033305764198, "pos_vert_variance": 0.03788716718554497}}, "errors": ["GPS 1: probing for u-blox at 230400 baud", "GPS 1: detected u-blox", "ArduCopter V4.6.1 (57591cb8)", "ChibiOS: 88b84600", "fmuv3 00240032 33385119 36353030", "IOMCU: 420 1001 411FC231", "RCOut: PWM:1-14", "IMU0: fast sampling enabled 8.0kHz/1.0kHz", "Frame: QUAD/X", "GPS 1: u-blox saving config", "u-blox 1 HW: 00070000 SW: 1.00 (59842)", "PreArm: RC not found", "PreArm: Hardware safety switch", "PreArm: Compasses inconsistent"]}
{"timestamp": "2026-01-30T12:58:54.777528Z", "telemetry": {"lat": 0.0, "lon": 0.0, "satellites": 0, "altitude_gps_m": -0.5899999737739563, "groundspeed_mps": 0.3272339105606079}, "flight": {"mode": "STABILIZE", "armed": false}, "ekf": {"attitude": {"roll": -0.02525448612868786, "pitch": -0.03797896206378937, "yaw": -2.27870774269104}, "local_position": {"x": null, "y": null, "z": null}, "status": {"flags": 135, "velocity_variance": 0.0, "pos_horiz_variance": 0.03458373248577118, "pos_vert_variance": 0.019425854086875916}}, "errors": ["GPS 1: probing for u-blox at 230400 baud", "GPS 1: detected u-blox", "ArduCopter V4.6.1 (57591cb8)", "ChibiOS: 88b84600", "fmuv3 00240032 33385119 36353030", "IOMCU: 420 1001 411FC231", "RCOut: PWM:1-14", "IMU0: fast sampling enabled 8.0kHz/1.0kHz", "Frame: QUAD/X", "GPS 1: u-blox saving config", "u-blox 1 HW: 00070000 SW: 1.00 (59842)", "PreArm: RC not found", "PreArm: Hardware safety switch", "PreArm: Compasses inconsistent"]}
{"timestamp": "2026-01-30T12:58:55.777495Z", "telemetry": {"lat": 0.0, "lon": 0.0, "satellites": 0, "altitude_gps_m": -0.5899999737739563, "groundspeed_mps": 0.3836055099964142}, "flight": {"mode": "STABILIZE", "armed": false}, "ekf": {"attitude": {"roll": -0.025218326598405838, "pitch": -0.037434495985507965, "yaw": -2.321894884109497}, "local_position": {"x": null, "y": null, "z": null}, "status": {"flags": 135, "velocity_variance": 0.0, "pos_horiz_variance": 0.07140103727579117, "pos_vert_variance": 0.04425573721528053}}, "errors": ["GPS 1: probing for u-blox at 230400 baud", "GPS 1: detected u-blox", "ArduCopter V4.6.1 (57591cb8)", "ChibiOS: 88b84600", "fmuv3 00240032 33385119 36353030", "IOMCU: 420 1001 411FC231", "RCOut: PWM:1-14", "IMU0: fast sampling enabled 8.0kHz/1.0kHz", "Frame: QUAD/X", "GPS 1: u-blox saving config", "u-blox 1 HW: 00070000 SW: 1.00 (59842)", "PreArm: RC not found", "PreArm: Hardware safety switch", "PreArm: Compasses inconsistent"]}
{"timestamp": "2026-01-30T12:58:56.777664Z", "telemetry": {"lat": 0.0, "lon": 0.0, "satellites": 0, "altitude_gps_m": -0.5899999737739563, "groundspeed_mps": 0.38539671897888184}, "flight": {"mode": "STABILIZE", "armed": false}, "ekf": {"attitude": {"roll": -0.025473380461335182, "pitch": -0.03630632907152176, "yaw": -2.358717679977417}, "local_position": {"x": null, "y": null, "z": null}, "status": {"flags": 135, "velocity_variance": 0.0, "pos_horiz_variance": 0.08251048624515533, "pos_vert_variance": 0.008110607974231243}}, "errors": ["GPS 1: probing for u-blox at 230400 baud", "GPS 1: detected u-blox", "ArduCopter V4.6.1 (57591cb8)", "ChibiOS: 88b84600", "fmuv3 00240032 33385119 36353030", "IOMCU: 420 1001 411FC231", "RCOut: PWM:1-14", "IMU0: fast sampling enabled 8.0kHz/1.0kHz", "Frame: QUAD/X", "GPS 1: u-blox saving config", "u-blox 1 HW: 00070000 SW: 1.00 (59842)", "PreArm: RC not found", "PreArm: Hardware safety switch", "PreArm: Compasses inconsistent"]}
{"timestamp": "2026-01-30T12:58:57.777567Z", "telemetry": {"lat": 0.0, "lon": 0.0, "satellites": 0, "altitude_gps_m": -0.5899999737739563, "groundspeed_mps": 0.35155805945396423}, "flight": {"mode": "STABILIZE", "armed": false}, "ekf": {"attitude": {"roll": -0.025974607095122337, "pitch": -0.03480810672044754, "yaw": -2.390504837036133}, "local_position": {"x": null, "y": null, "z": null}, "status": {"flags": 135, "velocity_variance": 0.0, "pos_horiz_variance": 0.08757193386554718, "pos_vert_variance": 0.03191778436303139}}, "errors": ["GPS 1: probing for u-blox at 230400 baud", "GPS 1: detected u-blox", "ArduCopter V4.6.1 (57591cb8)", "ChibiOS: 88b84600", "fmuv3 00240032 33385119 36353030", "IOMCU: 420 1001 411FC231", "RCOut: PWM:1-14", "IMU0: fast sampling enabled 8.0kHz/1.0kHz", "Frame: QUAD/X", "GPS 1: u-blox saving config", "u-blox 1 HW: 00070000 SW: 1.00 (59842)", "PreArm: RC not found", "PreArm: Hardware safety switch", "PreArm: Compasses inconsistent"]}
