{"timestamp": "2026-01-24T21:05:00.193393Z", "telemetry": {"lat": 28.7532561, "lon": 77.1177095, "satellites": 5, "altitude_gps_m": 208.79998779296875, "groundspeed_mps": 0.012950176373124123}, "flight": {"mode": "STABILIZE", "armed": false}, "ekf": {"attitude": {"roll": 0.08449351787567139, "pitch": -0.07764656841754913, "yaw": -0.4264075756072998}, "local_position": {"x": null, "y": null, "z": null}, "status": {"flags": 135, "velocity_variance": 0.0, "pos_horiz_variance": 0.0036819472443312407, "pos_vert_variance": 0.0735708698630333}}, "errors": []}
{"timestamp": "2026-01-24T21:05:01.191846Z", "telemetry": {"lat": 28.753248, "lon": 77.1177139, "satellites": 5, "altitude_gps_m": 207.0699920654297, "groundspeed_mps": 0.0108446404337883}, "flight": {"mode": "STABILIZE", "armed": false}, "ekf": {"attitude": {"roll": 0.08451110124588013, "pitch": -0.07768979668617249, "yaw": -0.4263452887535095}, "local_position": {"x": null, "y": null, "z": null}, "status": {"flags": 135, "velocity_variance": 0.0, "pos_horiz_variance": 0.003614651272073388, "pos_vert_variance": 0.020102255046367645}}, "errors": []}
{"timestamp": "2026-01-24T21:05:02.192271Z", "telemetry": {"lat": 28.7532439, "lon": 77.1177196, "satellites": 5, "altitude_gps_m": 205.9499969482422, "groundspeed_mps": 0.00939120166003704}, "flight": {"mode": "STABILIZE", "armed": false}, "ekf": {"attitude": {"roll": 0.0844995453953743, "pitch": -0.07773424685001373, "yaw": -0.4264158308506012}, "local_position": {"x": null, "y": null, "z": null}, "status": {"flags": 135, "velocity_variance": 0.0, "pos_horiz_variance": 0.003344460856169462, "pos_vert_variance": 0.022237345576286316}}, "errors": []}
{"timestamp": "2026-01-24T21:05:03.146537Z", "telemetry": {"lat": 28.7532363, "lon": 77.1177255, "satellites": 6, "altitude_gps_m": 206.34999084472656, "groundspeed_mps": 0.011243020184338093}, "flight": {"mode": "STABILIZE", "armed": false}, "ekf": {"attitude": {"roll": 0.08446858823299408, "pitch": -0.07784353196620941, "yaw": -0.4263550043106079}, "local_position": {"x": null, "y": null, "z": null}, "status": {"flags": 135, "velocity_variance": 0.0, "pos_horiz_variance": 0.0030636426527053118, "pos_vert_variance": 0.048821598291397095}}, "errors": []}
{"timestamp": "2026-01-24T21:05:04.157618Z", "telemetry": {"lat": 28.7532283, "lon": 77.1177352, "satellites": 5, "altitude_gps_m": 204.89999389648438, "groundspeed_mps": 0.019256073981523514}, "flight": {"mode": "STABILIZE", "armed": false}, "ekf": {"attitude": {"roll": 0.084512859582901, "pitch": -0.07780367136001587, "yaw": -0.4263322949409485}, "local_position": {"x": null, "y": null, "z": null}, "status": {"flags": 135, "velocity_variance": 0.0, "pos_horiz_variance": 0.004132564179599285, "pos_vert_variance": 0.07881183922290802}}, "errors": []}
{"timestamp": "2026-01-24T21:05:05.159696Z", "telemetry": {"lat": 28.7532287, "lon": 77.1177285, "satellites": 5, "altitude_gps_m": 204.4099884033203, "groundspeed_mps": 0.019534951075911522}, "flight": {"mode": "STABILIZE", "armed": false}, "ekf": {"attitude": {"roll": 0.08448857814073563, "pitch": -0.07769867032766342, "yaw": -0.42623355984687805}, "local_position": {"x": null, "y": null, "z": null}, "status": {"flags": 135, "velocity_variance": 0.0, "pos_horiz_variance": 0.004792883992195129, "pos_vert_variance": 0.009179388172924519}}, "errors": []}
{"timestamp": "2026-01-24T21:05:06.192391Z", "telemetry": {"lat": 28.7532294, "lon": 77.1177212, "satellites": 5, "altitude_gps_m": 202.94000244140625, "groundspeed_mps": 0.01927279680967331}, "flight": {"mode": "STABILIZE", "armed": false}, "ekf": {"attitude": {"roll": 0.08448909223079681, "pitch": -0.07774598896503448, "yaw": -0.4260367155075073}, "local_position": {"x": null, "y": null, "z": null}, "status": {"flags": 135, "velocity_variance": 0.0, "pos_horiz_variance": 0.00515628419816494, "pos_vert_variance": 0.005288148298859596}}, "errors": []}
{"timestamp": "2026-01-24T21:05:07.191683Z", "telemetry": {"lat": 28.7532267, "lon": 77.1177193, "satellites": 5, "altitude_gps_m": 201.45999145507812, "groundspeed_mps": 0.018368834629654884}, "flight": {"mode": "STABILIZE", "armed": false}, "ekf": {"attitude": {"roll": 0.08446919173002243, "pitch": -0.07765241712331772, "yaw": -0.4260812997817993}, "local_position": {"x": null, "y": null, "z": null}, "status": {"flags": 135, "velocity_variance": 0.0, "pos_horiz_variance": 0.005277897696942091, "pos_vert_variance": 0.052610620856285095}}, "errors": []}
{"timestamp": "2026-01-24T21:05:08.164534Z", "telemetry": {"lat": 28.7532335, "lon": 77.1177254, "satellites": 5, "altitude_gps_m": 196.63999938964844, "groundspeed_mps": 0.015905002132058144}, "flight": {"mode": "STABILIZE", "armed": false}, "ekf": {"attitude": {"roll": 0.0844242125749588, "pitch": -0.07748657464981079, "yaw": -0.42591407895088196}, "local_position": {"x": null, "y": null, "z": null}, "status": {"flags": 135, "velocity_variance": 0.0, "pos_horiz_variance": 0.004709743428975344, "pos_vert_variance": 0.07135266065597534}}, "errors": []}
{"timestamp": "2026-01-24T21:05:09.160464Z", "telemetry": {"lat": 28.7532334, "lon": 77.1177337, "satellites": 5, "altitude_gps_m": 194.0800018310547, "groundspeed_mps": 0.014670941047370434}, "flight": {"mode": "STABILIZE", "armed": false}, "ekf": {"attitude": {"roll": 0.08444057404994965, "pitch": -0.0774712860584259, "yaw": -0.4259762167930603}, "local_position": {"x": null, "y": null, "z": null}, "status": {"flags": 135, "velocity_variance": 0.0, "pos_horiz_variance": 0.004585968796163797, "pos_vert_variance": 0.03787466138601303}}, "errors": []}
{"timestamp": "2026-01-24T21:05:10.192111Z", "telemetry": {"lat": 28.7532234, "lon": 77.1177444, "satellites": 6, "altitude_gps_m": 193.27999877929688, "groundspeed_mps": 0.013207700103521347}, "flight": {"mode": "STABILIZE", "armed": false}, "ekf": {"attitude": {"roll": 0.08443860709667206, "pitch": -0.07750354707241058, "yaw": -0.42607787251472473}, "local_position": {"x": null, "y": null, "z": null}, "status": {"flags": 135, "velocity_variance": 0.0, "pos_horiz_variance": 0.004202051553875208, "pos_vert_variance": 0.07353196293115616}}, "errors": []}
{"timestamp": "2026-01-24T21:05:11.192006Z", "telemetry": {"lat": 28.7532237, "lon": 77.1177499, "satellites": 6, "altitude_gps_m": 192.8000030517578, "groundspeed_mps": 0.010238205082714558}, "flight": {"mode": "STABILIZE", "armed": false}, "ekf": {"attitude": {"roll": 0.08441959321498871, "pitch": -0.07741844654083252, "yaw": -0.4259633421897888}, "local_position": {"x": null, "y": null, "z": null}, "status": {"flags": 135, "velocity_variance": 0.0, "pos_horiz_variance": 0.0038413377478718758, "pos_vert_variance": 0.04022180661559105}}, "errors": []}
{"timestamp": "2026-01-24T21:05:12.191990Z", "telemetry": {"lat": 28.7532319, "lon": 77.1177542, "satellites": 6, "altitude_gps_m": 191.13999938964844, "groundspeed_mps": 0.008927064016461372}, "flight": {"mode": "STABILIZE", "armed": false}, "ekf": {"attitude": {"roll": 0.0843755304813385, "pitch": -0.07729475945234299, "yaw": -0.4258078634738922}, "local_position": {"x": null, "y": null, "z": null}, "status": {"flags": 135, "velocity_variance": 0.0, "pos_horiz_variance": 0.0032454824540764093, "pos_vert_variance": 0.02138940803706646}}, "errors": []}
{"timestamp": "2026-01-24T21:05:13.191884Z", "telemetry": {"lat": 28.753233, "lon": 77.1177487, "satellites": 6, "altitude_gps_m": 194.8199920654297, "groundspeed_mps": 0.008787022903561592}, "flight": {"mode": "STABILIZE", "armed": false}, "ekf": {"attitude": {"roll": 0.08428508788347244, "pitch": -0.07737331092357635, "yaw": -0.4256587624549866}, "local_position": {"x": null, "y": null, "z": null}, "status": {"flags": 135, "velocity_variance": 0.0, "pos_horiz_variance": 0.0027414667420089245, "pos_vert_variance": 0.06882431358098984}}, "errors": []}
{"timestamp": "2026-01-24T21:05:14.191397Z", "telemetry": {"lat": 28.7532224, "lon": 77.1177538, "satellites": 6, "altitude_gps_m": 199.1599884033203, "groundspeed_mps": 0.009287419728934765}, "flight": {"mode": "STABILIZE", "armed": false}, "ekf": {"attitude": {"roll": 0.08428195118904114, "pitch": -0.07751128077507019, "yaw": -0.42572686076164246}, "local_position": {"x": null, "y": null, "z": null}, "status": {"flags": 135, "velocity_variance": 0.0, "pos_horiz_variance": 0.002747054910287261, "pos_vert_variance": 0.009363513439893723}}, "errors": []}
{"timestamp": "2026-01-24T21:05:15.192131Z", "telemetry": {"lat": 28.7532153, "lon": 77.1177574, "satellites": 4, "altitude_gps_m": 203.44000244140625, "groundspeed_mps": 0.01351056806743145}, "flight": {"mode": "STABILIZE", "armed": false}, "ekf": {"attitude": {"roll": 0.08428830653429031, "pitch": -0.07746478170156479, "yaw": -0.42562028765678406}, "local_position": {"x": null, "y": null, "z": null}, "status": {"flags": 135, "velocity_variance": 0.0, "pos_horiz_variance": 0.003072038060054183, "pos_vert_variance": 0.002655444201081991}}, "errors": []}
{"timestamp": "2026-01-24T21:05:16.191541Z", "telemetry": {"lat": 28.7532156, "lon": 77.1177534, "satellites": 4, "altitude_gps_m": 204.8699951171875, "groundspeed_mps": 0.016063932329416275}, "flight": {"mode": "STABILIZE", "armed": false}, "ekf": {"attitude": {"roll": 0.08435344696044922, "pitch": -0.07754329591989517, "yaw": -0.4254469573497772}, "local_position": {"x": null, "y": null, "z": null}, "status": {"flags": 135, "velocity_variance": 0.0, "pos_horiz_variance": 0.003681800328195095, "pos_vert_variance": 0.012754318304359913}}, "errors": []}
{"timestamp": "2026-01-24T21:05:17.192444Z", "telemetry": {"lat": 28.7532081, "lon": 77.1177442, "satellites": 5, "altitude_gps_m": 208.22999572753906, "groundspeed_mps": 0.017822135239839554}, "flight": {"mode": "STABILIZE", "armed": false}, "ekf": {"attitude": {"roll": 0.08436016738414764, "pitch": -0.07761335372924805, "yaw": -0.42523428797721863}, "local_position": {"x": null, "y": null, "z": null}, "status": {"flags": 135, "velocity_variance": 0.0, "pos_horiz_variance": 0.004477525129914284, "pos_vert_variance": 0.02263227105140686}}, "errors": []}
{"timestamp": "2026-01-24T21:05:18.191386Z", "telemetry": {"lat": 28.7532023, "lon": 77.1177258, "satellites": 5, "altitude_gps_m": 212.5699920654297, "groundspeed_mps": 0.014824844896793365}, "flight": {"mode": "STABILIZE", "armed": false}, "ekf": {"attitude": {"roll": 0.08443140983581543, "pitch": -0.07754211127758026, "yaw": -0.4251241683959961}, "local_position": {"x": null, "y": null, "z": null}, "status": {"flags": 135, "velocity_variance": 0.0, "pos_horiz_variance": 0.0045636422000825405, "pos_vert_variance": 0.014339307323098183}}, "errors": []}
{"timestamp": "2026-01-24T21:05:19.160070Z", "telemetry": {"lat": 28.7532066, "lon": 77.1177155, "satellites": 5, "altitude_gps_m": 214.70999145507812, "groundspeed_mps": 0.017740964889526367}, "flight": {"mode": "STABILIZE", "armed": false}, "ekf": {"attitude": {"roll": 0.08447307348251343, "pitch": -0.07749871909618378, "yaw": -0.42499351501464844}, "local_position": {"x": null, "y": null, "z": null}, "status": {"flags": 135, "velocity_variance": 0.0, "pos_horiz_variance": 0.004460911266505718, "pos_vert_variance": 0.0061134048737585545}}, "errors": []}
{"timestamp": "2026-01-24T21:05:20.162504Z", "telemetry": {"lat": 28.7532063, "lon": 77.1176981, "satellites": 6, "altitude_gps_m": 217.67999267578125, "groundspeed_mps": 0.017458707094192505}, "flight": {"mode": "STABILIZE", "armed": false}, "ekf": {"attitude": {"roll": 0.08445258438587189, "pitch": -0.07761600613594055, "yaw": -0.4247138202190399}, "local_position": {"x": null, "y": null, "z": null}, "status": {"flags": 135, "velocity_variance": 0.0, "pos_horiz_variance": 0.0047674356028437614, "pos_vert_variance": 0.056601107120513916}}, "errors": []}
{"timestamp": "2026-01-24T21:05:21.191371Z", "telemetry": {"lat": 28.7531965, "lon": 77.1176847, "satellites": 6, "altitude_gps_m": 222.4099884033203, "groundspeed_mps": 0.015929218381643295}, "flight": {"mode": "STABILIZE", "armed": false}, "ekf": {"attitude": {"roll": 0.08451506495475769, "pitch": -0.07771328091621399, "yaw": -0.42461004853248596}, "local_position": {"x": null, "y": null, "z": null}, "status": {"flags": 135, "velocity_variance": 0.0, "pos_horiz_variance": 0.0046728732995688915, "pos_vert_variance": 0.03671006113290787}}, "errors": []}
{"timestamp": "2026-01-24T21:05:22.186734Z", "telemetry": {"lat": 28.7531838, "lon": 77.1176722, "satellites": 6, "altitude_gps_m": 226.22000122070312, "groundspeed_mps": 0.015318984165787697}, "flight": {"mode": "STABILIZE", "armed": false}, "ekf": {"attitude": {"roll": 0.08463025093078613, "pitch": -0.07784612476825714, "yaw": -0.42455336451530457}, "local_position": {"x": null, "y": null, "z": null}, "status": {"flags": 135, "velocity_variance": 0.0, "pos_horiz_variance": 0.0045803203247487545, "pos_vert_variance": 0.10752501338720322}}, "errors": []}
{"timestamp": "2026-01-24T21:05:23.191511Z", "telemetry": {"lat": 28.7531757, "lon": 77.1176557, "satellites": 6, "altitude_gps_m": 230.58999633789062, "groundspeed_mps": 0.01499390322715044}, "flight": {"mode": "STABILIZE", "armed": false}, "ekf": {"attitude": {"roll": 0.08460485935211182, "pitch": -0.07789895683526993, "yaw": -0.42433351278305054}, "local_position": {"x": null, "y": null, "z": null}, "status": {"flags": 135, "velocity_variance": 0.0, "pos_horiz_variance": 0.004478133749216795, "pos_vert_variance": 0.010356767103075981}}, "errors": []}
{"timestamp": "2026-01-24T21:05:24.191749Z", "telemetry": {"lat": 28.7531557, "lon": 77.117638, "satellites": 6, "altitude_gps_m": 234.11000061035156, "groundspeed_mps": 0.01619834080338478}, "flight": {"mode": "STABILIZE", "armed": false}, "ekf": {"attitude": {"roll": 0.08463011682033539, "pitch": -0.07798506319522858, "yaw": -0.424122154712677}, "local_position": {"x": null, "y": null, "z": null}, "status": {"flags": 135, "velocity_variance": 0.0, "pos_horiz_variance": 0.004416714888066053, "pos_vert_variance": 0.0061109052039682865}}, "errors": []}
{"timestamp": "2026-01-24T21:05:25.191435Z", "telemetry": {"lat": 28.7531464, "lon": 77.1176204, "satellites": 6, "altitude_gps_m": 237.84999084472656, "groundspeed_mps": 0.0194097850471735}, "flight": {"mode": "STABILIZE", "armed": false}, "ekf": {"attitude": {"roll": 0.08475995808839798, "pitch": -0.07789331674575806, "yaw": -0.42421287298202515}, "local_position": {"x": null, "y": null, "z": null}, "status": {"flags": 135, "velocity_variance": 0.0, "pos_horiz_variance": 0.004778111353516579, "pos_vert_variance": 0.04389717057347298}}, "errors": ["PreArm: Hardware safety switch"]}
{"timestamp": "2026-01-24T21:05:26.191895Z", "telemetry": {"lat": 28.753137, "lon": 77.1176019, "satellites": 6, "altitude_gps_m": 240.6199951171875, "groundspeed_mps": 0.024448132142424583}, "flight": {"mode": "STABILIZE", "armed": false}, "ekf": {"attitude": {"roll": 0.084832102060318, "pitch": -0.0780552327632904, "yaw": -0.42397910356521606}, "local_position": {"x": null, "y": null, "z": null}, "status": {"flags": 135, "velocity_variance": 0.0, "pos_horiz_variance": 0.0054732682183384895, "pos_vert_variance": 0.08077595382928848}}, "errors": ["PreArm: Hardware safety switch"]}
{"timestamp": "2026-01-24T21:05:27.159380Z", "telemetry": {"lat": 28.7531328, "lon": 77.1175898, "satellites": 6, "altitude_gps_m": 242.52999877929688, "groundspeed_mps": 0.02888069674372673}, "flight": {"mode": "STABILIZE", "armed": false}, "ekf": {"attitude": {"roll": 0.08483731746673584, "pitch": -0.07815319299697876, "yaw": -0.42404553294181824}, "local_position": {"x": null, "y": null, "z": null}, "status": {"flags": 135, "velocity_variance": 0.0, "pos_horiz_variance": 0.0065246704034507275, "pos_vert_variance": 0.03777448460459709}}, "errors": ["PreArm: Hardware safety switch"]}
{"timestamp": "2026-01-24T21:05:28.190983Z", "telemetry": {"lat": 28.7531319, "lon": 77.1175808, "satellites": 6, "altitude_gps_m": 242.8699951171875, "groundspeed_mps": 0.02797449380159378}, "flight": {"mode": "STABILIZE", "armed": false}, "ekf": {"attitude": {"roll": 0.08474233746528625, "pitch": -0.07828573882579803, "yaw": -0.42411842942237854}, "local_position": {"x": null, "y": null, "z": null}, "status": {"flags": 135, "velocity_variance": 0.0, "pos_horiz_variance": 0.007251315284520388, "pos_vert_variance": 0.008655920624732971}}, "errors": ["PreArm: Hardware safety switch"]}
{"timestamp": "2026-01-24T21:05:29.191051Z", "telemetry": {"lat": 28.7531316, "lon": 77.1175757, "satellites": 6, "altitude_gps_m": 241.13999938964844, "groundspeed_mps": 0.030008956789970398}, "flight": {"mode": "STABILIZE", "armed": false}, "ekf": {"attitude": {"roll": 0.08476145565509796, "pitch": -0.07833634316921234, "yaw": -0.42401641607284546}, "local_position": {"x": null, "y": null, "z": null}, "status": {"flags": 135, "velocity_variance": 0.0, "pos_horiz_variance": 0.007737994194030762, "pos_vert_variance": 0.00048333132872357965}}, "errors": ["PreArm: Hardware safety switch"]}
{"timestamp": "2026-01-24T21:05:30.189749Z", "telemetry": {"lat": 28.7531361, "lon": 77.1175643, "satellites": 6, "altitude_gps_m": 241.1899871826172, "groundspeed_mps": 0.028153758496046066}, "flight": {"mode": "STABILIZE", "armed": false}, "ekf": {"attitude": {"roll": 0.08478688448667526, "pitch": -0.07824191451072693, "yaw": -0.423910915851593}, "local_position": {"x": null, "y": null, "z": null}, "status": {"flags": 135, "velocity_variance": 0.0, "pos_horiz_variance": 0.008038264699280262, "pos_vert_variance": 8.313987564179115e-06}}, "errors": ["PreArm: Hardware safety switch"]}
{"timestamp": "2026-01-24T21:05:31.191003Z", "telemetry": {"lat": 28.7531354, "lon": 77.1175665, "satellites": 6, "altitude_gps_m": 240.01998901367188, "groundspeed_mps": 0.02778969705104828}, "flight": {"mode": "STABILIZE", "armed": false}, "ekf": {"attitude": {"roll": 0.08477182686328888, "pitch": -0.07821999490261078, "yaw": -0.4236353933811188}, "local_position": {"x": null, "y": null, "z": null}, "status": {"flags": 135, "velocity_variance": 0.0, "pos_horiz_variance": 0.008023173548281193, "pos_vert_variance": 0.06727483123540878}}, "errors": ["PreArm: Hardware safety switch"]}
{"timestamp": "2026-01-24T21:05:32.162575Z", "telemetry": {"lat": 28.753132, "lon": 77.1175527, "satellites": 6, "altitude_gps_m": 239.62998962402344, "groundspeed_mps": 0.02794676646590233}, "flight": {"mode": "STABILIZE", "armed": false}, "ekf": {"attitude": {"roll": 0.08469483256340027, "pitch": -0.07823919504880905, "yaw": -0.42345812916755676}, "local_position": {"x": null, "y": null, "z": null}, "status": {"flags": 135, "velocity_variance": 0.0, "pos_horiz_variance": 0.007773061748594046, "pos_vert_variance": 0.03592752665281296}}, "errors": ["PreArm: Hardware safety switch"]}
{"timestamp": "2026-01-24T21:05:33.162561Z", "telemetry": {"lat": 28.7531304, "lon": 77.117544, "satellites": 6, "altitude_gps_m": 238.63999938964844, "groundspeed_mps": 0.028503868728876114}, "flight": {"mode": "STABILIZE", "armed": false}, "ekf": {"attitude": {"roll": 0.0846283808350563, "pitch": -0.07823511958122253, "yaw": -0.42331308126449585}, "local_position": {"x": null, "y": null, "z": null}, "status": {"flags": 135, "velocity_variance": 0.0, "pos_horiz_variance": 0.007854102179408073, "pos_vert_variance": 0.0357745960354805}}, "errors": ["PreArm: Hardware safety switch"]}
{"timestamp": "2026-01-24T21:05:34.189394Z", "telemetry": {"lat": 28.7531269, "lon": 77.1175348, "satellites": 6, "altitude_gps_m": 239.1199951171875, "groundspeed_mps": 0.027626805007457733}, "flight": {"mode": "STABILIZE", "armed": false}, "ekf": {"attitude": {"roll": 0.08453509211540222, "pitch": -0.0783281922340393, "yaw": -0.4232771098613739}, "local_position": {"x": null, "y": null, "z": null}, "status": {"flags": 135, "velocity_variance": 0.0, "pos_horiz_variance": 0.007930177263915539, "pos_vert_variance": 0.06237763911485672}}, "errors": ["PreArm: Hardware safety switch"]}
{"timestamp": "2026-01-24T21:05:35.191074Z", "telemetry": {"lat": 28.7531246, "lon": 77.1175153, "satellites": 6, "altitude_gps_m": 240.04998779296875, "groundspeed_mps": 0.02772538922727108}, "flight": {"mode": "STABILIZE", "armed": false}, "ekf": {"attitude": {"roll": 0.08460880070924759, "pitch": -0.07837551087141037, "yaw": -0.42312198877334595}, "local_position": {"x": null, "y": null, "z": null}, "status": {"flags": 135, "velocity_variance": 0.0, "pos_horiz_variance": 0.007856669835746288, "pos_vert_variance": 0.019296525046229362}}, "errors": ["PreArm: Hardware safety switch"]}
{"timestamp": "2026-01-24T21:05:36.191627Z", "telemetry": {"lat": 28.7531257, "lon": 77.1175227, "satellites": 7, "altitude_gps_m": 237.13999938964844, "groundspeed_mps": 0.028285784646868706}, "flight": {"mode": "STABILIZE", "armed": false}, "ekf": {"attitude": {"roll": 0.08467700332403183, "pitch": -0.0783645510673523, "yaw": -0.4231106638908386}, "local_position": {"x": null, "y": null, "z": null}, "status": {"flags": 135, "velocity_variance": 0.0, "pos_horiz_variance": 0.007834851741790771, "pos_vert_variance": 0.023159371688961983}}, "errors": ["PreArm: Hardware safety switch"]}
{"timestamp": "2026-01-24T21:05:37.159156Z", "telemetry": {"lat": 28.7531283, "lon": 77.1175099, "satellites": 7, "altitude_gps_m": 238.39999389648438, "groundspeed_mps": 0.029333846643567085}, "flight": {"mode": "STABILIZE", "armed": false}, "ekf": {"attitude": {"roll": 0.08462273329496384, "pitch": -0.07827199995517731, "yaw": -0.4230346083641052}, "local_position": {"x": null, "y": null, "z": null}, "status": {"flags": 135, "velocity_variance": 0.0, "pos_horiz_variance": 0.008076567202806473, "pos_vert_variance": 0.12946970760822296}}, "errors": ["PreArm: Hardware safety switch"]}
{"timestamp": "2026-01-24T21:05:38.190708Z", "telemetry": {"lat": 28.7531341, "lon": 77.1175217, "satellites": 7, "altitude_gps_m": 237.3699951171875, "groundspeed_mps": 0.03076203167438507}, "flight": {"mode": "STABILIZE", "armed": false}, "ekf": {"attitude": {"roll": 0.08455941081047058, "pitch": -0.07832646369934082, "yaw": -0.4231002628803253}, "local_position": {"x": null, "y": null, "z": null}, "status": {"flags": 135, "velocity_variance": 0.0, "pos_horiz_variance": 0.008388984948396683, "pos_vert_variance": 0.02838912419974804}}, "errors": ["PreArm: Hardware safety switch"]}
{"timestamp": "2026-01-24T21:05:39.191930Z", "telemetry": {"lat": 28.7531396, "lon": 77.117542, "satellites": 7, "altitude_gps_m": 235.75, "groundspeed_mps": 0.03364666551351547}, "flight": {"mode": "STABILIZE", "armed": false}, "ekf": {"attitude": {"roll": 0.08461033552885056, "pitch": -0.07847990095615387, "yaw": -0.42294928431510925}, "local_position": {"x": null, "y": null, "z": null}, "status": {"flags": 135, "velocity_variance": 0.0, "pos_horiz_variance": 0.008879258297383785, "pos_vert_variance": 0.10804929584264755}}, "errors": ["PreArm: Hardware safety switch"]}
{"timestamp": "2026-01-24T21:05:40.188592Z", "telemetry": {"lat": 28.7531488, "lon": 77.1175907, "satellites": 8, "altitude_gps_m": 228.5399932861328, "groundspeed_mps": 0.03434726595878601}, "flight": {"mode": "STABILIZE", "armed": false}, "ekf": {"attitude": {"roll": 0.08460617810487747, "pitch": -0.07844705134630203, "yaw": -0.4228261709213257}, "local_position": {"x": null, "y": null, "z": null}, "status": {"flags": 135, "velocity_variance": 0.0, "pos_horiz_variance": 0.009109513834118843, "pos_vert_variance": 0.0007787672802805901}}, "errors": ["PreArm: Hardware safety switch"]}
{"timestamp": "2026-01-24T21:05:41.191370Z", "telemetry": {"lat": 28.7531808, "lon": 77.1176847, "satellites": 8, "altitude_gps_m": 214.3199920654297, "groundspeed_mps": 0.03388667106628418}, "flight": {"mode": "STABILIZE", "armed": false}, "ekf": {"attitude": {"roll": 0.08451487123966217, "pitch": -0.07854418456554413, "yaw": -0.42269909381866455}, "local_position": {"x": null, "y": null, "z": null}, "status": {"flags": 135, "velocity_variance": 0.0, "pos_horiz_variance": 0.00939448643475771, "pos_vert_variance": 0.016940729692578316}}, "errors": ["PreArm: Hardware safety switch"]}
{"timestamp": "2026-01-24T21:05:42.162022Z", "telemetry": {"lat": 28.7532066, "lon": 77.1177255, "satellites": 8, "altitude_gps_m": 207.989990234375, "groundspeed_mps": 0.03199954330921173}, "flight": {"mode": "STABILIZE", "armed": false}, "ekf": {"attitude": {"roll": 0.08456321060657501, "pitch": -0.07862785458564758, "yaw": -0.4225049316883087}, "local_position": {"x": null, "y": null, "z": null}, "status": {"flags": 135, "velocity_variance": 0.0, "pos_horiz_variance": 0.009395383298397064, "pos_vert_variance": 0.049497466534376144}}, "errors": ["PreArm: Hardware safety switch"]}
{"timestamp": "2026-01-24T21:05:43.162419Z", "telemetry": {"lat": 28.7532214, "lon": 77.1177511, "satellites": 7, "altitude_gps_m": 205.50999450683594, "groundspeed_mps": 0.034805070608854294}, "flight": {"mode": "STABILIZE", "armed": false}, "ekf": {"attitude": {"roll": 0.08455114811658859, "pitch": -0.07862143218517303, "yaw": -0.42253389954566956}, "local_position": {"x": null, "y": null, "z": null}, "status": {"flags": 135, "velocity_variance": 0.0, "pos_horiz_variance": 0.009454432874917984, "pos_vert_variance": 0.05640454590320587}}, "errors": ["PreArm: Hardware safety switch"]}
{"timestamp": "2026-01-24T21:05:44.190874Z", "telemetry": {"lat": 28.7532311, "lon": 77.1177583, "satellites": 7, "altitude_gps_m": 204.67999267578125, "groundspeed_mps": 0.0349348820745945}, "flight": {"mode": "STABILIZE", "armed": false}, "ekf": {"attitude": {"roll": 0.08459211885929108, "pitch": -0.07880648970603943, "yaw": -0.4224981665611267}, "local_position": {"x": null, "y": null, "z": null}, "status": {"flags": 135, "velocity_variance": 0.0, "pos_horiz_variance": 0.00961888488382101, "pos_vert_variance": 0.00024334299087058753}}, "errors": ["PreArm: Hardware safety switch"]}
{"timestamp": "2026-01-24T21:05:45.191028Z", "telemetry": {"lat": 28.7532464, "lon": 77.1177641, "satellites": 7, "altitude_gps_m": 203.92999267578125, "groundspeed_mps": 0.037889912724494934}, "flight": {"mode": "STABILIZE", "armed": false}, "ekf": {"attitude": {"roll": 0.08462285995483398, "pitch": -0.07881711423397064, "yaw": -0.4224303662776947}, "local_position": {"x": null, "y": null, "z": null}, "status": {"flags": 135, "velocity_variance": 0.0, "pos_horiz_variance": 0.009876548312604427, "pos_vert_variance": 0.05241066962480545}}, "errors": ["PreArm: Hardware safety switch"]}
{"timestamp": "2026-01-24T21:05:46.156600Z", "telemetry": {"lat": 28.7532538, "lon": 77.1177739, "satellites": 7, "altitude_gps_m": 201.9099884033203, "groundspeed_mps": 0.041419003158807755}, "flight": {"mode": "STABILIZE", "armed": false}, "ekf": {"attitude": {"roll": 0.0846615806221962, "pitch": -0.07883139699697495, "yaw": -0.422389417886734}, "local_position": {"x": null, "y": null, "z": null}, "status": {"flags": 135, "velocity_variance": 0.0, "pos_horiz_variance": 0.010559716261923313, "pos_vert_variance": 0.054231420159339905}}, "errors": ["PreArm: Hardware safety switch"]}
{"timestamp": "2026-01-24T21:05:47.190741Z", "telemetry": {"lat": 28.7532572, "lon": 77.1177801, "satellites": 7, "altitude_gps_m": 199.8000030517578, "groundspeed_mps": 0.04083755239844322}, "flight": {"mode": "STABILIZE", "armed": false}, "ekf": {"attitude": {"roll": 0.08469008654356003, "pitch": -0.07889369875192642, "yaw": -0.422307550907135}, "local_position": {"x": null, "y": null, "z": null}, "status": {"flags": 135, "velocity_variance": 0.0, "pos_horiz_variance": 0.01112409308552742, "pos_vert_variance": 0.01656206324696541}}, "errors": ["PreArm: Hardware safety switch"]}
{"timestamp": "2026-01-24T21:05:48.189552Z", "telemetry": {"lat": 28.7532492, "lon": 77.117802, "satellites": 6, "altitude_gps_m": 196.94000244140625, "groundspeed_mps": 0.04516785964369774}, "flight": {"mode": "STABILIZE", "armed": false}, "ekf": {"attitude": {"roll": 0.0846015065908432, "pitch": -0.07878994941711426, "yaw": -0.4222582280635834}, "local_position": {"x": null, "y": null, "z": null}, "status": {"flags": 135, "velocity_variance": 0.0, "pos_horiz_variance": 0.011612563394010067, "pos_vert_variance": 0.014368884265422821}}, "errors": ["PreArm: Hardware safety switch"]}
{"timestamp": "2026-01-24T21:05:49.191497Z", "telemetry": {"lat": 28.7532512, "lon": 77.1178191, "satellites": 6, "altitude_gps_m": 195.38999938964844, "groundspeed_mps": 0.045100655406713486}, "flight": {"mode": "STABILIZE", "armed": false}, "ekf": {"attitude": {"roll": 0.08464313298463821, "pitch": -0.07862642407417297, "yaw": -0.4221973121166229}, "local_position": {"x": null, "y": null, "z": null}, "status": {"flags": 135, "velocity_variance": 0.0, "pos_horiz_variance": 0.012162615545094013, "pos_vert_variance": 0.0034301187843084335}}, "errors": ["PreArm: Hardware safety switch"]}
{"timestamp": "2026-01-24T21:05:50.191282Z", "telemetry": {"lat": 28.7532736, "lon": 77.1178305, "satellites": 5, "altitude_gps_m": 193.5500030517578, "groundspeed_mps": 0.04126506671309471}, "flight": {"mode": "STABILIZE", "armed": false}, "ekf": {"attitude": {"roll": 0.08465183526277542, "pitch": -0.07846549153327942, "yaw": -0.42200079560279846}, "local_position": {"x": null, "y": null, "z": null}, "status": {"flags": 135, "velocity_variance": 0.0, "pos_horiz_variance": 0.012230406515300274, "pos_vert_variance": 0.02899750880897045}}, "errors": ["PreArm: Hardware safety switch"]}
{"timestamp": "2026-01-24T21:05:51.190683Z", "telemetry": {"lat": 28.7532997, "lon": 77.1178414, "satellites": 6, "altitude_gps_m": 193.0399932861328, "groundspeed_mps": 0.03790378198027611}, "flight": {"mode": "STABILIZE", "armed": false}, "ekf": {"attitude": {"roll": 0.08473712205886841, "pitch": -0.07828780263662338, "yaw": -0.42181843519210815}, "local_position": {"x": null, "y": null, "z": null}, "status": {"flags": 135, "velocity_variance": 0.0, "pos_horiz_variance": 0.01162210013717413, "pos_vert_variance": 0.01823500543832779}}, "errors": ["PreArm: Hardware safety switch"]}
{"timestamp": "2026-01-24T21:05:52.159884Z", "telemetry": {"lat": 28.7533216, "lon": 77.1178377, "satellites": 6, "altitude_gps_m": 193.62998962402344, "groundspeed_mps": 0.03337717428803444}, "flight": {"mode": "STABILIZE", "armed": false}, "ekf": {"attitude": {"roll": 0.08472790569067001, "pitch": -0.07823899388313293, "yaw": -0.4215924143791199}, "local_position": {"x": null, "y": null, "z": null}, "status": {"flags": 135, "velocity_variance": 0.0, "pos_horiz_variance": 0.010850937105715275, "pos_vert_variance": 0.04824139177799225}}, "errors": ["PreArm: Hardware safety switch"]}
{"timestamp": "2026-01-24T21:05:53.190969Z", "telemetry": {"lat": 28.7533318, "lon": 77.1178326, "satellites": 6, "altitude_gps_m": 193.69000244140625, "groundspeed_mps": 0.029400907456874847}, "flight": {"mode": "STABILIZE", "armed": false}, "ekf": {"attitude": {"roll": 0.08455640077590942, "pitch": -0.0781673714518547, "yaw": -0.4214697778224945}, "local_position": {"x": null, "y": null, "z": null}, "status": {"flags": 135, "velocity_variance": 0.0, "pos_horiz_variance": 0.009946554899215698, "pos_vert_variance": 0.045091111212968826}}, "errors": ["PreArm: Hardware safety switch"]}
{"timestamp": "2026-01-24T21:05:54.186126Z", "telemetry": {"lat": 28.7533492, "lon": 77.11784, "satellites": 6, "altitude_gps_m": 193.26998901367188, "groundspeed_mps": 0.02501562424004078}, "flight": {"mode": "STABILIZE", "armed": false}, "ekf": {"attitude": {"roll": 0.0844447985291481, "pitch": -0.0780225545167923, "yaw": -0.4214381277561188}, "local_position": {"x": null, "y": null, "z": null}, "status": {"flags": 135, "velocity_variance": 0.0, "pos_horiz_variance": 0.008695878088474274, "pos_vert_variance": 0.049036841839551926}}, "errors": ["PreArm: Hardware safety switch"]}
{"timestamp": "2026-01-24T21:05:55.190532Z", "telemetry": {"lat": 28.7533537, "lon": 77.1178388, "satellites": 5, "altitude_gps_m": 193.22999572753906, "groundspeed_mps": 0.022550471127033234}, "flight": {"mode": "STABILIZE", "armed": false}, "ekf": {"attitude": {"roll": 0.0842791274189949, "pitch": -0.07801228761672974, "yaw": -0.42141735553741455}, "local_position": {"x": null, "y": null, "z": null}, "status": {"flags": 135, "velocity_variance": 0.0, "pos_horiz_variance": 0.007814805954694748, "pos_vert_variance": 0.016400838270783424}}, "errors": ["PreArm: Hardware safety switch", "PreArm: Hardware safety switch"]}
{"timestamp": "2026-01-24T21:05:56.191035Z", "telemetry": {"lat": 28.7533597, "lon": 77.1178337, "satellites": 6, "altitude_gps_m": 193.37998962402344, "groundspeed_mps": 0.023262910544872284}, "flight": {"mode": "STABILIZE", "armed": false}, "ekf": {"attitude": {"roll": 0.08420632034540176, "pitch": -0.0779542624950409, "yaw": -0.4214075803756714}, "local_position": {"x": null, "y": null, "z": null}, "status": {"flags": 135, "velocity_variance": 0.0, "pos_horiz_variance": 0.006954539567232132, "pos_vert_variance": 0.04205884039402008}}, "errors": ["PreArm: Hardware safety switch", "PreArm: Hardware safety switch"]}
{"timestamp": "2026-01-24T21:05:57.190250Z", "telemetry": {"lat": 28.7533657, "lon": 77.1178295, "satellites": 5, "altitude_gps_m": 193.64999389648438, "groundspeed_mps": 0.02118765562772751}, "flight": {"mode": "STABILIZE", "armed": false}, "ekf": {"attitude": {"roll": 0.08403827250003815, "pitch": -0.07788316905498505, "yaw": -0.4211665987968445}, "local_position": {"x": null, "y": null, "z": null}, "status": {"flags": 135, "velocity_variance": 0.0, "pos_horiz_variance": 0.006627601105719805, "pos_vert_variance": 0.035633765161037445}}, "errors": ["PreArm: Hardware safety switch", "PreArm: Hardware safety switch"]}
{"timestamp": "2026-01-24T21:05:58.188302Z", "telemetry": {"lat": 28.7533702, "lon": 77.1178294, "satellites": 6, "altitude_gps_m": 193.0, "groundspeed_mps": 0.02424633875489235}, "flight": {"mode": "STABILIZE", "armed": false}, "ekf": {"attitude": {"roll": 0.08408217132091522, "pitch": -0.0778353363275528, "yaw": -0.42121368646621704}, "local_position": {"x": null, "y": null, "z": null}, "status": {"flags": 135, "velocity_variance": 0.0, "pos_horiz_variance": 0.006550695281475782, "pos_vert_variance": 0.10398534685373306}}, "errors": ["PreArm: Hardware safety switch", "PreArm: Hardware safety switch"]}
{"timestamp": "2026-01-24T21:05:59.186333Z", "telemetry": {"lat": 28.7533716, "lon": 77.1178308, "satellites": 6, "altitude_gps_m": 191.95999145507812, "groundspeed_mps": 0.02197924070060253}, "flight": {"mode": "STABILIZE", "armed": false}, "ekf": {"attitude": {"roll": 0.08391619473695755, "pitch": -0.07780659198760986, "yaw": -0.42106789350509644}, "local_position": {"x": null, "y": null, "z": null}, "status": {"flags": 135, "velocity_variance": 0.0, "pos_horiz_variance": 0.00656842952594161, "pos_vert_variance": 0.004105976317077875}}, "errors": ["PreArm: Hardware safety switch", "PreArm: Hardware safety switch"]}
{"timestamp": "2026-01-24T21:06:00.190366Z", "telemetry": {"lat": 28.7533634, "lon": 77.1178335, "satellites": 6, "altitude_gps_m": 191.01998901367188, "groundspeed_mps": 0.020284907892346382}, "flight": {"mode": "STABILIZE", "armed": false}, "ekf": {"attitude": {"roll": 0.08367574214935303, "pitch": -0.07784192264080048, "yaw": -0.4210626482963562}, "local_position": {"x": null, "y": null, "z": null}, "status": {"flags": 135, "velocity_variance": 0.0, "pos_horiz_variance": 0.006020462140440941, "pos_vert_variance": 0.016210710629820824}}, "errors": ["PreArm: Hardware safety switch", "PreArm: Hardware safety switch"]}
{"timestamp": "2026-01-24T21:06:01.190601Z", "telemetry": {"lat": 28.7533657, "lon": 77.1178264, "satellites": 6, "altitude_gps_m": 190.95999145507812, "groundspeed_mps": 0.022398026660084724}, "flight": {"mode": "STABILIZE", "armed": false}, "ekf": {"attitude": {"roll": 0.08352549374103546, "pitch": -0.07781963795423508, "yaw": -0.4209439754486084}, "local_position": {"x": null, "y": null, "z": null}, "status": {"flags": 135, "velocity_variance": 0.0, "pos_horiz_variance": 0.0058887735940515995, "pos_vert_variance": 0.05578308179974556}}, "errors": ["PreArm: Hardware safety switch", "PreArm: Hardware safety switch"]}
{"timestamp": "2026-01-24T21:06:02.190665Z", "telemetry": {"lat": 28.7533742, "lon": 77.1178187, "satellites": 6, "altitude_gps_m": 191.61000061035156, "groundspeed_mps": 0.024820799008011818}, "flight": {"mode": "STABILIZE", "armed": false}, "ekf": {"attitude": {"roll": 0.08346446603536606, "pitch": -0.07779170572757721, "yaw": -0.42102715373039246}, "local_position": {"x": null, "y": null, "z": null}, "status": {"flags": 135, "velocity_variance": 0.0, "pos_horiz_variance": 0.006207884754985571, "pos_vert_variance": 0.03402427211403847}}, "errors": ["PreArm: Hardware safety switch", "PreArm: Hardware safety switch"]}
{"timestamp": "2026-01-24T21:06:03.149336Z", "telemetry": {"lat": 28.7533756, "lon": 77.1178113, "satellites": 6, "altitude_gps_m": 191.9499969482422, "groundspeed_mps": 0.028207097202539444}, "flight": {"mode": "STABILIZE", "armed": false}, "ekf": {"attitude": {"roll": 0.08343567699193954, "pitch": -0.07779044657945633, "yaw": -0.42100730538368225}, "local_position": {"x": null, "y": null, "z": null}, "status": {"flags": 135, "velocity_variance": 0.0, "pos_horiz_variance": 0.006804860197007656, "pos_vert_variance": 0.030397500842809677}}, "errors": ["PreArm: Hardware safety switch", "PreArm: Hardware safety switch"]}
{"timestamp": "2026-01-24T21:06:04.191008Z", "telemetry": {"lat": 28.7533788, "lon": 77.1178169, "satellites": 6, "altitude_gps_m": 190.8000030517578, "groundspeed_mps": 0.031543031334877014}, "flight": {"mode": "STABILIZE", "armed": false}, "ekf": {"attitude": {"roll": 0.0834161788225174, "pitch": -0.07774580270051956, "yaw": -0.4209986925125122}, "local_position": {"x": null, "y": null, "z": null}, "status": {"flags": 135, "velocity_variance": 0.0, "pos_horiz_variance": 0.007621343247592449, "pos_vert_variance": 0.06103413552045822}}, "errors": ["PreArm: Hardware safety switch", "PreArm: Hardware safety switch"]}
{"timestamp": "2026-01-24T21:06:05.190420Z", "telemetry": {"lat": 28.7533855, "lon": 77.1178253, "satellites": 6, "altitude_gps_m": 189.0699920654297, "groundspeed_mps": 0.02990386076271534}, "flight": {"mode": "STABILIZE", "armed": false}, "ekf": {"attitude": {"roll": 0.08343243598937988, "pitch": -0.07763965427875519, "yaw": -0.42079925537109375}, "local_position": {"x": null, "y": null, "z": null}, "status": {"flags": 135, "velocity_variance": 0.0, "pos_horiz_variance": 0.008177319541573524, "pos_vert_variance": 0.042741451412439346}}, "errors": ["PreArm: Hardware safety switch", "PreArm: Hardware safety switch"]}
{"timestamp": "2026-01-24T21:06:06.191414Z", "telemetry": {"lat": 28.7533829, "lon": 77.1178398, "satellites": 6, "altitude_gps_m": 186.3300018310547, "groundspeed_mps": 0.027218958362936974}, "flight": {"mode": "STABILIZE", "armed": false}, "ekf": {"attitude": {"roll": 0.08353673666715622, "pitch": -0.07768724858760834, "yaw": -0.4206571877002716}, "local_position": {"x": null, "y": null, "z": null}, "status": {"flags": 135, "velocity_variance": 0.0, "pos_horiz_variance": 0.008168711327016354, "pos_vert_variance": 0.052385687828063965}}, "errors": ["PreArm: Hardware safety switch", "PreArm: Hardware safety switch"]}
{"timestamp": "2026-01-24T21:06:07.186225Z", "telemetry": {"lat": 28.7533754, "lon": 77.1178548, "satellites": 5, "altitude_gps_m": 184.84999084472656, "groundspeed_mps": 0.023384422063827515}, "flight": {"mode": "STABILIZE", "armed": false}, "ekf": {"attitude": {"roll": 0.08367647975683212, "pitch": -0.07754509150981903, "yaw": -0.4205392003059387}, "local_position": {"x": null, "y": null, "z": null}, "status": {"flags": 135, "velocity_variance": 0.0, "pos_horiz_variance": 0.00760297104716301, "pos_vert_variance": 0.012569118291139603}}, "errors": ["PreArm: Hardware safety switch", "PreArm: Hardware safety switch"]}
{"timestamp": "2026-01-24T21:06:08.191069Z", "telemetry": {"lat": 28.7533692, "lon": 77.1178636, "satellites": 5, "altitude_gps_m": 183.5399932861328, "groundspeed_mps": 0.020603017881512642}, "flight": {"mode": "STABILIZE", "armed": false}, "ekf": {"attitude": {"roll": 0.0838848352432251, "pitch": -0.07748638093471527, "yaw": -0.42048388719558716}, "local_position": {"x": null, "y": null, "z": null}, "status": {"flags": 135, "velocity_variance": 0.0, "pos_horiz_variance": 0.007022559177130461, "pos_vert_variance": 0.017620254307985306}}, "errors": ["PreArm: Hardware safety switch", "PreArm: Hardware safety switch"]}
{"timestamp": "2026-01-24T21:06:09.190122Z", "telemetry": {"lat": 28.7533631, "lon": 77.1178686, "satellites": 5, "altitude_gps_m": 182.17999267578125, "groundspeed_mps": 0.020097216591238976}, "flight": {"mode": "STABILIZE", "armed": false}, "ekf": {"attitude": {"roll": 0.08399034291505814, "pitch": -0.07755156606435776, "yaw": -0.4204171597957611}, "local_position": {"x": null, "y": null, "z": null}, "status": {"flags": 135, "velocity_variance": 0.0, "pos_horiz_variance": 0.00625109625980258, "pos_vert_variance": 0.030055219307541847}}, "errors": ["PreArm: Hardware safety switch", "PreArm: Hardware safety switch"]}
{"timestamp": "2026-01-24T21:06:10.159848Z", "telemetry": {"lat": 28.7533638, "lon": 77.1178678, "satellites": 4, "altitude_gps_m": 182.5500030517578, "groundspeed_mps": 0.01686084270477295}, "flight": {"mode": "STABILIZE", "armed": false}, "ekf": {"attitude": {"roll": 0.08406039327383041, "pitch": -0.07764530926942825, "yaw": -0.4204365611076355}, "local_position": {"x": null, "y": null, "z": null}, "status": {"flags": 135, "velocity_variance": 0.0, "pos_horiz_variance": 0.005674225743860006, "pos_vert_variance": 0.02374976873397827}}, "errors": ["PreArm: Hardware safety switch", "PreArm: Hardware safety switch"]}
{"timestamp": "2026-01-24T21:06:11.190263Z", "telemetry": {"lat": 28.753343, "lon": 77.1178973, "satellites": 4, "altitude_gps_m": 181.22000122070312, "groundspeed_mps": 0.014597703702747822}, "flight": {"mode": "STABILIZE", "armed": false}, "ekf": {"attitude": {"roll": 0.08407493680715561, "pitch": -0.07765763998031616, "yaw": -0.4204109311103821}, "local_position": {"x": null, "y": null, "z": null}, "status": {"flags": 135, "velocity_variance": 0.0, "pos_horiz_variance": 0.005100741982460022, "pos_vert_variance": 0.07284757494926453}}, "errors": ["PreArm: Hardware safety switch", "PreArm: Hardware safety switch"]}
{"timestamp": "2026-01-24T21:06:12.190451Z", "telemetry": {"lat": 28.7533194, "lon": 77.1179266, "satellites": 4, "altitude_gps_m": 181.50999450683594, "groundspeed_mps": 0.014966825023293495}, "flight": {"mode": "STABILIZE", "armed": false}, "ekf": {"attitude": {"roll": 0.08415427803993225, "pitch": -0.07769119739532471, "yaw": -0.4204065799713135}, "local_position": {"x": null, "y": null, "z": null}, "status": {"flags": 135, "velocity_variance": 0.0, "pos_horiz_variance": 0.0045861308462917805, "pos_vert_variance": 0.00889810174703598}}, "errors": ["PreArm: Hardware safety switch", "PreArm: Hardware safety switch"]}
{"timestamp": "2026-01-24T21:06:13.190103Z", "telemetry": {"lat": 28.7533182, "lon": 77.1179241, "satellites": 4, "altitude_gps_m": 182.3000030517578, "groundspeed_mps": 0.017721550539135933}, "flight": {"mode": "STABILIZE", "armed": false}, "ekf": {"attitude": {"roll": 0.08399922400712967, "pitch": -0.07780645787715912, "yaw": -0.42030635476112366}, "local_position": {"x": null, "y": null, "z": null}, "status": {"flags": 135, "velocity_variance": 0.0, "pos_horiz_variance": 0.004568739328533411, "pos_vert_variance": 0.02899407036602497}}, "errors": ["PreArm: Hardware safety switch", "PreArm: Hardware safety switch"]}
{"timestamp": "2026-01-24T21:06:14.187116Z", "telemetry": {"lat": 28.7533157, "lon": 77.1179194, "satellites": 4, "altitude_gps_m": 183.83999633789062, "groundspeed_mps": 0.019991887733340263}, "flight": {"mode": "STABILIZE", "armed": false}, "ekf": {"attitude": {"roll": 0.08395878970623016, "pitch": -0.07792875170707703, "yaw": -0.4200228452682495}, "local_position": {"x": null, "y": null, "z": null}, "status": {"flags": 135, "velocity_variance": 0.0, "pos_horiz_variance": 0.004904595669358969, "pos_vert_variance": 0.01167118176817894}}, "errors": ["PreArm: Hardware safety switch", "PreArm: Hardware safety switch"]}
{"timestamp": "2026-01-24T21:06:15.190685Z", "telemetry": {"lat": 28.753326, "lon": 77.1178627, "satellites": 4, "altitude_gps_m": 185.70999145507812, "groundspeed_mps": 0.020372219383716583}, "flight": {"mode": "STABILIZE", "armed": false}, "ekf": {"attitude": {"roll": 0.08398302644491196, "pitch": -0.07789694517850876, "yaw": -0.41993311047554016}, "local_position": {"x": null, "y": null, "z": null}, "status": {"flags": 135, "velocity_variance": 0.0, "pos_horiz_variance": 0.005497430916875601, "pos_vert_variance": 0.009403417818248272}}, "errors": ["PreArm: Hardware safety switch", "PreArm: Hardware safety switch"]}
{"timestamp": "2026-01-24T21:06:16.189116Z", "telemetry": {"lat": 28.7533264, "lon": 77.11784, "satellites": 3, "altitude_gps_m": 185.989990234375, "groundspeed_mps": 0.02492683194577694}, "flight": {"mode": "STABILIZE", "armed": false}, "ekf": {"attitude": {"roll": 0.08399788290262222, "pitch": -0.07798366248607635, "yaw": -0.41974252462387085}, "local_position": {"x": null, "y": null, "z": null}, "status": {"flags": 135, "velocity_variance": 0.0, "pos_horiz_variance": 0.006027661729604006, "pos_vert_variance": 0.051196299493312836}}, "errors": ["PreArm: Hardware safety switch", "PreArm: Hardware safety switch"]}
{"timestamp": "2026-01-24T21:06:17.165185Z", "telemetry": {"lat": 28.7533177, "lon": 77.1177943, "satellites": 3, "altitude_gps_m": 185.989990234375, "groundspeed_mps": 0.028450027108192444}, "flight": {"mode": "STABILIZE", "armed": false}, "ekf": {"attitude": {"roll": 0.08397320657968521, "pitch": -0.07811343669891357, "yaw": -0.4196603298187256}, "local_position": {"x": null, "y": null, "z": null}, "status": {"flags": 135, "velocity_variance": 0.0, "pos_horiz_variance": 0.00697415741160512, "pos_vert_variance": 0.09832513332366943}}, "errors": ["PreArm: Hardware safety switch", "PreArm: Hardware safety switch"]}
{"timestamp": "2026-01-24T21:06:18.190678Z", "telemetry": {"lat": 28.7532887, "lon": 77.1177042, "satellites": 3, "altitude_gps_m": 185.989990234375, "groundspeed_mps": 0.030955318361520767}, "flight": {"mode": "STABILIZE", "armed": false}, "ekf": {"attitude": {"roll": 0.08409373462200165, "pitch": -0.07822875678539276, "yaw": -0.4195464253425598}, "local_position": {"x": null, "y": null, "z": null}, "status": {"flags": 135, "velocity_variance": 0.0, "pos_horiz_variance": 0.007703456562012434, "pos_vert_variance": 0.0357050821185112}}, "errors": ["PreArm: Hardware safety switch", "PreArm: Hardware safety switch"]}
{"timestamp": "2026-01-24T21:06:19.190265Z", "telemetry": {"lat": 28.7532677, "lon": 77.1176244, "satellites": 0, "altitude_gps_m": 185.989990234375, "groundspeed_mps": 0.0331655889749527}, "flight": {"mode": "STABILIZE", "armed": false}, "ekf": {"attitude": {"roll": 0.08424627035856247, "pitch": -0.07822160422801971, "yaw": -0.4196159541606903}, "local_position": {"x": null, "y": null, "z": null}, "status": {"flags": 135, "velocity_variance": 0.0, "pos_horiz_variance": 0.008403956890106201, "pos_vert_variance": 0.007871406152844429}}, "errors": ["PreArm: Hardware safety switch", "PreArm: Hardware safety switch"]}
{"timestamp": "2026-01-24T21:06:20.189915Z", "telemetry": {"lat": 28.7532549, "lon": 77.1177336, "satellites": 4, "altitude_gps_m": 190.8199920654297, "groundspeed_mps": 0.034949980676174164}, "flight": {"mode": "STABILIZE", "armed": false}, "ekf": {"attitude": {"roll": 0.08382954448461533, "pitch": -0.07820338755846024, "yaw": -0.42110568284988403}, "local_position": {"x": null, "y": null, "z": null}, "status": {"flags": 135, "velocity_variance": 0.0, "pos_horiz_variance": 0.0090700788423419, "pos_vert_variance": 0.040213633328676224}}, "errors": ["PreArm: Hardware safety switch", "PreArm: Hardware safety switch"]}
{"timestamp": "2026-01-24T21:06:21.295257Z", "telemetry": {"lat": 28.7532323, "lon": 77.1177326, "satellites": 4, "altitude_gps_m": 194.5500030517578, "groundspeed_mps": 0.031428296118974686}, "flight": {"mode": "STABILIZE", "armed": false}, "ekf": {"attitude": {"roll": 0.0813729390501976, "pitch": -0.07797946035861969, "yaw": -0.4273920953273773}, "local_position": {"x": null, "y": null, "z": null}, "status": {"flags": 135, "velocity_variance": 0.0, "pos_horiz_variance": 0.009347807615995407, "pos_vert_variance": 0.033481743186712265}}, "errors": ["PreArm: Hardware safety switch", "PreArm: Hardware safety switch"]}
{"timestamp": "2026-01-24T21:06:22.162408Z", "telemetry": {"lat": 28.7532513, "lon": 77.117693, "satellites": 5, "altitude_gps_m": 199.25999450683594, "groundspeed_mps": 0.029971567913889885}, "flight": {"mode": "STABILIZE", "armed": false}, "ekf": {"attitude": {"roll": 0.08271071314811707, "pitch": -0.07768861949443817, "yaw": -0.4257779121398926}, "local_position": {"x": null, "y": null, "z": null}, "status": {"flags": 135, "velocity_variance": 0.0, "pos_horiz_variance": 0.008801445364952087, "pos_vert_variance": 0.010238495655357838}}, "errors": ["PreArm: Hardware safety switch", "PreArm: Hardware safety switch"]}
{"timestamp": "2026-01-24T21:06:23.187908Z", "telemetry": {"lat": 28.7532597, "lon": 77.1176728, "satellites": 5, "altitude_gps_m": 206.11000061035156, "groundspeed_mps": 0.02702745795249939}, "flight": {"mode": "STABILIZE", "armed": false}, "ekf": {"attitude": {"roll": 0.08287342637777328, "pitch": -0.07758605480194092, "yaw": -0.4257102310657501}, "local_position": {"x": null, "y": null, "z": null}, "status": {"flags": 135, "velocity_variance": 0.0, "pos_horiz_variance": 0.008493026718497276, "pos_vert_variance": 0.058562036603689194}}, "errors": ["PreArm: Hardware safety switch", "PreArm: Hardware safety switch"]}
{"timestamp": "2026-01-24T21:06:24.186995Z", "telemetry": {"lat": 28.7532704, "lon": 77.1176248, "satellites": 5, "altitude_gps_m": 211.47000122070312, "groundspeed_mps": 0.023982783779501915}, "flight": {"mode": "STABILIZE", "armed": false}, "ekf": {"attitude": {"roll": 0.08290030062198639, "pitch": -0.07749181985855103, "yaw": -0.4257633686065674}, "local_position": {"x": null, "y": null, "z": null}, "status": {"flags": 135, "velocity_variance": 0.0, "pos_horiz_variance": 0.007652227766811848, "pos_vert_variance": 0.037953414022922516}}, "errors": ["PreArm: Hardware safety switch", "PreArm: Hardware safety switch"]}
{"timestamp": "2026-01-24T21:06:25.188587Z", "telemetry": {"lat": 28.7532809, "lon": 77.1175936, "satellites": 5, "altitude_gps_m": 218.33999633789062, "groundspeed_mps": 0.022225892171263695}, "flight": {"mode": "STABILIZE", "armed": false}, "ekf": {"attitude": {"roll": 0.08303411304950714, "pitch": -0.07737737894058228, "yaw": -0.425856351852417}, "local_position": {"x": null, "y": null, "z": null}, "status": {"flags": 135, "velocity_variance": 0.0, "pos_horiz_variance": 0.006954270415008068, "pos_vert_variance": 0.07955516874790192}}, "errors": ["PreArm: Hardware safety switch", "PreArm: Hardware safety switch", "PreArm: Hardware safety switch"]}
{"timestamp": "2026-01-24T21:06:26.164883Z", "telemetry": {"lat": 28.7532664, "lon": 77.1175981, "satellites": 5, "altitude_gps_m": 223.9199981689453, "groundspeed_mps": 0.018350878730416298}, "flight": {"mode": "STABILIZE", "armed": false}, "ekf": {"attitude": {"roll": 0.08296306431293488, "pitch": -0.07739071547985077, "yaw": -0.4258239269256592}, "local_position": {"x": null, "y": null, "z": null}, "status": {"flags": 135, "velocity_variance": 0.0, "pos_horiz_variance": 0.006284958682954311, "pos_vert_variance": 0.01965479739010334}}, "errors": ["PreArm: Hardware safety switch", "PreArm: Hardware safety switch", "PreArm: Hardware safety switch"]}
{"timestamp": "2026-01-24T21:06:27.158300Z", "telemetry": {"lat": 28.7532651, "lon": 77.1175937, "satellites": 5, "altitude_gps_m": 230.489990234375, "groundspeed_mps": 0.019728168845176697}, "flight": {"mode": "STABILIZE", "armed": false}, "ekf": {"attitude": {"roll": 0.0829966738820076, "pitch": -0.0774659663438797, "yaw": -0.4257456362247467}, "local_position": {"x": null, "y": null, "z": null}, "status": {"flags": 135, "velocity_variance": 0.0, "pos_horiz_variance": 0.005830999463796616, "pos_vert_variance": 0.07526266574859619}}, "errors": ["PreArm: Hardware safety switch", "PreArm: Hardware safety switch", "PreArm: Hardware safety switch"]}
{"timestamp": "2026-01-24T21:06:28.258889Z", "telemetry": {"lat": 28.7532667, "lon": 77.1176105, "satellites": 5, "altitude_gps_m": 230.2899932861328, "groundspeed_mps": 0.02098689414560795}, "flight": {"mode": "STABILIZE", "armed": false}, "ekf": {"attitude": {"roll": 0.08299516886472702, "pitch": -0.0775381326675415, "yaw": -0.42585572600364685}, "local_position": {"x": null, "y": null, "z": null}, "status": {"flags": 135, "velocity_variance": 0.0, "pos_horiz_variance": 0.0057271383702754974, "pos_vert_variance": 0.01973084732890129}}, "errors": ["PreArm: Hardware safety switch", "PreArm: Hardware safety switch", "PreArm: Hardware safety switch"]}
{"timestamp": "2026-01-24T21:06:29.186615Z", "telemetry": {"lat": 28.7532593, "lon": 77.1176234, "satellites": 5, "altitude_gps_m": 230.0699920654297, "groundspeed_mps": 0.02325766161084175}, "flight": {"mode": "STABILIZE", "armed": false}, "ekf": {"attitude": {"roll": 0.08296233415603638, "pitch": -0.07759542763233185, "yaw": -0.4258841872215271}, "local_position": {"x": null, "y": null, "z": null}, "status": {"flags": 135, "velocity_variance": 0.0, "pos_horiz_variance": 0.005966431461274624, "pos_vert_variance": 0.00973344873636961}}, "errors": ["PreArm: Hardware safety switch", "PreArm: Hardware safety switch", "PreArm: Hardware safety switch"]}
{"timestamp": "2026-01-24T21:06:30.154078Z", "telemetry": {"lat": 28.7532463, "lon": 77.1176318, "satellites": 5, "altitude_gps_m": 231.9199981689453, "groundspeed_mps": 0.02471989020705223}, "flight": {"mode": "STABILIZE", "armed": false}, "ekf": {"attitude": {"roll": 0.08298524469137192, "pitch": -0.07761772722005844, "yaw": -0.42592310905456543}, "local_position": {"x": null, "y": null, "z": null}, "status": {"flags": 135, "velocity_variance": 0.0, "pos_horiz_variance": 0.006458963267505169, "pos_vert_variance": 0.006585112772881985}}, "errors": ["PreArm: Hardware safety switch", "PreArm: Hardware safety switch", "PreArm: Hardware safety switch"]}
{"timestamp": "2026-01-24T21:06:31.189414Z", "telemetry": {"lat": 28.7532433, "lon": 77.1176348, "satellites": 5, "altitude_gps_m": 233.1699981689453, "groundspeed_mps": 0.026171891018748283}, "flight": {"mode": "STABILIZE", "armed": false}, "ekf": {"attitude": {"roll": 0.08298324048519135, "pitch": -0.0775333046913147, "yaw": -0.4258541464805603}, "local_position": {"x": null, "y": null, "z": null}, "status": {"flags": 135, "velocity_variance": 0.0, "pos_horiz_variance": 0.006894606631249189, "pos_vert_variance": 0.045752838253974915}}, "errors": ["PreArm: Hardware safety switch", "PreArm: Hardware safety switch", "PreArm: Hardware safety switch"]}
{"timestamp": "2026-01-24T21:06:32.182421Z", "telemetry": {"lat": 28.7532515, "lon": 77.1176342, "satellites": 7, "altitude_gps_m": 239.84999084472656, "groundspeed_mps": 0.02757960744202137}, "flight": {"mode": "STABILIZE", "armed": false}, "ekf": {"attitude": {"roll": 0.08298609405755997, "pitch": -0.07744131982326508, "yaw": -0.4257517457008362}, "local_position": {"x": null, "y": null, "z": null}, "status": {"flags": 135, "velocity_variance": 0.0, "pos_horiz_variance": 0.007240512873977423, "pos_vert_variance": 0.0005896214861422777}}, "errors": ["PreArm: Hardware safety switch", "PreArm: Hardware safety switch", "PreArm: Hardware safety switch"]}
{"timestamp": "2026-01-24T21:06:33.189762Z", "telemetry": {"lat": 28.7532703, "lon": 77.1176202, "satellites": 7, "altitude_gps_m": 249.97000122070312, "groundspeed_mps": 0.027048233896493912}, "flight": {"mode": "STABILIZE", "armed": false}, "ekf": {"attitude": {"roll": 0.08290251344442368, "pitch": -0.07738175988197327, "yaw": -0.42564475536346436}, "local_position": {"x": null, "y": null, "z": null}, "status": {"flags": 135, "velocity_variance": 0.0, "pos_horiz_variance": 0.007502742111682892, "pos_vert_variance": 0.03238343074917793}}, "errors": ["PreArm: Hardware safety switch", "PreArm: Hardware safety switch", "PreArm: Hardware safety switch"]}
{"timestamp": "2026-01-24T21:06:34.189390Z", "telemetry": {"lat": 28.7532604, "lon": 77.1176214, "satellites": 4, "altitude_gps_m": 254.989990234375, "groundspeed_mps": 0.026778174564242363}, "flight": {"mode": "STABILIZE", "armed": false}, "ekf": {"attitude": {"roll": 0.08289368450641632, "pitch": -0.07746145129203796, "yaw": -0.4255303144454956}, "local_position": {"x": null, "y": null, "z": null}, "status": {"flags": 135, "velocity_variance": 0.0, "pos_horiz_variance": 0.007596643641591072, "pos_vert_variance": 0.016267960891127586}}, "errors": ["PreArm: Hardware safety switch", "PreArm: Hardware safety switch", "PreArm: Hardware safety switch"]}
{"timestamp": "2026-01-24T21:06:35.188852Z", "telemetry": {"lat": 28.7532478, "lon": 77.1176241, "satellites": 4, "altitude_gps_m": 256.75, "groundspeed_mps": 0.027369163930416107}, "flight": {"mode": "STABILIZE", "armed": false}, "ekf": {"attitude": {"roll": 0.08289941400289536, "pitch": -0.07756435871124268, "yaw": -0.42544543743133545}, "local_position": {"x": null, "y": null, "z": null}, "status": {"flags": 135, "velocity_variance": 0.0, "pos_horiz_variance": 0.007671543397009373, "pos_vert_variance": 0.005708879791200161}}, "errors": ["PreArm: Hardware safety switch", "PreArm: Hardware safety switch", "PreArm: Hardware safety switch"]}
{"timestamp": "2026-01-24T21:06:36.189135Z", "telemetry": {"lat": 28.7532285, "lon": 77.117641, "satellites": 4, "altitude_gps_m": 258.1300048828125, "groundspeed_mps": 0.024858558550477028}, "flight": {"mode": "STABILIZE", "armed": false}, "ekf": {"attitude": {"roll": 0.0828782245516777, "pitch": -0.07748667895793915, "yaw": -0.42537644505500793}, "local_position": {"x": null, "y": null, "z": null}, "status": {"flags": 135, "velocity_variance": 0.0, "pos_horiz_variance": 0.007422436494380236, "pos_vert_variance": 0.0024749108124524355}}, "errors": ["PreArm: Hardware safety switch", "PreArm: Hardware safety switch", "PreArm: Hardware safety switch"]}
{"timestamp": "2026-01-24T21:06:37.163525Z", "telemetry": {"lat": 28.7532315, "lon": 77.1176298, "satellites": 4, "altitude_gps_m": 259.9700012207031, "groundspeed_mps": 0.024043235927820206}, "flight": {"mode": "STABILIZE", "armed": false}, "ekf": {"attitude": {"roll": 0.08274392038583755, "pitch": -0.07747257500886917, "yaw": -0.42538315057754517}, "local_position": {"x": null, "y": null, "z": null}, "status": {"flags": 135, "velocity_variance": 0.0, "pos_horiz_variance": 0.007156847044825554, "pos_vert_variance": 0.003801466431468725}}, "errors": ["PreArm: Hardware safety switch", "PreArm: Hardware safety switch", "PreArm: Hardware safety switch"]}
{"timestamp": "2026-01-24T21:06:38.160134Z", "telemetry": {"lat": 28.7532608, "lon": 77.1175893, "satellites": 4, "altitude_gps_m": 261.4100036621094, "groundspeed_mps": 0.02311333641409874}, "flight": {"mode": "STABILIZE", "armed": false}, "ekf": {"attitude": {"roll": 0.08270742744207382, "pitch": -0.07755645364522934, "yaw": -0.4252527952194214}, "local_position": {"x": null, "y": null, "z": null}, "status": {"flags": 135, "velocity_variance": 0.0, "pos_horiz_variance": 0.006741933524608612, "pos_vert_variance": 0.05056535080075264}}, "errors": ["PreArm: Hardware safety switch", "PreArm: Hardware safety switch", "PreArm: Hardware safety switch"]}
