{"timestamp": "2026-01-29T12:46:37.221020Z", "telemetry": {"lat": 13.3543449, "lon": 74.8647732, "satellites": 5, "altitude_gps_m": 44.38999938964844, "groundspeed_mps": 0.039300624281167984}, "flight": {"mode": "STABILIZE", "armed": false}, "ekf": {"attitude": {"roll": -0.031219637021422386, "pitch": -0.021794842556118965, "yaw": -1.5232254266738892}, "local_position": {"x": null, "y": null, "z": null}, "status": {"flags": 135, "velocity_variance": 0.0, "pos_horiz_variance": 0.005872897803783417, "pos_vert_variance": 0.09120352566242218}}, "errors": ["u-blox 1 HW: 00070000 SW: 1.00 (59842)"]}
{"timestamp": "2026-01-29T12:46:38.265453Z", "telemetry": {"lat": 13.3543439, "lon": 74.8647744, "satellites": 5, "altitude_gps_m": 44.93000030517578, "groundspeed_mps": 0.04865513741970062}, "flight": {"mode": "STABILIZE", "armed": false}, "ekf": {"attitude": {"roll": -0.03118206560611725, "pitch": -0.022135546430945396, "yaw": -1.5255545377731323}, "local_position": {"x": null, "y": null, "z": null}, "status": {"flags": 135, "velocity_variance": 0.0, "pos_horiz_variance": 0.007339512929320335, "pos_vert_variance": 0.03039858303964138}}, "errors": ["u-blox 1 HW: 00070000 SW: 1.00 (59842)"]}
{"timestamp": "2026-01-29T12:46:39.310550Z", "telemetry": {"lat": 13.3543434, "lon": 74.8647768, "satellites": 5, "altitude_gps_m": 45.34000015258789, "groundspeed_mps": 0.053496312350034714}, "flight": {"mode": "STABILIZE", "armed": false}, "ekf": {"attitude": {"roll": -0.031191108748316765, "pitch": -0.022395102307200432, "yaw": -1.526336669921875}, "local_position": {"x": null, "y": null, "z": null}, "status": {"flags": 135, "velocity_variance": 0.0, "pos_horiz_variance": 0.009898955933749676, "pos_vert_variance": 0.07248708605766296}}, "errors": ["u-blox 1 HW: 00070000 SW: 1.00 (59842)"]}
{"timestamp": "2026-01-29T12:46:40.346051Z", "telemetry": {"lat": 13.3543425, "lon": 74.8647768, "satellites": 5, "altitude_gps_m": 45.96999740600586, "groundspeed_mps": 0.05921636149287224}, "flight": {"mode": "STABILIZE", "armed": false}, "ekf": {"attitude": {"roll": -0.031259626150131226, "pitch": -0.02267884835600853, "yaw": -1.5271424055099487}, "local_position": {"x": null, "y": null, "z": null}, "status": {"flags": 135, "velocity_variance": 0.0, "pos_horiz_variance": 0.011437445878982544, "pos_vert_variance": 0.07233097404241562}}, "errors": ["u-blox 1 HW: 00070000 SW: 1.00 (59842)"]}
{"timestamp": "2026-01-29T12:46:41.345818Z", "telemetry": {"lat": 13.3543427, "lon": 74.8647772, "satellites": 5, "altitude_gps_m": 46.28999710083008, "groundspeed_mps": 0.06717601418495178}, "flight": {"mode": "STABILIZE", "armed": false}, "ekf": {"attitude": {"roll": -0.03126073628664017, "pitch": -0.022916339337825775, "yaw": -1.5272542238235474}, "local_position": {"x": null, "y": null, "z": null}, "status": {"flags": 135, "velocity_variance": 0.0, "pos_horiz_variance": 0.013074600137770176, "pos_vert_variance": 0.04150761663913727}}, "errors": ["u-blox 1 HW: 00070000 SW: 1.00 (59842)"]}
{"timestamp": "2026-01-29T12:46:42.346389Z", "telemetry": {"lat": 13.3543432, "lon": 74.8647768, "satellites": 5, "altitude_gps_m": 46.96999740600586, "groundspeed_mps": 0.07838750630617142}, "flight": {"mode": "STABILIZE", "armed": false}, "ekf": {"attitude": {"roll": -0.031191762536764145, "pitch": -0.023413801565766335, "yaw": -1.5288610458374023}, "local_position": {"x": null, "y": null, "z": null}, "status": {"flags": 135, "velocity_variance": 0.0, "pos_horiz_variance": 0.01515108160674572, "pos_vert_variance": 0.04382822662591934}}, "errors": ["u-blox 1 HW: 00070000 SW: 1.00 (59842)"]}
{"timestamp": "2026-01-29T12:46:43.345558Z", "telemetry": {"lat": 13.3543438, "lon": 74.8647768, "satellites": 5, "altitude_gps_m": 47.18000030517578, "groundspeed_mps": 0.0846915915608406}, "flight": {"mode": "STABILIZE", "armed": false}, "ekf": {"attitude": {"roll": -0.031120995059609413, "pitch": -0.023787427693605423, "yaw": -1.5288095474243164}, "local_position": {"x": null, "y": null, "z": null}, "status": {"flags": 135, "velocity_variance": 0.0, "pos_horiz_variance": 0.018590746447443962, "pos_vert_variance": 0.03783933445811272}}, "errors": ["u-blox 1 HW: 00070000 SW: 1.00 (59842)"]}
{"timestamp": "2026-01-29T12:46:44.346144Z", "telemetry": {"lat": 13.3543441, "lon": 74.8647767, "satellites": 5, "altitude_gps_m": 47.28999710083008, "groundspeed_mps": 0.09316937625408173}, "flight": {"mode": "STABILIZE", "armed": false}, "ekf": {"attitude": {"roll": -0.031197350472211838, "pitch": -0.023966506123542786, "yaw": -1.5297213792800903}, "local_position": {"x": null, "y": null, "z": null}, "status": {"flags": 135, "velocity_variance": 0.0, "pos_horiz_variance": 0.020764853805303574, "pos_vert_variance": 0.02824772335588932}}, "errors": ["u-blox 1 HW: 00070000 SW: 1.00 (59842)"]}
{"timestamp": "2026-01-29T12:46:45.345458Z", "telemetry": {"lat": 13.3543441, "lon": 74.8647767, "satellites": 5, "altitude_gps_m": 47.28999710083008, "groundspeed_mps": 0.09316937625408173}, "flight": {"mode": "STABILIZE", "armed": false}, "ekf": {"attitude": {"roll": -0.031197350472211838, "pitch": -0.023966506123542786, "yaw": -1.5297213792800903}, "local_position": {"x": null, "y": null, "z": null}, "status": {"flags": 135, "velocity_variance": 0.0, "pos_horiz_variance": 0.020764853805303574, "pos_vert_variance": 0.02824772335588932}}, "errors": ["u-blox 1 HW: 00070000 SW: 1.00 (59842)", "PreArm: Hardware safety switch", "PreArm: Compasses inconsistent"]}
{"timestamp": "2026-01-29T12:46:46.346097Z", "telemetry": {"lat": 13.3543457, "lon": 74.8647765, "satellites": 5, "altitude_gps_m": 47.48999786376953, "groundspeed_mps": 0.10851193964481354}, "flight": {"mode": "STABILIZE", "armed": false}, "ekf": {"attitude": {"roll": -0.031393423676490784, "pitch": -0.02445274218916893, "yaw": -1.5294561386108398}, "local_position": {"x": null, "y": null, "z": null}, "status": {"flags": 135, "velocity_variance": 0.0, "pos_horiz_variance": 0.025247415527701378, "pos_vert_variance": 0.06112522631883621}}, "errors": ["u-blox 1 HW: 00070000 SW: 1.00 (59842)", "PreArm: Hardware safety switch", "PreArm: Compasses inconsistent"]}
{"timestamp": "2026-01-29T12:46:47.344925Z", "telemetry": {"lat": 13.3543462, "lon": 74.8647769, "satellites": 5, "altitude_gps_m": 47.46999740600586, "groundspeed_mps": 0.11597049981355667}, "flight": {"mode": "STABILIZE", "armed": false}, "ekf": {"attitude": {"roll": -0.03151029720902443, "pitch": -0.024759899824857712, "yaw": -1.5298744440078735}, "local_position": {"x": null, "y": null, "z": null}, "status": {"flags": 135, "velocity_variance": 0.0, "pos_horiz_variance": 0.027767833322286606, "pos_vert_variance": 0.08545898646116257}}, "errors": ["u-blox 1 HW: 00070000 SW: 1.00 (59842)", "PreArm: Hardware safety switch", "PreArm: Compasses inconsistent"]}
{"timestamp": "2026-01-29T12:46:48.344975Z", "telemetry": {"lat": 13.3543467, "lon": 74.8647772, "satellites": 5, "altitude_gps_m": 47.53999710083008, "groundspeed_mps": 0.12046683579683304}, "flight": {"mode": "STABILIZE", "armed": false}, "ekf": {"attitude": {"roll": -0.03143332153558731, "pitch": -0.024919262155890465, "yaw": -1.5289300680160522}, "local_position": {"x": null, "y": null, "z": null}, "status": {"flags": 135, "velocity_variance": 0.0, "pos_horiz_variance": 0.029765931889414787, "pos_vert_variance": 0.008366682566702366}}, "errors": ["u-blox 1 HW: 00070000 SW: 1.00 (59842)", "PreArm: Hardware safety switch", "PreArm: Compasses inconsistent"]}
{"timestamp": "2026-01-29T12:46:49.344829Z", "telemetry": {"lat": 13.354347, "lon": 74.8647779, "satellites": 5, "altitude_gps_m": 47.599998474121094, "groundspeed_mps": 0.12828785181045532}, "flight": {"mode": "STABILIZE", "armed": false}, "ekf": {"attitude": {"roll": -0.03131765127182007, "pitch": -0.025225963443517685, "yaw": -1.5290298461914062}, "local_position": {"x": null, "y": null, "z": null}, "status": {"flags": 135, "velocity_variance": 0.0, "pos_horiz_variance": 0.031802721321582794, "pos_vert_variance": 0.018787218257784843}}, "errors": ["u-blox 1 HW: 00070000 SW: 1.00 (59842)", "PreArm: Hardware safety switch", "PreArm: Compasses inconsistent"]}
{"timestamp": "2026-01-29T12:46:50.344867Z", "telemetry": {"lat": 13.3543481, "lon": 74.8647784, "satellites": 5, "altitude_gps_m": 47.459999084472656, "groundspeed_mps": 0.13471895456314087}, "flight": {"mode": "STABILIZE", "armed": false}, "ekf": {"attitude": {"roll": -0.031252555549144745, "pitch": -0.025662055239081383, "yaw": -1.5288270711898804}, "local_position": {"x": null, "y": null, "z": null}, "status": {"flags": 135, "velocity_variance": 0.0, "pos_horiz_variance": 0.03395749256014824, "pos_vert_variance": 0.10830515623092651}}, "errors": ["u-blox 1 HW: 00070000 SW: 1.00 (59842)", "PreArm: Hardware safety switch", "PreArm: Compasses inconsistent"]}
{"timestamp": "2026-01-29T12:46:51.344760Z", "telemetry": {"lat": 13.3543489, "lon": 74.8647782, "satellites": 5, "altitude_gps_m": 47.32999801635742, "groundspeed_mps": 0.14271461963653564}, "flight": {"mode": "STABILIZE", "armed": false}, "ekf": {"attitude": {"roll": -0.03134319931268692, "pitch": -0.02592828869819641, "yaw": -1.5289714336395264}, "local_position": {"x": null, "y": null, "z": null}, "status": {"flags": 135, "velocity_variance": 0.0, "pos_horiz_variance": 0.0362822487950325, "pos_vert_variance": 0.08459121733903885}}, "errors": ["u-blox 1 HW: 00070000 SW: 1.00 (59842)", "PreArm: Hardware safety switch", "PreArm: Compasses inconsistent"]}
{"timestamp": "2026-01-29T12:46:52.344425Z", "telemetry": {"lat": 13.3543501, "lon": 74.8647781, "satellites": 5, "altitude_gps_m": 47.07999801635742, "groundspeed_mps": 0.15275053679943085}, "flight": {"mode": "STABILIZE", "armed": false}, "ekf": {"attitude": {"roll": -0.03126215562224388, "pitch": -0.026457911357283592, "yaw": -1.5287326574325562}, "local_position": {"x": null, "y": null, "z": null}, "status": {"flags": 135, "velocity_variance": 0.0, "pos_horiz_variance": 0.03945579007267952, "pos_vert_variance": 0.06472834944725037}}, "errors": ["u-blox 1 HW: 00070000 SW: 1.00 (59842)", "PreArm: Hardware safety switch", "PreArm: Compasses inconsistent"]}
{"timestamp": "2026-01-29T12:46:53.344561Z", "telemetry": {"lat": 13.3543504, "lon": 74.864778, "satellites": 5, "altitude_gps_m": 46.869998931884766, "groundspeed_mps": 0.1633654683828354}, "flight": {"mode": "STABILIZE", "armed": false}, "ekf": {"attitude": {"roll": -0.031219322234392166, "pitch": -0.026784874498844147, "yaw": -1.5293844938278198}, "local_position": {"x": null, "y": null, "z": null}, "status": {"flags": 135, "velocity_variance": 0.0, "pos_horiz_variance": 0.04148535057902336, "pos_vert_variance": 0.012675439938902855}}, "errors": ["u-blox 1 HW: 00070000 SW: 1.00 (59842)", "PreArm: Hardware safety switch", "PreArm: Compasses inconsistent"]}
{"timestamp": "2026-01-29T12:46:54.344917Z", "telemetry": {"lat": 13.354351, "lon": 74.8647776, "satellites": 5, "altitude_gps_m": 46.70000076293945, "groundspeed_mps": 0.17169351875782013}, "flight": {"mode": "STABILIZE", "armed": false}, "ekf": {"attitude": {"roll": -0.031189516186714172, "pitch": -0.02719063125550747, "yaw": -1.5289456844329834}, "local_position": {"x": null, "y": null, "z": null}, "status": {"flags": 135, "velocity_variance": 0.0, "pos_horiz_variance": 0.04372265934944153, "pos_vert_variance": 0.04754842072725296}}, "errors": ["u-blox 1 HW: 00070000 SW: 1.00 (59842)", "PreArm: Hardware safety switch", "PreArm: Compasses inconsistent"]}
{"timestamp": "2026-01-29T12:46:55.344141Z", "telemetry": {"lat": 13.3543511, "lon": 74.8647774, "satellites": 5, "altitude_gps_m": 46.61000061035156, "groundspeed_mps": 0.17760711908340454}, "flight": {"mode": "STABILIZE", "armed": false}, "ekf": {"attitude": {"roll": -0.03113492578268051, "pitch": -0.027484452351927757, "yaw": -1.5293140411376953}, "local_position": {"x": null, "y": null, "z": null}, "status": {"flags": 135, "velocity_variance": 0.0, "pos_horiz_variance": 0.04605482146143913, "pos_vert_variance": 0.0304830614477396}}, "errors": ["u-blox 1 HW: 00070000 SW: 1.00 (59842)", "PreArm: Hardware safety switch", "PreArm: Compasses inconsistent"]}
{"timestamp": "2026-01-29T12:46:56.344451Z", "telemetry": {"lat": 13.3543513, "lon": 74.8647773, "satellites": 5, "altitude_gps_m": 46.41999816894531, "groundspeed_mps": 0.19021350145339966}, "flight": {"mode": "STABILIZE", "armed": false}, "ekf": {"attitude": {"roll": -0.031161414459347725, "pitch": -0.027872178703546524, "yaw": -1.529563546180725}, "local_position": {"x": null, "y": null, "z": null}, "status": {"flags": 135, "velocity_variance": 0.0, "pos_horiz_variance": 0.04849327728152275, "pos_vert_variance": 0.005325336940586567}}, "errors": ["u-blox 1 HW: 00070000 SW: 1.00 (59842)", "PreArm: Hardware safety switch", "PreArm: Compasses inconsistent"]}
{"timestamp": "2026-01-29T12:46:57.344323Z", "telemetry": {"lat": 13.3543517, "lon": 74.8647775, "satellites": 5, "altitude_gps_m": 46.2599983215332, "groundspeed_mps": 0.1969330757856369}, "flight": {"mode": "STABILIZE", "armed": false}, "ekf": {"attitude": {"roll": -0.031213952228426933, "pitch": -0.028233293443918228, "yaw": -1.5295096635818481}, "local_position": {"x": null, "y": null, "z": null}, "status": {"flags": 135, "velocity_variance": 0.0, "pos_horiz_variance": 0.05102076381444931, "pos_vert_variance": 0.021220462396740913}}, "errors": ["u-blox 1 HW: 00070000 SW: 1.00 (59842)", "PreArm: Hardware safety switch", "PreArm: Compasses inconsistent"]}
{"timestamp": "2026-01-29T12:46:58.340158Z", "telemetry": {"lat": 13.3543525, "lon": 74.8647769, "satellites": 5, "altitude_gps_m": 45.96999740600586, "groundspeed_mps": 0.20693263411521912}, "flight": {"mode": "STABILIZE", "armed": false}, "ekf": {"attitude": {"roll": -0.03128483146429062, "pitch": -0.028413163498044014, "yaw": -1.5294578075408936}, "local_position": {"x": null, "y": null, "z": null}, "status": {"flags": 135, "velocity_variance": 0.0, "pos_horiz_variance": 0.05370334908366203, "pos_vert_variance": 0.09960707277059555}}, "errors": ["u-blox 1 HW: 00070000 SW: 1.00 (59842)", "PreArm: Hardware safety switch", "PreArm: Compasses inconsistent"]}
{"timestamp": "2026-01-29T12:46:59.343641Z", "telemetry": {"lat": 13.3543526, "lon": 74.8647761, "satellites": 5, "altitude_gps_m": 45.70000076293945, "groundspeed_mps": 0.2182505577802658}, "flight": {"mode": "STABILIZE", "armed": false}, "ekf": {"attitude": {"roll": -0.031199680641293526, "pitch": -0.028665557503700256, "yaw": -1.5286012887954712}, "local_position": {"x": null, "y": null, "z": null}, "status": {"flags": 135, "velocity_variance": 0.0, "pos_horiz_variance": 0.056509386748075485, "pos_vert_variance": 0.08991877734661102}}, "errors": ["u-blox 1 HW: 00070000 SW: 1.00 (59842)", "PreArm: Hardware safety switch", "PreArm: Compasses inconsistent"]}
{"timestamp": "2026-01-29T12:47:00.344203Z", "telemetry": {"lat": 13.3543535, "lon": 74.8647753, "satellites": 5, "altitude_gps_m": 45.599998474121094, "groundspeed_mps": 0.22295503318309784}, "flight": {"mode": "STABILIZE", "armed": false}, "ekf": {"attitude": {"roll": -0.031147368252277374, "pitch": -0.028753092512488365, "yaw": -1.5286839008331299}, "local_position": {"x": null, "y": null, "z": null}, "status": {"flags": 135, "velocity_variance": 0.0, "pos_horiz_variance": 0.058979347348213196, "pos_vert_variance": 0.02701409161090851}}, "errors": ["u-blox 1 HW: 00070000 SW: 1.00 (59842)", "PreArm: Hardware safety switch", "PreArm: Compasses inconsistent"]}
{"timestamp": "2026-01-29T12:47:01.343347Z", "telemetry": {"lat": 13.3543533, "lon": 74.8647751, "satellites": 5, "altitude_gps_m": 45.459999084472656, "groundspeed_mps": 0.2244894802570343}, "flight": {"mode": "STABILIZE", "armed": false}, "ekf": {"attitude": {"roll": -0.03106410801410675, "pitch": -0.028920158743858337, "yaw": -1.5282841920852661}, "local_position": {"x": null, "y": null, "z": null}, "status": {"flags": 135, "velocity_variance": 0.0, "pos_horiz_variance": 0.060705721378326416, "pos_vert_variance": 0.03834407404065132}}, "errors": ["u-blox 1 HW: 00070000 SW: 1.00 (59842)", "PreArm: Hardware safety switch", "PreArm: Compasses inconsistent"]}
{"timestamp": "2026-01-29T12:47:02.343165Z", "telemetry": {"lat": 13.3543522, "lon": 74.864775, "satellites": 5, "altitude_gps_m": 45.189998626708984, "groundspeed_mps": 0.22638770937919617}, "flight": {"mode": "STABILIZE", "armed": false}, "ekf": {"attitude": {"roll": -0.031101662665605545, "pitch": -0.02909880131483078, "yaw": -1.5285413265228271}, "local_position": {"x": null, "y": null, "z": null}, "status": {"flags": 135, "velocity_variance": 0.0, "pos_horiz_variance": 0.061855901032686234, "pos_vert_variance": 0.02503587305545807}}, "errors": ["u-blox 1 HW: 00070000 SW: 1.00 (59842)", "PreArm: Hardware safety switch", "PreArm: Compasses inconsistent"]}
{"timestamp": "2026-01-29T12:47:03.343630Z", "telemetry": {"lat": 13.3543518, "lon": 74.8647744, "satellites": 5, "altitude_gps_m": 45.18000030517578, "groundspeed_mps": 0.22918035089969635}, "flight": {"mode": "ALT_HOLD", "armed": false}, "ekf": {"attitude": {"roll": -0.03112504631280899, "pitch": -0.029286358505487442, "yaw": -1.52826988697052}, "local_position": {"x": null, "y": null, "z": null}, "status": {"flags": 135, "velocity_variance": 0.0, "pos_horiz_variance": 0.06268003582954407, "pos_vert_variance": 0.03646424040198326}}, "errors": ["u-blox 1 HW: 00070000 SW: 1.00 (59842)", "PreArm: Hardware safety switch", "PreArm: Compasses inconsistent"]}
{"timestamp": "2026-01-29T12:47:04.342984Z", "telemetry": {"lat": 13.3543521, "lon": 74.8647735, "satellites": 5, "altitude_gps_m": 45.099998474121094, "groundspeed_mps": 0.23051020503044128}, "flight": {"mode": "ALT_HOLD", "armed": false}, "ekf": {"attitude": {"roll": -0.031165430322289467, "pitch": -0.029371153563261032, "yaw": -1.527855634689331}, "local_position": {"x": null, "y": null, "z": null}, "status": {"flags": 135, "velocity_variance": 0.0, "pos_horiz_variance": 0.0635320171713829, "pos_vert_variance": 0.04667108505964279}}, "errors": ["u-blox 1 HW: 00070000 SW: 1.00 (59842)", "PreArm: Hardware safety switch", "PreArm: Compasses inconsistent"]}
{"timestamp": "2026-01-29T12:47:05.343194Z", "telemetry": {"lat": 13.3543516, "lon": 74.8647723, "satellites": 5, "altitude_gps_m": 44.959999084472656, "groundspeed_mps": 0.23702198266983032}, "flight": {"mode": "ALT_HOLD", "armed": false}, "ekf": {"attitude": {"roll": -0.031156929209828377, "pitch": -0.029526276513934135, "yaw": -1.5283602476119995}, "local_position": {"x": null, "y": null, "z": null}, "status": {"flags": 135, "velocity_variance": 0.0, "pos_horiz_variance": 0.06453368067741394, "pos_vert_variance": 0.0933249369263649}}, "errors": ["u-blox 1 HW: 00070000 SW: 1.00 (59842)", "PreArm: Hardware safety switch", "PreArm: Compasses inconsistent"]}
{"timestamp": "2026-01-29T12:47:06.342772Z", "telemetry": {"lat": 13.3543513, "lon": 74.8647707, "satellites": 5, "altitude_gps_m": 44.84000015258789, "groundspeed_mps": 0.24082215130329132}, "flight": {"mode": "ALT_HOLD", "armed": false}, "ekf": {"attitude": {"roll": -0.031070061028003693, "pitch": -0.029634173959493637, "yaw": -1.528214931488037}, "local_position": {"x": null, "y": null, "z": null}, "status": {"flags": 135, "velocity_variance": 0.0, "pos_horiz_variance": 0.06565099209547043, "pos_vert_variance": 0.05233125388622284}}, "errors": ["u-blox 1 HW: 00070000 SW: 1.00 (59842)", "PreArm: Hardware safety switch", "PreArm: Compasses inconsistent"]}
{"timestamp": "2026-01-29T12:47:07.342600Z", "telemetry": {"lat": 13.3543509, "lon": 74.8647693, "satellites": 5, "altitude_gps_m": 44.61000061035156, "groundspeed_mps": 0.2461751401424408}, "flight": {"mode": "ALT_HOLD", "armed": false}, "ekf": {"attitude": {"roll": -0.030850842595100403, "pitch": -0.02982776239514351, "yaw": -1.5280375480651855}, "local_position": {"x": null, "y": null, "z": null}, "status": {"flags": 135, "velocity_variance": 0.0, "pos_horiz_variance": 0.06681381911039352, "pos_vert_variance": 0.006141042802482843}}, "errors": ["u-blox 1 HW: 00070000 SW: 1.00 (59842)", "PreArm: Hardware safety switch", "PreArm: Compasses inconsistent"]}
{"timestamp": "2026-01-29T12:47:08.342540Z", "telemetry": {"lat": 13.3543505, "lon": 74.864768, "satellites": 5, "altitude_gps_m": 44.52000045776367, "groundspeed_mps": 0.24588441848754883}, "flight": {"mode": "ALT_HOLD", "armed": false}, "ekf": {"attitude": {"roll": -0.03077729232609272, "pitch": -0.029974447563290596, "yaw": -1.527967095375061}, "local_position": {"x": null, "y": null, "z": null}, "status": {"flags": 135, "velocity_variance": 0.0, "pos_horiz_variance": 0.06803185492753983, "pos_vert_variance": 0.08088979870080948}}, "errors": ["u-blox 1 HW: 00070000 SW: 1.00 (59842)", "PreArm: Hardware safety switch", "PreArm: Compasses inconsistent"]}
{"timestamp": "2026-01-29T12:47:09.342385Z", "telemetry": {"lat": 13.3543504, "lon": 74.8647662, "satellites": 5, "altitude_gps_m": 44.45000076293945, "groundspeed_mps": 0.2504250109195709}, "flight": {"mode": "LOITER", "armed": false}, "ekf": {"attitude": {"roll": -0.030746236443519592, "pitch": -0.030119117349386215, "yaw": -1.5274990797042847}, "local_position": {"x": null, "y": null, "z": null}, "status": {"flags": 135, "velocity_variance": 0.0, "pos_horiz_variance": 0.06869233399629593, "pos_vert_variance": 0.026690371334552765}}, "errors": ["u-blox 1 HW: 00070000 SW: 1.00 (59842)", "PreArm: Hardware safety switch", "PreArm: Compasses inconsistent"]}
{"timestamp": "2026-01-29T12:47:10.342676Z", "telemetry": {"lat": 13.3543502, "lon": 74.8647647, "satellites": 5, "altitude_gps_m": 44.36000061035156, "groundspeed_mps": 0.252468079328537}, "flight": {"mode": "LOITER", "armed": false}, "ekf": {"attitude": {"roll": -0.03068847954273224, "pitch": -0.03024158626794815, "yaw": -1.5274033546447754}, "local_position": {"x": null, "y": null, "z": null}, "status": {"flags": 135, "velocity_variance": 0.0, "pos_horiz_variance": 0.0696791410446167, "pos_vert_variance": 0.022095724940299988}}, "errors": ["u-blox 1 HW: 00070000 SW: 1.00 (59842)", "PreArm: Hardware safety switch", "PreArm: Compasses inconsistent"]}
{"timestamp": "2026-01-29T12:47:11.342117Z", "telemetry": {"lat": 13.3543509, "lon": 74.8647635, "satellites": 5, "altitude_gps_m": 44.189998626708984, "groundspeed_mps": 0.2607181668281555}, "flight": {"mode": "LOITER", "armed": false}, "ekf": {"attitude": {"roll": -0.030645810067653656, "pitch": -0.03040463477373123, "yaw": -1.5273014307022095}, "local_position": {"x": null, "y": null, "z": null}, "status": {"flags": 135, "velocity_variance": 0.0, "pos_horiz_variance": 0.07077568024396896, "pos_vert_variance": 0.005277490243315697}}, "errors": ["u-blox 1 HW: 00070000 SW: 1.00 (59842)", "PreArm: Hardware safety switch", "PreArm: Compasses inconsistent"]}
{"timestamp": "2026-01-29T12:47:12.341899Z", "telemetry": {"lat": 13.3543503, "lon": 74.8647621, "satellites": 5, "altitude_gps_m": 43.96999740600586, "groundspeed_mps": 0.26474258303642273}, "flight": {"mode": "LOITER", "armed": false}, "ekf": {"attitude": {"roll": -0.03059716522693634, "pitch": -0.030473556369543076, "yaw": -1.5271079540252686}, "local_position": {"x": null, "y": null, "z": null}, "status": {"flags": 135, "velocity_variance": 0.0, "pos_horiz_variance": 0.07216724753379822, "pos_vert_variance": 0.0055379741825163364}}, "errors": ["u-blox 1 HW: 00070000 SW: 1.00 (59842)", "PreArm: Hardware safety switch", "PreArm: Compasses inconsistent"]}
{"timestamp": "2026-01-29T12:47:13.341828Z", "telemetry": {"lat": 13.3543501, "lon": 74.8647609, "satellites": 5, "altitude_gps_m": 43.849998474121094, "groundspeed_mps": 0.2649270296096802}, "flight": {"mode": "LOITER", "armed": false}, "ekf": {"attitude": {"roll": -0.03067029081285, "pitch": -0.030369602143764496, "yaw": -1.5267055034637451}, "local_position": {"x": null, "y": null, "z": null}, "status": {"flags": 135, "velocity_variance": 0.0, "pos_horiz_variance": 0.07344599813222885, "pos_vert_variance": 0.0334923155605793}}, "errors": ["u-blox 1 HW: 00070000 SW: 1.00 (59842)", "PreArm: Hardware safety switch", "PreArm: Compasses inconsistent"]}
{"timestamp": "2026-01-29T12:47:14.342233Z", "telemetry": {"lat": 13.3543499, "lon": 74.86476, "satellites": 5, "altitude_gps_m": 43.70000076293945, "groundspeed_mps": 0.2648490071296692}, "flight": {"mode": "LOITER", "armed": false}, "ekf": {"attitude": {"roll": -0.03047104924917221, "pitch": -0.03042072430253029, "yaw": -1.5266354084014893}, "local_position": {"x": null, "y": null, "z": null}, "status": {"flags": 135, "velocity_variance": 0.0, "pos_horiz_variance": 0.07396668940782547, "pos_vert_variance": 0.026227449998259544}}, "errors": ["u-blox 1 HW: 00070000 SW: 1.00 (59842)", "PreArm: Hardware safety switch", "PreArm: Compasses inconsistent"]}
{"timestamp": "2026-01-29T12:47:15.341709Z", "telemetry": {"lat": 13.35435, "lon": 74.8647582, "satellites": 5, "altitude_gps_m": 43.61000061035156, "groundspeed_mps": 0.26566067337989807}, "flight": {"mode": "LOITER", "armed": false}, "ekf": {"attitude": {"roll": -0.030378585681319237, "pitch": -0.030559245496988297, "yaw": -1.5264098644256592}, "local_position": {"x": null, "y": null, "z": null}, "status": {"flags": 135, "velocity_variance": 0.0, "pos_horiz_variance": 0.07467593252658844, "pos_vert_variance": 0.02570645697414875}}, "errors": ["u-blox 1 HW: 00070000 SW: 1.00 (59842)", "PreArm: Hardware safety switch", "PreArm: Compasses inconsistent", "PreArm: Need Alt Estimate", "PreArm: Hardware safety switch", "PreArm: Compasses inconsistent", "PreArm: AHRS: waiting for home"]}
{"timestamp": "2026-01-29T12:47:16.341343Z", "telemetry": {"lat": 13.3543501, "lon": 74.8647564, "satellites": 5, "altitude_gps_m": 43.56999969482422, "groundspeed_mps": 0.26538965106010437}, "flight": {"mode": "LOITER", "armed": false}, "ekf": {"attitude": {"roll": -0.030316215008497238, "pitch": -0.030477069318294525, "yaw": -1.5262136459350586}, "local_position": {"x": null, "y": null, "z": null}, "status": {"flags": 135, "velocity_variance": 0.0, "pos_horiz_variance": 0.0744997188448906, "pos_vert_variance": 0.03248138725757599}}, "errors": ["u-blox 1 HW: 00070000 SW: 1.00 (59842)", "PreArm: Hardware safety switch", "PreArm: Compasses inconsistent", "PreArm: Need Alt Estimate", "PreArm: Hardware safety switch", "PreArm: Compasses inconsistent", "PreArm: AHRS: waiting for home"]}
{"timestamp": "2026-01-29T12:47:17.341949Z", "telemetry": {"lat": 13.3543498, "lon": 74.8647554, "satellites": 5, "altitude_gps_m": 43.48999786376953, "groundspeed_mps": 0.267740935087204}, "flight": {"mode": "LOITER", "armed": false}, "ekf": {"attitude": {"roll": -0.030620912089943886, "pitch": -0.030420925468206406, "yaw": -1.5261738300323486}, "local_position": {"x": null, "y": null, "z": null}, "status": {"flags": 135, "velocity_variance": 0.0, "pos_horiz_variance": 0.0746600478887558, "pos_vert_variance": 0.06309225410223007}}, "errors": ["u-blox 1 HW: 00070000 SW: 1.00 (59842)", "PreArm: Hardware safety switch", "PreArm: Compasses inconsistent", "PreArm: Need Alt Estimate", "PreArm: Hardware safety switch", "PreArm: Compasses inconsistent", "PreArm: AHRS: waiting for home"]}
{"timestamp": "2026-01-29T12:47:18.341650Z", "telemetry": {"lat": 13.354349, "lon": 74.8647549, "satellites": 5, "altitude_gps_m": 43.45000076293945, "groundspeed_mps": 0.26658502221107483}, "flight": {"mode": "LOITER", "armed": false}, "ekf": {"attitude": {"roll": -0.030588356778025627, "pitch": -0.030409034341573715, "yaw": -1.5261595249176025}, "local_position": {"x": null, "y": null, "z": null}, "status": {"flags": 135, "velocity_variance": 0.0, "pos_horiz_variance": 0.07488469779491425, "pos_vert_variance": 0.018178381025791168}}, "errors": ["u-blox 1 HW: 00070000 SW: 1.00 (59842)", "PreArm: Hardware safety switch", "PreArm: Compasses inconsistent", "PreArm: Need Alt Estimate", "PreArm: Hardware safety switch", "PreArm: Compasses inconsistent", "PreArm: AHRS: waiting for home"]}
{"timestamp": "2026-01-29T12:47:19.341415Z", "telemetry": {"lat": 13.3543482, "lon": 74.8647538, "satellites": 6, "altitude_gps_m": 43.36000061035156, "groundspeed_mps": 0.26738476753234863}, "flight": {"mode": "LOITER", "armed": false}, "ekf": {"attitude": {"roll": -0.03055430017411709, "pitch": -0.030477087944746017, "yaw": -1.5261032581329346}, "local_position": {"x": null, "y": null, "z": null}, "status": {"flags": 135, "velocity_variance": 0.0, "pos_horiz_variance": 0.07507059723138809, "pos_vert_variance": 0.03559844568371773}}, "errors": ["u-blox 1 HW: 00070000 SW: 1.00 (59842)", "PreArm: Hardware safety switch", "PreArm: Compasses inconsistent", "PreArm: Need Alt Estimate", "PreArm: Hardware safety switch", "PreArm: Compasses inconsistent", "PreArm: AHRS: waiting for home"]}
{"timestamp": "2026-01-29T12:47:20.340906Z", "telemetry": {"lat": 13.3543479, "lon": 74.864753, "satellites": 6, "altitude_gps_m": 43.41999816894531, "groundspeed_mps": 0.26986509561538696}, "flight": {"mode": "LOITER", "armed": false}, "ekf": {"attitude": {"roll": -0.030595380812883377, "pitch": -0.030320052057504654, "yaw": -1.5257294178009033}, "local_position": {"x": null, "y": null, "z": null}, "status": {"flags": 135, "velocity_variance": 0.0, "pos_horiz_variance": 0.0754312127828598, "pos_vert_variance": 0.0268445685505867}}, "errors": ["u-blox 1 HW: 00070000 SW: 1.00 (59842)", "PreArm: Hardware safety switch", "PreArm: Compasses inconsistent", "PreArm: Need Alt Estimate", "PreArm: Hardware safety switch", "PreArm: Compasses inconsistent", "PreArm: AHRS: waiting for home"]}
{"timestamp": "2026-01-29T12:47:21.340708Z", "telemetry": {"lat": 13.3543478, "lon": 74.8647531, "satellites": 6, "altitude_gps_m": 43.39999771118164, "groundspeed_mps": 0.2679189145565033}, "flight": {"mode": "LOITER", "armed": false}, "ekf": {"attitude": {"roll": -0.03054162859916687, "pitch": -0.03016897290945053, "yaw": -1.5254415273666382}, "local_position": {"x": null, "y": null, "z": null}, "status": {"flags": 135, "velocity_variance": 0.0, "pos_horiz_variance": 0.0756935328245163, "pos_vert_variance": 0.05868886783719063}}, "errors": ["u-blox 1 HW: 00070000 SW: 1.00 (59842)", "PreArm: Hardware safety switch", "PreArm: Compasses inconsistent", "PreArm: Need Alt Estimate", "PreArm: Hardware safety switch", "PreArm: Compasses inconsistent", "PreArm: AHRS: waiting for home"]}
{"timestamp": "2026-01-29T12:47:22.340587Z", "telemetry": {"lat": 13.3543476, "lon": 74.8647527, "satellites": 6, "altitude_gps_m": 43.439998626708984, "groundspeed_mps": 0.26548129320144653}, "flight": {"mode": "LOITER", "armed": false}, "ekf": {"attitude": {"roll": -0.03053874708712101, "pitch": -0.03010520711541176, "yaw": -1.5252418518066406}, "local_position": {"x": null, "y": null, "z": null}, "status": {"flags": 135, "velocity_variance": 0.0, "pos_horiz_variance": 0.07536503672599792, "pos_vert_variance": 0.06101010739803314}}, "errors": ["u-blox 1 HW: 00070000 SW: 1.00 (59842)", "PreArm: Hardware safety switch", "PreArm: Compasses inconsistent", "PreArm: Need Alt Estimate", "PreArm: Hardware safety switch", "PreArm: Compasses inconsistent", "PreArm: AHRS: waiting for home"]}
{"timestamp": "2026-01-29T12:47:23.340427Z", "telemetry": {"lat": 13.354347, "lon": 74.8647525, "satellites": 6, "altitude_gps_m": 43.45000076293945, "groundspeed_mps": 0.26395487785339355}, "flight": {"mode": "LOITER", "armed": false}, "ekf": {"attitude": {"roll": -0.030465198680758476, "pitch": -0.030161164700984955, "yaw": -1.5253050327301025}, "local_position": {"x": null, "y": null, "z": null}, "status": {"flags": 135, "velocity_variance": 0.0, "pos_horiz_variance": 0.07489560544490814, "pos_vert_variance": 0.0502728670835495}}, "errors": ["u-blox 1 HW: 00070000 SW: 1.00 (59842)", "PreArm: Hardware safety switch", "PreArm: Compasses inconsistent", "PreArm: Need Alt Estimate", "PreArm: Hardware safety switch", "PreArm: Compasses inconsistent", "PreArm: AHRS: waiting for home"]}
{"timestamp": "2026-01-29T12:47:24.340407Z", "telemetry": {"lat": 13.3543471, "lon": 74.8647531, "satellites": 6, "altitude_gps_m": 43.38999938964844, "groundspeed_mps": 0.2629120349884033}, "flight": {"mode": "LOITER", "armed": false}, "ekf": {"attitude": {"roll": -0.03046748973429203, "pitch": -0.030041582882404327, "yaw": -1.525092601776123}, "local_position": {"x": null, "y": null, "z": null}, "status": {"flags": 135, "velocity_variance": 0.0, "pos_horiz_variance": 0.07459011673927307, "pos_vert_variance": 0.025508848950266838}}, "errors": ["u-blox 1 HW: 00070000 SW: 1.00 (59842)", "PreArm: Hardware safety switch", "PreArm: Compasses inconsistent", "PreArm: Need Alt Estimate", "PreArm: Hardware safety switch", "PreArm: Compasses inconsistent", "PreArm: AHRS: waiting for home"]}
{"timestamp": "2026-01-29T12:47:25.340186Z", "telemetry": {"lat": 13.354347, "lon": 74.8647538, "satellites": 6, "altitude_gps_m": 43.39999771118164, "groundspeed_mps": 0.259419322013855}, "flight": {"mode": "LOITER", "armed": false}, "ekf": {"attitude": {"roll": -0.030946090817451477, "pitch": -0.029665740206837654, "yaw": -1.524661898612976}, "local_position": {"x": null, "y": null, "z": null}, "status": {"flags": 135, "velocity_variance": 0.0, "pos_horiz_variance": 0.07426655292510986, "pos_vert_variance": 0.0777038186788559}}, "errors": ["u-blox 1 HW: 00070000 SW: 1.00 (59842)", "PreArm: Hardware safety switch", "PreArm: Compasses inconsistent", "PreArm: Need Alt Estimate", "PreArm: Hardware safety switch", "PreArm: Compasses inconsistent", "PreArm: AHRS: waiting for home"]}
{"timestamp": "2026-01-29T12:47:26.340149Z", "telemetry": {"lat": 13.3543478, "lon": 74.8647538, "satellites": 6, "altitude_gps_m": 43.459999084472656, "groundspeed_mps": 0.25897642970085144}, "flight": {"mode": "LOITER", "armed": false}, "ekf": {"attitude": {"roll": -0.033452972769737244, "pitch": -0.03076559491455555, "yaw": -1.5236724615097046}, "local_position": {"x": null, "y": null, "z": null}, "status": {"flags": 135, "velocity_variance": 0.0, "pos_horiz_variance": 0.07369079440832138, "pos_vert_variance": 0.009772166609764099}}, "errors": ["u-blox 1 HW: 00070000 SW: 1.00 (59842)", "PreArm: Hardware safety switch", "PreArm: Compasses inconsistent", "PreArm: Need Alt Estimate", "PreArm: Hardware safety switch", "PreArm: Compasses inconsistent", "PreArm: AHRS: waiting for home"]}
{"timestamp": "2026-01-29T12:47:27.339965Z", "telemetry": {"lat": 13.3543486, "lon": 74.8647537, "satellites": 6, "altitude_gps_m": 43.70000076293945, "groundspeed_mps": 0.2582557201385498}, "flight": {"mode": "LOITER", "armed": false}, "ekf": {"attitude": {"roll": -0.0310369823127985, "pitch": -0.030429396778345108, "yaw": -1.5235121250152588}, "local_position": {"x": null, "y": null, "z": null}, "status": {"flags": 135, "velocity_variance": 0.0, "pos_horiz_variance": 0.0732211247086525, "pos_vert_variance": 0.033579304814338684}}, "errors": ["u-blox 1 HW: 00070000 SW: 1.00 (59842)", "PreArm: Hardware safety switch", "PreArm: Compasses inconsistent", "PreArm: Need Alt Estimate", "PreArm: Hardware safety switch", "PreArm: Compasses inconsistent", "PreArm: AHRS: waiting for home"]}
{"timestamp": "2026-01-29T12:47:28.340016Z", "telemetry": {"lat": 13.3543486, "lon": 74.8647531, "satellites": 6, "altitude_gps_m": 43.86000061035156, "groundspeed_mps": 0.2559407353401184}, "flight": {"mode": "LOITER", "armed": false}, "ekf": {"attitude": {"roll": -0.030842656269669533, "pitch": -0.030274659395217896, "yaw": -1.523141622543335}, "local_position": {"x": null, "y": null, "z": null}, "status": {"flags": 135, "velocity_variance": 0.0, "pos_horiz_variance": 0.07263953983783722, "pos_vert_variance": 0.1455739140510559}}, "errors": ["u-blox 1 HW: 00070000 SW: 1.00 (59842)", "PreArm: Hardware safety switch", "PreArm: Compasses inconsistent", "PreArm: Need Alt Estimate", "PreArm: Hardware safety switch", "PreArm: Compasses inconsistent", "PreArm: AHRS: waiting for home"]}
{"timestamp": "2026-01-29T12:47:29.340182Z", "telemetry": {"lat": 13.3543486, "lon": 74.8647534, "satellites": 6, "altitude_gps_m": 44.119998931884766, "groundspeed_mps": 0.25861823558807373}, "flight": {"mode": "LOITER", "armed": false}, "ekf": {"attitude": {"roll": -0.03060518577694893, "pitch": -0.030178295448422432, "yaw": -1.5231119394302368}, "local_position": {"x": null, "y": null, "z": null}, "status": {"flags": 135, "velocity_variance": 0.0, "pos_horiz_variance": 0.07257264107465744, "pos_vert_variance": 0.03378501161932945}}, "errors": ["u-blox 1 HW: 00070000 SW: 1.00 (59842)", "PreArm: Hardware safety switch", "PreArm: Compasses inconsistent", "PreArm: Need Alt Estimate", "PreArm: Hardware safety switch", "PreArm: Compasses inconsistent", "PreArm: AHRS: waiting for home"]}
{"timestamp": "2026-01-29T12:47:30.340217Z", "telemetry": {"lat": 13.3543483, "lon": 74.8647544, "satellites": 6, "altitude_gps_m": 44.70000076293945, "groundspeed_mps": 0.25730374455451965}, "flight": {"mode": "LOITER", "armed": false}, "ekf": {"attitude": {"roll": -0.030477972701191902, "pitch": -0.03020182065665722, "yaw": -1.523260474205017}, "local_position": {"x": null, "y": null, "z": null}, "status": {"flags": 135, "velocity_variance": 0.0, "pos_horiz_variance": 0.07275956124067307, "pos_vert_variance": 0.024133887141942978}}, "errors": ["u-blox 1 HW: 00070000 SW: 1.00 (59842)", "PreArm: Hardware safety switch", "PreArm: Compasses inconsistent", "PreArm: Need Alt Estimate", "PreArm: Hardware safety switch", "PreArm: Compasses inconsistent", "PreArm: AHRS: waiting for home"]}
{"timestamp": "2026-01-29T12:47:31.380629Z", "telemetry": {"lat": 13.3543472, "lon": 74.864755, "satellites": 6, "altitude_gps_m": 44.7599983215332, "groundspeed_mps": 0.2579345107078552}, "flight": {"mode": "LOITER", "armed": false}, "ekf": {"attitude": {"roll": -0.030193516984581947, "pitch": -0.030212171375751495, "yaw": -1.523220419883728}, "local_position": {"x": null, "y": null, "z": null}, "status": {"flags": 135, "velocity_variance": 0.0, "pos_horiz_variance": 0.07264367491006851, "pos_vert_variance": 0.047100938856601715}}, "errors": ["u-blox 1 HW: 00070000 SW: 1.00 (59842)", "PreArm: Hardware safety switch", "PreArm: Compasses inconsistent", "PreArm: Need Alt Estimate", "PreArm: Hardware safety switch", "PreArm: Compasses inconsistent", "PreArm: AHRS: waiting for home"]}
{"timestamp": "2026-01-29T12:47:32.338870Z", "telemetry": {"lat": 13.3543476, "lon": 74.864755, "satellites": 6, "altitude_gps_m": 44.619998931884766, "groundspeed_mps": 0.2614806890487671}, "flight": {"mode": "LOITER", "armed": false}, "ekf": {"attitude": {"roll": -0.030068958178162575, "pitch": -0.030289925634860992, "yaw": -1.5233955383300781}, "local_position": {"x": null, "y": null, "z": null}, "status": {"flags": 135, "velocity_variance": 0.0, "pos_horiz_variance": 0.07287666946649551, "pos_vert_variance": 0.006926350295543671}}, "errors": ["u-blox 1 HW: 00070000 SW: 1.00 (59842)", "PreArm: Hardware safety switch", "PreArm: Compasses inconsistent", "PreArm: Need Alt Estimate", "PreArm: Hardware safety switch", "PreArm: Compasses inconsistent", "PreArm: AHRS: waiting for home"]}
{"timestamp": "2026-01-29T12:47:33.339818Z", "telemetry": {"lat": 13.3543472, "lon": 74.8647563, "satellites": 6, "altitude_gps_m": 44.96999740600586, "groundspeed_mps": 0.26340383291244507}, "flight": {"mode": "LOITER", "armed": false}, "ekf": {"attitude": {"roll": -0.030047236010432243, "pitch": -0.030240805819630623, "yaw": -1.523267149925232}, "local_position": {"x": null, "y": null, "z": null}, "status": {"flags": 135, "velocity_variance": 0.0, "pos_horiz_variance": 0.07327738404273987, "pos_vert_variance": 0.05174684897065163}}, "errors": ["u-blox 1 HW: 00070000 SW: 1.00 (59842)", "PreArm: Hardware safety switch", "PreArm: Compasses inconsistent", "PreArm: Need Alt Estimate", "PreArm: Hardware safety switch", "PreArm: Compasses inconsistent", "PreArm: AHRS: waiting for home"]}
{"timestamp": "2026-01-29T12:47:34.339498Z", "telemetry": {"lat": 13.354347, "lon": 74.8647587, "satellites": 6, "altitude_gps_m": 45.34000015258789, "groundspeed_mps": 0.2642487585544586}, "flight": {"mode": "LOITER", "armed": false}, "ekf": {"attitude": {"roll": -0.030110731720924377, "pitch": -0.030232857912778854, "yaw": -1.5232696533203125}, "local_position": {"x": null, "y": null, "z": null}, "status": {"flags": 135, "velocity_variance": 0.0, "pos_horiz_variance": 0.07380948960781097, "pos_vert_variance": 0.003823879174888134}}, "errors": ["u-blox 1 HW: 00070000 SW: 1.00 (59842)", "PreArm: Hardware safety switch", "PreArm: Compasses inconsistent", "PreArm: Need Alt Estimate", "PreArm: Hardware safety switch", "PreArm: Compasses inconsistent", "PreArm: AHRS: waiting for home", "Arm: Need Alt Estimate", "Arm: Compasses inconsistent", "Arm: AHRS: waiting for home"]}
{"timestamp": "2026-01-29T12:47:35.338863Z", "telemetry": {"lat": 13.3543465, "lon": 74.8647598, "satellites": 6, "altitude_gps_m": 45.48999786376953, "groundspeed_mps": 0.09239072352647781}, "flight": {"mode": "LOITER", "armed": false}, "ekf": {"attitude": {"roll": -0.030170267447829247, "pitch": -0.030800210312008858, "yaw": -1.522729754447937}, "local_position": {"x": -0.04887897148728371, "y": 0.053372230380773544, "z": 0.11530054360628128}, "status": {"flags": 831, "velocity_variance": 0.024249641224741936, "pos_horiz_variance": 0.0004874010046478361, "pos_vert_variance": 0.0033902707509696484}}, "errors": ["u-blox 1 HW: 00070000 SW: 1.00 (59842)", "PreArm: Hardware safety switch", "PreArm: Compasses inconsistent", "PreArm: Need Alt Estimate", "PreArm: Hardware safety switch", "PreArm: Compasses inconsistent", "PreArm: AHRS: waiting for home", "Arm: Need Alt Estimate", "Arm: Compasses inconsistent", "Arm: AHRS: waiting for home", "EKF3 IMU0 origin set", "EKF3 IMU0 is using GPS", "EKF3 IMU1 origin set", "EKF3 IMU1 is using GPS", "Field Elevation Set: 46m"]}
{"timestamp": "2026-01-29T12:47:36.339433Z", "telemetry": {"lat": 13.3543475, "lon": 74.8647598, "satellites": 6, "altitude_gps_m": 45.5099983215332, "groundspeed_mps": 0.10103516280651093}, "flight": {"mode": "LOITER", "armed": false}, "ekf": {"attitude": {"roll": -0.03014652617275715, "pitch": -0.03293666988611221, "yaw": -1.5224699974060059}, "local_position": {"x": 0.001370169222354889, "y": 0.02043941430747509, "z": 0.020925331860780716}, "status": {"flags": 831, "velocity_variance": 0.08274242281913757, "pos_horiz_variance": 0.0044799186289310455, "pos_vert_variance": 0.021659938618540764}}, "errors": ["u-blox 1 HW: 00070000 SW: 1.00 (59842)", "PreArm: Hardware safety switch", "PreArm: Compasses inconsistent", "PreArm: Need Alt Estimate", "PreArm: Hardware safety switch", "PreArm: Compasses inconsistent", "PreArm: AHRS: waiting for home", "Arm: Need Alt Estimate", "Arm: Compasses inconsistent", "Arm: AHRS: waiting for home", "EKF3 IMU0 origin set", "EKF3 IMU0 is using GPS", "EKF3 IMU1 origin set", "EKF3 IMU1 is using GPS", "Field Elevation Set: 46m"]}
{"timestamp": "2026-01-29T12:47:37.338107Z", "telemetry": {"lat": 13.3543471, "lon": 74.8647592, "satellites": 6, "altitude_gps_m": 45.52000045776367, "groundspeed_mps": 0.17467622458934784}, "flight": {"mode": "LOITER", "armed": false}, "ekf": {"attitude": {"roll": -0.030229315161705017, "pitch": -0.03436588868498802, "yaw": -1.5226274728775024}, "local_position": {"x": 0.0427488312125206, "y": -0.07904654741287231, "z": 0.01905231922864914}, "status": {"flags": 831, "velocity_variance": 0.017569156363606453, "pos_horiz_variance": 0.0013988229911774397, "pos_vert_variance": 0.0065811630338430405}}, "errors": ["u-blox 1 HW: 00070000 SW: 1.00 (59842)", "PreArm: Hardware safety switch", "PreArm: Compasses inconsistent", "PreArm: Need Alt Estimate", "PreArm: Hardware safety switch", "PreArm: Compasses inconsistent", "PreArm: AHRS: waiting for home", "Arm: Need Alt Estimate", "Arm: Compasses inconsistent", "Arm: AHRS: waiting for home", "EKF3 IMU0 origin set", "EKF3 IMU0 is using GPS", "EKF3 IMU1 origin set", "EKF3 IMU1 is using GPS", "Field Elevation Set: 46m"]}
{"timestamp": "2026-01-29T12:47:38.338555Z", "telemetry": {"lat": 13.3543475, "lon": 74.8647587, "satellites": 6, "altitude_gps_m": 45.59000015258789, "groundspeed_mps": 0.3040972650051117}, "flight": {"mode": "LOITER", "armed": false}, "ekf": {"attitude": {"roll": -0.03012118674814701, "pitch": -0.03600291162729263, "yaw": -1.5224305391311646}, "local_position": {"x": 0.06109069660305977, "y": -0.2610263526439667, "z": -0.03272206336259842}, "status": {"flags": 831, "velocity_variance": 0.09313154220581055, "pos_horiz_variance": 0.005947692785412073, "pos_vert_variance": 0.00420752540230751}}, "errors": ["u-blox 1 HW: 00070000 SW: 1.00 (59842)", "PreArm: Hardware safety switch", "PreArm: Compasses inconsistent", "PreArm: Need Alt Estimate", "PreArm: Hardware safety switch", "PreArm: Compasses inconsistent", "PreArm: AHRS: waiting for home", "Arm: Need Alt Estimate", "Arm: Compasses inconsistent", "Arm: AHRS: waiting for home", "EKF3 IMU0 origin set", "EKF3 IMU0 is using GPS", "EKF3 IMU1 origin set", "EKF3 IMU1 is using GPS", "Field Elevation Set: 46m"]}
{"timestamp": "2026-01-29T12:47:39.337906Z", "telemetry": {"lat": 13.3543483, "lon": 74.8647588, "satellites": 6, "altitude_gps_m": 45.66999816894531, "groundspeed_mps": 0.3484874665737152}, "flight": {"mode": "LOITER", "armed": false}, "ekf": {"attitude": {"roll": -0.030256398022174835, "pitch": -0.03594261407852173, "yaw": -1.522599458694458}, "local_position": {"x": 0.07339585572481155, "y": -0.36580783128738403, "z": -0.12545405328273773}, "status": {"flags": 831, "velocity_variance": 0.1585814356803894, "pos_horiz_variance": 0.013654584065079689, "pos_vert_variance": 0.01349713560193777}}, "errors": ["u-blox 1 HW: 00070000 SW: 1.00 (59842)", "PreArm: Hardware safety switch", "PreArm: Compasses inconsistent", "PreArm: Need Alt Estimate", "PreArm: Hardware safety switch", "PreArm: Compasses inconsistent", "PreArm: AHRS: waiting for home", "Arm: Need Alt Estimate", "Arm: Compasses inconsistent", "Arm: AHRS: waiting for home", "EKF3 IMU0 origin set", "EKF3 IMU0 is using GPS", "EKF3 IMU1 origin set", "EKF3 IMU1 is using GPS", "Field Elevation Set: 46m"]}
{"timestamp": "2026-01-29T12:47:40.338402Z", "telemetry": {"lat": 13.3543491, "lon": 74.8647586, "satellites": 6, "altitude_gps_m": 45.65999984741211, "groundspeed_mps": 0.34642553329467773}, "flight": {"mode": "LOITER", "armed": false}, "ekf": {"attitude": {"roll": -0.02997162938117981, "pitch": -0.03504038602113724, "yaw": -1.5225189924240112}, "local_position": {"x": 0.10951991379261017, "y": -0.3934883773326874, "z": -0.12178190797567368}, "status": {"flags": 831, "velocity_variance": 0.15180541574954987, "pos_horiz_variance": 0.015728043392300606, "pos_vert_variance": 0.008644936606287956}}, "errors": ["u-blox 1 HW: 00070000 SW: 1.00 (59842)", "PreArm: Hardware safety switch", "PreArm: Compasses inconsistent", "PreArm: Need Alt Estimate", "PreArm: Hardware safety switch", "PreArm: Compasses inconsistent", "PreArm: AHRS: waiting for home", "Arm: Need Alt Estimate", "Arm: Compasses inconsistent", "Arm: AHRS: waiting for home", "EKF3 IMU0 origin set", "EKF3 IMU0 is using GPS", "EKF3 IMU1 origin set", "EKF3 IMU1 is using GPS", "Field Elevation Set: 46m"]}
{"timestamp": "2026-01-29T12:47:41.338228Z", "telemetry": {"lat": 13.3543494, "lon": 74.8647582, "satellites": 6, "altitude_gps_m": 45.64999771118164, "groundspeed_mps": 0.35083556175231934}, "flight": {"mode": "LOITER", "armed": false}, "ekf": {"attitude": {"roll": -0.030301854014396667, "pitch": -0.03420611843466759, "yaw": -1.5226651430130005}, "local_position": {"x": 0.11927890032529831, "y": -0.441138356924057, "z": -0.11774333566427231}, "status": {"flags": 831, "velocity_variance": 0.12960393726825714, "pos_horiz_variance": 0.01683840900659561, "pos_vert_variance": 0.0006332618067972362}}, "errors": ["u-blox 1 HW: 00070000 SW: 1.00 (59842)", "PreArm: Hardware safety switch", "PreArm: Compasses inconsistent", "PreArm: Need Alt Estimate", "PreArm: Hardware safety switch", "PreArm: Compasses inconsistent", "PreArm: AHRS: waiting for home", "Arm: Need Alt Estimate", "Arm: Compasses inconsistent", "Arm: AHRS: waiting for home", "EKF3 IMU0 origin set", "EKF3 IMU0 is using GPS", "EKF3 IMU1 origin set", "EKF3 IMU1 is using GPS", "Field Elevation Set: 46m"]}
{"timestamp": "2026-01-29T12:47:42.338126Z", "telemetry": {"lat": 13.35435, "lon": 74.8647581, "satellites": 6, "altitude_gps_m": 45.64999771118164, "groundspeed_mps": 0.32697877287864685}, "flight": {"mode": "LOITER", "armed": false}, "ekf": {"attitude": {"roll": -0.030700741335749626, "pitch": -0.03247670829296112, "yaw": -1.5226540565490723}, "local_position": {"x": 0.11587364971637726, "y": -0.4403606653213501, "z": -0.10168619453907013}, "status": {"flags": 831, "velocity_variance": 0.14161626994609833, "pos_horiz_variance": 0.019067509099841118, "pos_vert_variance": 0.004399464000016451}}, "errors": ["u-blox 1 HW: 00070000 SW: 1.00 (59842)", "PreArm: Hardware safety switch", "PreArm: Compasses inconsistent", "PreArm: Need Alt Estimate", "PreArm: Hardware safety switch", "PreArm: Compasses inconsistent", "PreArm: AHRS: waiting for home", "Arm: Need Alt Estimate", "Arm: Compasses inconsistent", "Arm: AHRS: waiting for home", "EKF3 IMU0 origin set", "EKF3 IMU0 is using GPS", "EKF3 IMU1 origin set", "EKF3 IMU1 is using GPS", "Field Elevation Set: 46m"]}
{"timestamp": "2026-01-29T12:47:43.338313Z", "telemetry": {"lat": 13.3543506, "lon": 74.8647573, "satellites": 6, "altitude_gps_m": 45.62999725341797, "groundspeed_mps": 0.3503524661064148}, "flight": {"mode": "LOITER", "armed": false}, "ekf": {"attitude": {"roll": -0.030627109110355377, "pitch": -0.032107703387737274, "yaw": -1.5225815773010254}, "local_position": {"x": 0.14897042512893677, "y": -0.556222677230835, "z": -0.11388476192951202}, "status": {"flags": 831, "velocity_variance": 0.1314537227153778, "pos_horiz_variance": 0.021427953615784645, "pos_vert_variance": 0.019029535353183746}}, "errors": ["u-blox 1 HW: 00070000 SW: 1.00 (59842)", "PreArm: Hardware safety switch", "PreArm: Compasses inconsistent", "PreArm: Need Alt Estimate", "PreArm: Hardware safety switch", "PreArm: Compasses inconsistent", "PreArm: AHRS: waiting for home", "Arm: Need Alt Estimate", "Arm: Compasses inconsistent", "Arm: AHRS: waiting for home", "EKF3 IMU0 origin set", "EKF3 IMU0 is using GPS", "EKF3 IMU1 origin set", "EKF3 IMU1 is using GPS", "Field Elevation Set: 46m"]}
{"timestamp": "2026-01-29T12:47:44.337425Z", "telemetry": {"lat": 13.3543509, "lon": 74.8647573, "satellites": 6, "altitude_gps_m": 45.5099983215332, "groundspeed_mps": 0.34216612577438354}, "flight": {"mode": "LOITER", "armed": false}, "ekf": {"attitude": {"roll": -0.030996885150671005, "pitch": -0.03170270845293999, "yaw": -1.522316813468933}, "local_position": {"x": 0.16869524121284485, "y": -0.5758086442947388, "z": 0.024661073461174965}, "status": {"flags": 831, "velocity_variance": 0.18803320825099945, "pos_horiz_variance": 0.0236811600625515, "pos_vert_variance": 0.02519480511546135}}, "errors": ["u-blox 1 HW: 00070000 SW: 1.00 (59842)", "PreArm: Hardware safety switch", "PreArm: Compasses inconsistent", "PreArm: Need Alt Estimate", "PreArm: Hardware safety switch", "PreArm: Compasses inconsistent", "PreArm: AHRS: waiting for home", "Arm: Need Alt Estimate", "Arm: Compasses inconsistent", "Arm: AHRS: waiting for home", "EKF3 IMU0 origin set", "EKF3 IMU0 is using GPS", "EKF3 IMU1 origin set", "EKF3 IMU1 is using GPS", "Field Elevation Set: 46m", "Arm: Compasses inconsistent"]}
{"timestamp": "2026-01-29T12:47:45.338285Z", "telemetry": {"lat": 13.3543517, "lon": 74.8647581, "satellites": 6, "altitude_gps_m": 45.30999755859375, "groundspeed_mps": 0.2839895188808441}, "flight": {"mode": "LOITER", "armed": false}, "ekf": {"attitude": {"roll": -0.030773108825087547, "pitch": -0.030294232070446014, "yaw": -1.5218327045440674}, "local_position": {"x": 0.20829840004444122, "y": -0.4929237365722656, "z": 0.18773582577705383}, "status": {"flags": 831, "velocity_variance": 0.09419436007738113, "pos_horiz_variance": 0.024919681251049042, "pos_vert_variance": 0.019337832927703857}}, "errors": ["u-blox 1 HW: 00070000 SW: 1.00 (59842)", "PreArm: Hardware safety switch", "PreArm: Compasses inconsistent", "PreArm: Need Alt Estimate", "PreArm: Hardware safety switch", "PreArm: Compasses inconsistent", "PreArm: AHRS: waiting for home", "Arm: Need Alt Estimate", "Arm: Compasses inconsistent", "Arm: AHRS: waiting for home", "EKF3 IMU0 origin set", "EKF3 IMU0 is using GPS", "EKF3 IMU1 origin set", "EKF3 IMU1 is using GPS", "Field Elevation Set: 46m", "Arm: Compasses inconsistent", "PreArm: Compasses inconsistent"]}
{"timestamp": "2026-01-29T12:47:46.337258Z", "telemetry": {"lat": 13.3543526, "lon": 74.8647588, "satellites": 6, "altitude_gps_m": 45.23999786376953, "groundspeed_mps": 0.2850169241428375}, "flight": {"mode": "LOITER", "armed": false}, "ekf": {"attitude": {"roll": -0.03059091791510582, "pitch": -0.030132152140140533, "yaw": -1.5218472480773926}, "local_position": {"x": 0.2939162850379944, "y": -0.49743160605430603, "z": 0.2953721582889557}, "status": {"flags": 831, "velocity_variance": 0.13019728660583496, "pos_horiz_variance": 0.02902260795235634, "pos_vert_variance": 0.02308039925992489}}, "errors": ["u-blox 1 HW: 00070000 SW: 1.00 (59842)", "PreArm: Hardware safety switch", "PreArm: Compasses inconsistent", "PreArm: Need Alt Estimate", "PreArm: Hardware safety switch", "PreArm: Compasses inconsistent", "PreArm: AHRS: waiting for home", "Arm: Need Alt Estimate", "Arm: Compasses inconsistent", "Arm: AHRS: waiting for home", "EKF3 IMU0 origin set", "EKF3 IMU0 is using GPS", "EKF3 IMU1 origin set", "EKF3 IMU1 is using GPS", "Field Elevation Set: 46m", "Arm: Compasses inconsistent", "PreArm: Compasses inconsistent"]}
