{"timestamp": "2026-01-29T08:51:24.226778Z", "telemetry": {"lat": 0.0, "lon": 0.0, "satellites": 0, "altitude_gps_m": 0.6399999856948853, "groundspeed_mps": 0.11668696999549866}, "flight": {"mode": "STABILIZE", "armed": false}, "ekf": {"attitude": {"roll": -0.02158334106206894, "pitch": -0.020632730796933174, "yaw": 0.31913843750953674}, "local_position": {"x": null, "y": null, "z": null}, "status": {"flags": 135, "velocity_variance": 0.0, "pos_horiz_variance": 0.0286587942391634, "pos_vert_variance": 0.07032843679189682}}, "errors": []}
{"timestamp": "2026-01-29T08:51:25.269206Z", "telemetry": {"lat": 0.0, "lon": 0.0, "satellites": 0, "altitude_gps_m": 0.6399999856948853, "groundspeed_mps": 0.11765167117118835}, "flight": {"mode": "STABILIZE", "armed": false}, "ekf": {"attitude": {"roll": -0.022507842630147934, "pitch": -0.019471965730190277, "yaw": 0.3196956217288971}, "local_position": {"x": null, "y": null, "z": null}, "status": {"flags": 135, "velocity_variance": 0.0, "pos_horiz_variance": 0.02844763547182083, "pos_vert_variance": 0.03191153332591057}}, "errors": []}
{"timestamp": "2026-01-29T08:51:26.310378Z", "telemetry": {"lat": 0.0, "lon": 0.0, "satellites": 0, "altitude_gps_m": 0.6399999856948853, "groundspeed_mps": 0.43728935718536377}, "flight": {"mode": "STABILIZE", "armed": false}, "ekf": {"attitude": {"roll": -0.04917503893375397, "pitch": 0.3077939748764038, "yaw": 1.2278692722320557}, "local_position": {"x": null, "y": null, "z": null}, "status": {"flags": 135, "velocity_variance": 0.0, "pos_horiz_variance": 0.022650783881545067, "pos_vert_variance": 0.003862156765535474}}, "errors": []}
{"timestamp": "2026-01-29T08:51:27.312374Z", "telemetry": {"lat": 0.0, "lon": 0.0, "satellites": 0, "altitude_gps_m": 0.6399999856948853, "groundspeed_mps": 0.16036084294319153}, "flight": {"mode": "STABILIZE", "armed": false}, "ekf": {"attitude": {"roll": 0.0054660215973854065, "pitch": 0.18891490995883942, "yaw": 1.2776379585266113}, "local_position": {"x": null, "y": null, "z": null}, "status": {"flags": 135, "velocity_variance": 0.0, "pos_horiz_variance": 0.033306706696748734, "pos_vert_variance": 0.08342348784208298}}, "errors": []}
{"timestamp": "2026-01-29T08:51:28.314270Z", "telemetry": {"lat": 0.0, "lon": 0.0, "satellites": 0, "altitude_gps_m": 0.6399999856948853, "groundspeed_mps": 0.3071284592151642}, "flight": {"mode": "STABILIZE", "armed": false}, "ekf": {"attitude": {"roll": -0.0002948381006717682, "pitch": 0.2292952835559845, "yaw": 1.1461983919143677}, "local_position": {"x": null, "y": null, "z": null}, "status": {"flags": 135, "velocity_variance": 0.0, "pos_horiz_variance": 0.01891486532986164, "pos_vert_variance": 0.024981113150715828}}, "errors": []}
{"timestamp": "2026-01-29T08:51:29.277251Z", "telemetry": {"lat": 0.0, "lon": 0.0, "satellites": 0, "altitude_gps_m": 0.6399999856948853, "groundspeed_mps": 0.1928645521402359}, "flight": {"mode": "STABILIZE", "armed": false}, "ekf": {"attitude": {"roll": 0.08978412300348282, "pitch": 0.551072895526886, "yaw": 1.0062203407287598}, "local_position": {"x": null, "y": null, "z": null}, "status": {"flags": 135, "velocity_variance": 0.0, "pos_horiz_variance": 0.051985569298267365, "pos_vert_variance": 0.05834615230560303}}, "errors": []}
{"timestamp": "2026-01-29T08:51:30.317148Z", "telemetry": {"lat": 0.0, "lon": 0.0, "satellites": 0, "altitude_gps_m": 0.6399999856948853, "groundspeed_mps": 0.22625398635864258}, "flight": {"mode": "STABILIZE", "armed": false}, "ekf": {"attitude": {"roll": 0.23595379292964935, "pitch": 0.5534903407096863, "yaw": 0.9975253939628601}, "local_position": {"x": null, "y": null, "z": null}, "status": {"flags": 135, "velocity_variance": 0.0, "pos_horiz_variance": 0.036852896213531494, "pos_vert_variance": 0.014463821426033974}}, "errors": []}
{"timestamp": "2026-01-29T08:51:31.318630Z", "telemetry": {"lat": 0.0, "lon": 0.0, "satellites": 0, "altitude_gps_m": 0.6399999856948853, "groundspeed_mps": 0.3436487317085266}, "flight": {"mode": "STABILIZE", "armed": false}, "ekf": {"attitude": {"roll": 0.09770380705595016, "pitch": 0.46384134888648987, "yaw": 0.28935670852661133}, "local_position": {"x": null, "y": null, "z": null}, "status": {"flags": 135, "velocity_variance": 0.0, "pos_horiz_variance": 0.03644796460866928, "pos_vert_variance": 0.019529923796653748}}, "errors": []}
{"timestamp": "2026-01-29T08:51:32.319878Z", "telemetry": {"lat": 0.0, "lon": 0.0, "satellites": 0, "altitude_gps_m": 0.6399999856948853, "groundspeed_mps": 0.24826675653457642}, "flight": {"mode": "STABILIZE", "armed": false}, "ekf": {"attitude": {"roll": 0.019896697252988815, "pitch": 0.35174819827079773, "yaw": 0.27297544479370117}, "local_position": {"x": null, "y": null, "z": null}, "status": {"flags": 135, "velocity_variance": 0.0, "pos_horiz_variance": 0.0637589693069458, "pos_vert_variance": 0.09398268163204193}}, "errors": []}
{"timestamp": "2026-01-29T08:51:33.321041Z", "telemetry": {"lat": 0.0, "lon": 0.0, "satellites": 0, "altitude_gps_m": 0.6399999856948853, "groundspeed_mps": 0.3761964738368988}, "flight": {"mode": "STABILIZE", "armed": false}, "ekf": {"attitude": {"roll": 0.04714679718017578, "pitch": 0.24657508730888367, "yaw": 0.2620807886123657}, "local_position": {"x": null, "y": null, "z": null}, "status": {"flags": 135, "velocity_variance": 0.0, "pos_horiz_variance": 0.059021104127168655, "pos_vert_variance": 0.08462008088827133}}, "errors": []}
{"timestamp": "2026-01-29T08:51:34.322127Z", "telemetry": {"lat": 0.0, "lon": 0.0, "satellites": 0, "altitude_gps_m": 0.6399999856948853, "groundspeed_mps": 0.2987596094608307}, "flight": {"mode": "STABILIZE", "armed": false}, "ekf": {"attitude": {"roll": 0.03315556421875954, "pitch": 0.14049461483955383, "yaw": 0.23440589010715485}, "local_position": {"x": null, "y": null, "z": null}, "status": {"flags": 135, "velocity_variance": 0.0, "pos_horiz_variance": 0.06359992176294327, "pos_vert_variance": 0.002228421624749899}}, "errors": []}
{"timestamp": "2026-01-29T08:51:35.285349Z", "telemetry": {"lat": 0.0, "lon": 0.0, "satellites": 0, "altitude_gps_m": 0.6399999856948853, "groundspeed_mps": 0.27014845609664917}, "flight": {"mode": "STABILIZE", "armed": false}, "ekf": {"attitude": {"roll": 0.016853611916303635, "pitch": 0.05458666756749153, "yaw": 0.24734696745872498}, "local_position": {"x": null, "y": null, "z": null}, "status": {"flags": 135, "velocity_variance": 0.0, "pos_horiz_variance": 0.06447743624448776, "pos_vert_variance": 0.020104477182030678}}, "errors": []}
{"timestamp": "2026-01-29T08:51:36.285510Z", "telemetry": {"lat": 0.0, "lon": 0.0, "satellites": 0, "altitude_gps_m": 0.6399999856948853, "groundspeed_mps": 0.2293025404214859}, "flight": {"mode": "STABILIZE", "armed": false}, "ekf": {"attitude": {"roll": 0.019454533234238625, "pitch": 0.12999852001667023, "yaw": 0.23835736513137817}, "local_position": {"x": null, "y": null, "z": null}, "status": {"flags": 135, "velocity_variance": 0.0, "pos_horiz_variance": 0.05902913212776184, "pos_vert_variance": 0.022425655275583267}}, "errors": []}
{"timestamp": "2026-01-29T08:51:37.324950Z", "telemetry": {"lat": 0.0, "lon": 0.0, "satellites": 0, "altitude_gps_m": 0.6399999856948853, "groundspeed_mps": 0.21045541763305664}, "flight": {"mode": "STABILIZE", "armed": false}, "ekf": {"attitude": {"roll": 0.04395558312535286, "pitch": 0.050201285630464554, "yaw": 0.23770509660243988}, "local_position": {"x": null, "y": null, "z": null}, "status": {"flags": 135, "velocity_variance": 0.0, "pos_horiz_variance": 0.055260069668293, "pos_vert_variance": 0.014225300401449203}}, "errors": []}
{"timestamp": "2026-01-29T08:51:38.325678Z", "telemetry": {"lat": 0.0, "lon": 0.0, "satellites": 0, "altitude_gps_m": 0.6399999856948853, "groundspeed_mps": 0.1976463496685028}, "flight": {"mode": "STABILIZE", "armed": false}, "ekf": {"attitude": {"roll": 0.01777002215385437, "pitch": 0.2138381004333496, "yaw": 0.1771979033946991}, "local_position": {"x": null, "y": null, "z": null}, "status": {"flags": 135, "velocity_variance": 0.0, "pos_horiz_variance": 0.056866228580474854, "pos_vert_variance": 0.04661741480231285}}, "errors": []}
{"timestamp": "2026-01-29T08:51:39.326409Z", "telemetry": {"lat": 0.0, "lon": 0.0, "satellites": 0, "altitude_gps_m": 0.6399999856948853, "groundspeed_mps": 0.10286029428243637}, "flight": {"mode": "STABILIZE", "armed": false}, "ekf": {"attitude": {"roll": -0.020605212077498436, "pitch": 0.32447317242622375, "yaw": 0.14146555960178375}, "local_position": {"x": null, "y": null, "z": null}, "status": {"flags": 135, "velocity_variance": 0.0, "pos_horiz_variance": 0.04278726503252983, "pos_vert_variance": 0.00981117319315672}}, "errors": []}
{"timestamp": "2026-01-29T08:51:40.293179Z", "telemetry": {"lat": 0.0, "lon": 0.0, "satellites": 0, "altitude_gps_m": 0.6399999856948853, "groundspeed_mps": 0.03920234739780426}, "flight": {"mode": "STABILIZE", "armed": false}, "ekf": {"attitude": {"roll": 0.00011237664148211479, "pitch": 0.31758955121040344, "yaw": 0.29396215081214905}, "local_position": {"x": null, "y": null, "z": null}, "status": {"flags": 135, "velocity_variance": 0.0, "pos_horiz_variance": 0.019964203238487244, "pos_vert_variance": 0.03404734283685684}}, "errors": []}
{"timestamp": "2026-01-29T08:51:41.288772Z", "telemetry": {"lat": 0.0, "lon": 0.0, "satellites": 0, "altitude_gps_m": 0.6399999856948853, "groundspeed_mps": 0.1104963943362236}, "flight": {"mode": "STABILIZE", "armed": false}, "ekf": {"attitude": {"roll": -0.012989235110580921, "pitch": 0.3333289623260498, "yaw": 0.21775256097316742}, "local_position": {"x": null, "y": null, "z": null}, "status": {"flags": 135, "velocity_variance": 0.0, "pos_horiz_variance": 0.008691431023180485, "pos_vert_variance": 0.0007221230189315975}}, "errors": []}
{"timestamp": "2026-01-29T08:51:42.328456Z", "telemetry": {"lat": 0.0, "lon": 0.0, "satellites": 0, "altitude_gps_m": 0.6399999856948853, "groundspeed_mps": 0.11533498764038086}, "flight": {"mode": "STABILIZE", "armed": false}, "ekf": {"attitude": {"roll": -0.010620630346238613, "pitch": 0.24976196885108948, "yaw": 0.219585120677948}, "local_position": {"x": null, "y": null, "z": null}, "status": {"flags": 135, "velocity_variance": 0.0, "pos_horiz_variance": 0.022864926606416702, "pos_vert_variance": 0.028926925733685493}}, "errors": []}
{"timestamp": "2026-01-29T08:51:43.329370Z", "telemetry": {"lat": 0.0, "lon": 0.0, "satellites": 0, "altitude_gps_m": 0.6399999856948853, "groundspeed_mps": 0.19720016419887543}, "flight": {"mode": "STABILIZE", "armed": false}, "ekf": {"attitude": {"roll": -0.037496764212846756, "pitch": 0.22586870193481445, "yaw": 0.19153665006160736}, "local_position": {"x": null, "y": null, "z": null}, "status": {"flags": 135, "velocity_variance": 0.0, "pos_horiz_variance": 0.02678825519979, "pos_vert_variance": 0.03712884336709976}}, "errors": []}
{"timestamp": "2026-01-29T08:51:44.292013Z", "telemetry": {"lat": 0.0, "lon": 0.0, "satellites": 0, "altitude_gps_m": 0.6399999856948853, "groundspeed_mps": 0.05452713742852211}, "flight": {"mode": "STABILIZE", "armed": false}, "ekf": {"attitude": {"roll": -0.010763739235699177, "pitch": 0.356357604265213, "yaw": 0.21878300607204437}, "local_position": {"x": null, "y": null, "z": null}, "status": {"flags": 135, "velocity_variance": 0.0, "pos_horiz_variance": 0.02401367947459221, "pos_vert_variance": 0.03972670063376427}}, "errors": []}
{"timestamp": "2026-01-29T08:51:45.330553Z", "telemetry": {"lat": 0.0, "lon": 0.0, "satellites": 0, "altitude_gps_m": 0.6399999856948853, "groundspeed_mps": 0.06988207250833511}, "flight": {"mode": "STABILIZE", "armed": false}, "ekf": {"attitude": {"roll": 0.01846957765519619, "pitch": 0.5272588133811951, "yaw": 0.18660606443881989}, "local_position": {"x": null, "y": null, "z": null}, "status": {"flags": 135, "velocity_variance": 0.0, "pos_horiz_variance": 0.00749183539301157, "pos_vert_variance": 0.04764861240983009}}, "errors": []}
{"timestamp": "2026-01-29T08:51:46.331237Z", "telemetry": {"lat": 0.0, "lon": 0.0, "satellites": 0, "altitude_gps_m": 0.6399999856948853, "groundspeed_mps": 0.050774797797203064}, "flight": {"mode": "STABILIZE", "armed": false}, "ekf": {"attitude": {"roll": 0.027638256549835205, "pitch": 0.7731526494026184, "yaw": 0.2077201008796692}, "local_position": {"x": null, "y": null, "z": null}, "status": {"flags": 135, "velocity_variance": 0.0, "pos_horiz_variance": 0.018099995329976082, "pos_vert_variance": 0.0548071563243866}}, "errors": []}
{"timestamp": "2026-01-29T08:51:47.289815Z", "telemetry": {"lat": 0.0, "lon": 0.0, "satellites": 0, "altitude_gps_m": 0.6399999856948853, "groundspeed_mps": 0.04780377075076103}, "flight": {"mode": "STABILIZE", "armed": false}, "ekf": {"attitude": {"roll": 0.0033703770022839308, "pitch": 0.7585503458976746, "yaw": 0.1807764321565628}, "local_position": {"x": null, "y": null, "z": null}, "status": {"flags": 135, "velocity_variance": 0.0, "pos_horiz_variance": 0.00895474012941122, "pos_vert_variance": 0.044819384813308716}}, "errors": []}
{"timestamp": "2026-01-29T08:51:48.274018Z", "telemetry": {"lat": 0.0, "lon": 0.0, "satellites": 0, "altitude_gps_m": 0.6399999856948853, "groundspeed_mps": 0.048310037702322006}, "flight": {"mode": "STABILIZE", "armed": false}, "ekf": {"attitude": {"roll": 0.004541219212114811, "pitch": 0.74700927734375, "yaw": 0.16859516501426697}, "local_position": {"x": null, "y": null, "z": null}, "status": {"flags": 135, "velocity_variance": 0.0, "pos_horiz_variance": 0.008215253241360188, "pos_vert_variance": 0.06837470084428787}}, "errors": []}
{"timestamp": "2026-01-29T08:51:49.300620Z", "telemetry": {"lat": 0.0, "lon": 0.0, "satellites": 0, "altitude_gps_m": 0.6399999856948853, "groundspeed_mps": 0.054879236966371536}, "flight": {"mode": "STABILIZE", "armed": false}, "ekf": {"attitude": {"roll": 0.0027960867155343294, "pitch": 0.8217366337776184, "yaw": 0.1749124825000763}, "local_position": {"x": null, "y": null, "z": null}, "status": {"flags": 135, "velocity_variance": 0.0, "pos_horiz_variance": 0.009451187215745449, "pos_vert_variance": 0.017439452931284904}}, "errors": []}
{"timestamp": "2026-01-29T08:51:51.287191Z", "telemetry": {"lat": 0.0, "lon": 0.0, "satellites": 0, "altitude_gps_m": 0.6399999856948853, "groundspeed_mps": 0.09798962622880936}, "flight": {"mode": "STABILIZE", "armed": false}, "ekf": {"attitude": {"roll": -0.034646932035684586, "pitch": 0.6921469569206238, "yaw": 0.25959956645965576}, "local_position": {"x": null, "y": null, "z": null}, "status": {"flags": 135, "velocity_variance": 0.0, "pos_horiz_variance": 0.011378572322428226, "pos_vert_variance": 0.01754811219871044}}, "errors": []}
{"timestamp": "2026-01-29T08:51:52.325402Z", "telemetry": {"lat": 0.0, "lon": 0.0, "satellites": 0, "altitude_gps_m": 0.6399999856948853, "groundspeed_mps": 0.21413259208202362}, "flight": {"mode": "STABILIZE", "armed": false}, "ekf": {"attitude": {"roll": 0.056705132126808167, "pitch": 0.6604068875312805, "yaw": 0.304951548576355}, "local_position": {"x": null, "y": null, "z": null}, "status": {"flags": 135, "velocity_variance": 0.0, "pos_horiz_variance": 0.020494816824793816, "pos_vert_variance": 0.0038662352599203587}}, "errors": []}
{"timestamp": "2026-01-29T08:51:53.317522Z", "telemetry": {"lat": 0.0, "lon": 0.0, "satellites": 0, "altitude_gps_m": 0.6399999856948853, "groundspeed_mps": 0.12957096099853516}, "flight": {"mode": "STABILIZE", "armed": false}, "ekf": {"attitude": {"roll": -0.013849267736077309, "pitch": 0.8252931237220764, "yaw": 0.21506527066230774}, "local_position": {"x": null, "y": null, "z": null}, "status": {"flags": 135, "velocity_variance": 0.0, "pos_horiz_variance": 0.023818569257855415, "pos_vert_variance": 0.020046357065439224}}, "errors": []}
{"timestamp": "2026-01-29T08:51:54.310461Z", "telemetry": {"lat": 0.0, "lon": 0.0, "satellites": 0, "altitude_gps_m": 0.6399999856948853, "groundspeed_mps": 0.17975671589374542}, "flight": {"mode": "STABILIZE", "armed": false}, "ekf": {"attitude": {"roll": 0.028797857463359833, "pitch": 0.833369791507721, "yaw": 0.2815246284008026}, "local_position": {"x": null, "y": null, "z": null}, "status": {"flags": 135, "velocity_variance": 0.0, "pos_horiz_variance": 0.027163345366716385, "pos_vert_variance": 0.04016157612204552}}, "errors": ["PreArm: RC not found", "PreArm: Hardware safety switch", "PreArm: Compasses inconsistent"]}
{"timestamp": "2026-01-29T08:51:55.305817Z", "telemetry": {"lat": 0.0, "lon": 0.0, "satellites": 0, "altitude_gps_m": 0.6399999856948853, "groundspeed_mps": 0.1518438458442688}, "flight": {"mode": "STABILIZE", "armed": false}, "ekf": {"attitude": {"roll": 0.0017190573271363974, "pitch": 0.7826641201972961, "yaw": 0.27365991473197937}, "local_position": {"x": null, "y": null, "z": null}, "status": {"flags": 135, "velocity_variance": 0.0, "pos_horiz_variance": 0.033941950649023056, "pos_vert_variance": 0.09294674545526505}}, "errors": ["PreArm: RC not found", "PreArm: Hardware safety switch", "PreArm: Compasses inconsistent"]}
{"timestamp": "2026-01-29T08:51:56.301678Z", "telemetry": {"lat": 0.0, "lon": 0.0, "satellites": 0, "altitude_gps_m": 0.6399999856948853, "groundspeed_mps": 0.2901313602924347}, "flight": {"mode": "STABILIZE", "armed": false}, "ekf": {"attitude": {"roll": -0.20585499703884125, "pitch": 0.8926177024841309, "yaw": -0.05295264720916748}, "local_position": {"x": null, "y": null, "z": null}, "status": {"flags": 135, "velocity_variance": 0.0, "pos_horiz_variance": 0.041658662259578705, "pos_vert_variance": 0.032891273498535156}}, "errors": ["PreArm: RC not found", "PreArm: Hardware safety switch", "PreArm: Compasses inconsistent"]}
{"timestamp": "2026-01-29T08:51:57.296063Z", "telemetry": {"lat": 0.0, "lon": 0.0, "satellites": 0, "altitude_gps_m": 0.6399999856948853, "groundspeed_mps": 0.19928039610385895}, "flight": {"mode": "STABILIZE", "armed": false}, "ekf": {"attitude": {"roll": 0.08994594216346741, "pitch": 0.9831610321998596, "yaw": 0.2832716703414917}, "local_position": {"x": null, "y": null, "z": null}, "status": {"flags": 135, "velocity_variance": 0.0, "pos_horiz_variance": 0.06481153517961502, "pos_vert_variance": 0.03548227995634079}}, "errors": ["PreArm: RC not found", "PreArm: Hardware safety switch", "PreArm: Compasses inconsistent"]}
{"timestamp": "2026-01-29T08:51:58.291759Z", "telemetry": {"lat": 0.0, "lon": 0.0, "satellites": 0, "altitude_gps_m": 0.6399999856948853, "groundspeed_mps": 0.15621592104434967}, "flight": {"mode": "STABILIZE", "armed": false}, "ekf": {"attitude": {"roll": -0.006056097336113453, "pitch": 0.754365086555481, "yaw": 0.08462810516357422}, "local_position": {"x": null, "y": null, "z": null}, "status": {"flags": 135, "velocity_variance": 0.0, "pos_horiz_variance": 0.0070784022100269794, "pos_vert_variance": 0.08348104357719421}}, "errors": ["PreArm: RC not found", "PreArm: Hardware safety switch", "PreArm: Compasses inconsistent"]}
{"timestamp": "2026-01-29T08:51:59.324763Z", "telemetry": {"lat": 0.0, "lon": 0.0, "satellites": 0, "altitude_gps_m": 0.6399999856948853, "groundspeed_mps": 0.18037840723991394}, "flight": {"mode": "STABILIZE", "armed": false}, "ekf": {"attitude": {"roll": 0.5402374863624573, "pitch": 0.7427072525024414, "yaw": 1.524929404258728}, "local_position": {"x": null, "y": null, "z": null}, "status": {"flags": 135, "velocity_variance": 0.0, "pos_horiz_variance": 0.016428718343377113, "pos_vert_variance": 0.023813869804143906}}, "errors": ["PreArm: RC not found", "PreArm: Hardware safety switch", "PreArm: Compasses inconsistent"]}
{"timestamp": "2026-01-29T08:52:00.321229Z", "telemetry": {"lat": 0.0, "lon": 0.0, "satellites": 0, "altitude_gps_m": 0.6399999856948853, "groundspeed_mps": 0.5674177408218384}, "flight": {"mode": "STABILIZE", "armed": false}, "ekf": {"attitude": {"roll": -0.07017693668603897, "pitch": 0.9638723731040955, "yaw": 0.177842378616333}, "local_position": {"x": null, "y": null, "z": null}, "status": {"flags": 135, "velocity_variance": 0.0, "pos_horiz_variance": 0.019233746454119682, "pos_vert_variance": 0.02082255110144615}}, "errors": ["PreArm: RC not found", "PreArm: Hardware safety switch", "PreArm: Compasses inconsistent"]}
{"timestamp": "2026-01-29T08:52:01.318010Z", "telemetry": {"lat": 0.0, "lon": 0.0, "satellites": 0, "altitude_gps_m": 0.6399999856948853, "groundspeed_mps": 0.053395964205265045}, "flight": {"mode": "STABILIZE", "armed": false}, "ekf": {"attitude": {"roll": -0.7213628888130188, "pitch": 0.8120383024215698, "yaw": -1.7512712478637695}, "local_position": {"x": null, "y": null, "z": null}, "status": {"flags": 135, "velocity_variance": 0.0, "pos_horiz_variance": 0.07830450683832169, "pos_vert_variance": 0.005864171776920557}}, "errors": ["PreArm: RC not found", "PreArm: Hardware safety switch", "PreArm: Compasses inconsistent"]}
{"timestamp": "2026-01-29T08:52:02.278238Z", "telemetry": {"lat": 0.0, "lon": 0.0, "satellites": 0, "altitude_gps_m": 0.6399999856948853, "groundspeed_mps": 0.30448606610298157}, "flight": {"mode": "STABILIZE", "armed": false}, "ekf": {"attitude": {"roll": 0.11297433823347092, "pitch": 0.8816649317741394, "yaw": -0.09898616373538971}, "local_position": {"x": null, "y": null, "z": null}, "status": {"flags": 135, "velocity_variance": 0.0, "pos_horiz_variance": 0.013990969397127628, "pos_vert_variance": 0.025609252974390984}}, "errors": ["PreArm: RC not found", "PreArm: Hardware safety switch", "PreArm: Compasses inconsistent"]}
{"timestamp": "2026-01-29T08:52:03.312916Z", "telemetry": {"lat": 0.0, "lon": 0.0, "satellites": 0, "altitude_gps_m": 0.6399999856948853, "groundspeed_mps": 0.24260428547859192}, "flight": {"mode": "STABILIZE", "armed": false}, "ekf": {"attitude": {"roll": 0.026435185223817825, "pitch": 0.4689061939716339, "yaw": 0.20921285450458527}, "local_position": {"x": null, "y": null, "z": null}, "status": {"flags": 135, "velocity_variance": 0.0, "pos_horiz_variance": 0.036829546093940735, "pos_vert_variance": 0.10579647868871689}}, "errors": ["PreArm: RC not found", "PreArm: Hardware safety switch", "PreArm: Compasses inconsistent"]}
{"timestamp": "2026-01-29T08:52:04.311490Z", "telemetry": {"lat": 0.0, "lon": 0.0, "satellites": 0, "altitude_gps_m": 0.6399999856948853, "groundspeed_mps": 0.36482512950897217}, "flight": {"mode": "STABILIZE", "armed": false}, "ekf": {"attitude": {"roll": -0.012479754164814949, "pitch": -0.09742049127817154, "yaw": 0.06357511878013611}, "local_position": {"x": null, "y": null, "z": null}, "status": {"flags": 135, "velocity_variance": 0.0, "pos_horiz_variance": 0.055408645421266556, "pos_vert_variance": 0.006138937082141638}}, "errors": ["PreArm: RC not found", "PreArm: Hardware safety switch", "PreArm: Compasses inconsistent"]}
{"timestamp": "2026-01-29T08:52:05.308384Z", "telemetry": {"lat": 0.0, "lon": 0.0, "satellites": 0, "altitude_gps_m": 0.6399999856948853, "groundspeed_mps": 0.36595219373703003}, "flight": {"mode": "STABILIZE", "armed": false}, "ekf": {"attitude": {"roll": -0.026516107842326164, "pitch": 0.011773474514484406, "yaw": 0.11702019721269608}, "local_position": {"x": null, "y": null, "z": null}, "status": {"flags": 135, "velocity_variance": 0.0, "pos_horiz_variance": 0.0681762769818306, "pos_vert_variance": 0.005025329999625683}}, "errors": ["PreArm: RC not found", "PreArm: Hardware safety switch", "PreArm: Compasses inconsistent"]}
{"timestamp": "2026-01-29T08:52:06.310453Z", "telemetry": {"lat": 0.0, "lon": 0.0, "satellites": 0, "altitude_gps_m": 0.6399999856948853, "groundspeed_mps": 0.3838100731372833}, "flight": {"mode": "STABILIZE", "armed": false}, "ekf": {"attitude": {"roll": -0.042593687772750854, "pitch": 0.07515223324298859, "yaw": 0.20034672319889069}, "local_position": {"x": null, "y": null, "z": null}, "status": {"flags": 135, "velocity_variance": 0.0, "pos_horiz_variance": 0.08629751205444336, "pos_vert_variance": 0.06994082778692245}}, "errors": ["PreArm: RC not found", "PreArm: Hardware safety switch", "PreArm: Compasses inconsistent"]}
{"timestamp": "2026-01-29T08:52:07.307553Z", "telemetry": {"lat": 0.0, "lon": 0.0, "satellites": 0, "altitude_gps_m": 0.6399999856948853, "groundspeed_mps": 0.23364751040935516}, "flight": {"mode": "STABILIZE", "armed": false}, "ekf": {"attitude": {"roll": -0.057146187871694565, "pitch": 0.18063364923000336, "yaw": 0.2088048905134201}, "local_position": {"x": null, "y": null, "z": null}, "status": {"flags": 135, "velocity_variance": 0.0, "pos_horiz_variance": 0.08501219004392624, "pos_vert_variance": 0.06839296221733093}}, "errors": ["PreArm: RC not found", "PreArm: Hardware safety switch", "PreArm: Compasses inconsistent"]}
{"timestamp": "2026-01-29T08:52:08.310467Z", "telemetry": {"lat": 0.0, "lon": 0.0, "satellites": 0, "altitude_gps_m": 0.6399999856948853, "groundspeed_mps": 0.2605944573879242}, "flight": {"mode": "STABILIZE", "armed": false}, "ekf": {"attitude": {"roll": -0.04474490508437157, "pitch": 0.16458575427532196, "yaw": 0.22310198843479156}, "local_position": {"x": null, "y": null, "z": null}, "status": {"flags": 135, "velocity_variance": 0.0, "pos_horiz_variance": 0.08493294566869736, "pos_vert_variance": 0.001965560717508197}}, "errors": ["PreArm: RC not found", "PreArm: Hardware safety switch", "PreArm: Compasses inconsistent"]}
{"timestamp": "2026-01-29T08:52:09.304593Z", "telemetry": {"lat": 0.0, "lon": 0.0, "satellites": 0, "altitude_gps_m": 0.6399999856948853, "groundspeed_mps": 0.20076851546764374}, "flight": {"mode": "STABILIZE", "armed": false}, "ekf": {"attitude": {"roll": -0.05800807848572731, "pitch": 0.19630032777786255, "yaw": 0.20993876457214355}, "local_position": {"x": null, "y": null, "z": null}, "status": {"flags": 135, "velocity_variance": 0.0, "pos_horiz_variance": 0.06963534653186798, "pos_vert_variance": 0.04466615244746208}}, "errors": ["PreArm: RC not found", "PreArm: Hardware safety switch", "PreArm: Compasses inconsistent"]}
{"timestamp": "2026-01-29T08:52:10.320635Z", "telemetry": {"lat": 0.0, "lon": 0.0, "satellites": 0, "altitude_gps_m": 0.6399999856948853, "groundspeed_mps": 0.13685773313045502}, "flight": {"mode": "STABILIZE", "armed": false}, "ekf": {"attitude": {"roll": -0.045849137008190155, "pitch": 0.24028244614601135, "yaw": 0.21006931364536285}, "local_position": {"x": null, "y": null, "z": null}, "status": {"flags": 135, "velocity_variance": 0.0, "pos_horiz_variance": 0.05441305413842201, "pos_vert_variance": 0.07986383885145187}}, "errors": ["PreArm: RC not found", "PreArm: Hardware safety switch", "PreArm: Compasses inconsistent"]}
{"timestamp": "2026-01-29T08:52:11.319966Z", "telemetry": {"lat": 0.0, "lon": 0.0, "satellites": 0, "altitude_gps_m": 0.6399999856948853, "groundspeed_mps": 0.16558578610420227}, "flight": {"mode": "STABILIZE", "armed": false}, "ekf": {"attitude": {"roll": -0.03520725667476654, "pitch": 0.31582528352737427, "yaw": 0.19786840677261353}, "local_position": {"x": null, "y": null, "z": null}, "status": {"flags": 135, "velocity_variance": 0.0, "pos_horiz_variance": 0.040142789483070374, "pos_vert_variance": 0.016614796593785286}}, "errors": ["PreArm: RC not found", "PreArm: Hardware safety switch", "PreArm: Compasses inconsistent"]}
{"timestamp": "2026-01-29T08:52:12.318697Z", "telemetry": {"lat": 0.0, "lon": 0.0, "satellites": 0, "altitude_gps_m": 0.6399999856948853, "groundspeed_mps": 0.12412939965724945}, "flight": {"mode": "STABILIZE", "armed": false}, "ekf": {"attitude": {"roll": -0.001872931607067585, "pitch": 0.7933761477470398, "yaw": 0.14417621493339539}, "local_position": {"x": null, "y": null, "z": null}, "status": {"flags": 135, "velocity_variance": 0.0, "pos_horiz_variance": 0.021818187087774277, "pos_vert_variance": 0.0366922989487648}}, "errors": ["PreArm: RC not found", "PreArm: Hardware safety switch", "PreArm: Compasses inconsistent"]}
{"timestamp": "2026-01-29T08:52:13.317628Z", "telemetry": {"lat": 0.0, "lon": 0.0, "satellites": 0, "altitude_gps_m": 0.6399999856948853, "groundspeed_mps": 0.051099635660648346}, "flight": {"mode": "STABILIZE", "armed": false}, "ekf": {"attitude": {"roll": 0.0661175474524498, "pitch": 0.9385923743247986, "yaw": 0.16434989869594574}, "local_position": {"x": null, "y": null, "z": null}, "status": {"flags": 135, "velocity_variance": 0.0, "pos_horiz_variance": 0.010872411541640759, "pos_vert_variance": 0.07901936769485474}}, "errors": ["PreArm: RC not found", "PreArm: Hardware safety switch", "PreArm: Compasses inconsistent"]}
{"timestamp": "2026-01-29T08:52:14.316849Z", "telemetry": {"lat": 0.0, "lon": 0.0, "satellites": 0, "altitude_gps_m": 0.6399999856948853, "groundspeed_mps": 0.13243497908115387}, "flight": {"mode": "STABILIZE", "armed": false}, "ekf": {"attitude": {"roll": 0.044942572712898254, "pitch": 0.8149846792221069, "yaw": 0.16073910892009735}, "local_position": {"x": null, "y": null, "z": null}, "status": {"flags": 135, "velocity_variance": 0.0, "pos_horiz_variance": 0.010200255550444126, "pos_vert_variance": 0.04269897937774658}}, "errors": ["PreArm: RC not found", "PreArm: Hardware safety switch", "PreArm: Compasses inconsistent"]}
{"timestamp": "2026-01-29T08:52:15.315851Z", "telemetry": {"lat": 0.0, "lon": 0.0, "satellites": 0, "altitude_gps_m": 0.6399999856948853, "groundspeed_mps": 0.10261495411396027}, "flight": {"mode": "STABILIZE", "armed": false}, "ekf": {"attitude": {"roll": 0.009176012128591537, "pitch": 0.7363848686218262, "yaw": 0.08333515375852585}, "local_position": {"x": null, "y": null, "z": null}, "status": {"flags": 135, "velocity_variance": 0.0, "pos_horiz_variance": 0.016190212219953537, "pos_vert_variance": 0.022974004969000816}}, "errors": ["PreArm: RC not found", "PreArm: Hardware safety switch", "PreArm: Compasses inconsistent"]}
{"timestamp": "2026-01-29T08:52:16.314934Z", "telemetry": {"lat": 0.0, "lon": 0.0, "satellites": 0, "altitude_gps_m": 0.6399999856948853, "groundspeed_mps": 0.10149667412042618}, "flight": {"mode": "STABILIZE", "armed": false}, "ekf": {"attitude": {"roll": -0.03820227459073067, "pitch": 0.8890342712402344, "yaw": 0.06976749002933502}, "local_position": {"x": null, "y": null, "z": null}, "status": {"flags": 135, "velocity_variance": 0.0, "pos_horiz_variance": 0.0198886189609766, "pos_vert_variance": 0.0808035135269165}}, "errors": ["PreArm: RC not found", "PreArm: Hardware safety switch", "PreArm: Compasses inconsistent"]}
{"timestamp": "2026-01-29T08:52:17.314137Z", "telemetry": {"lat": 0.0, "lon": 0.0, "satellites": 0, "altitude_gps_m": 0.6399999856948853, "groundspeed_mps": 0.10018773376941681}, "flight": {"mode": "ALT_HOLD", "armed": false}, "ekf": {"attitude": {"roll": -0.10927271097898483, "pitch": 0.9503655433654785, "yaw": -0.042731817811727524}, "local_position": {"x": null, "y": null, "z": null}, "status": {"flags": 135, "velocity_variance": 0.0, "pos_horiz_variance": 0.02151276171207428, "pos_vert_variance": 0.011034811846911907}}, "errors": ["PreArm: RC not found", "PreArm: Hardware safety switch", "PreArm: Compasses inconsistent"]}
{"timestamp": "2026-01-29T08:52:18.313227Z", "telemetry": {"lat": 0.0, "lon": 0.0, "satellites": 0, "altitude_gps_m": 0.6399999856948853, "groundspeed_mps": 0.1109493300318718}, "flight": {"mode": "ALT_HOLD", "armed": false}, "ekf": {"attitude": {"roll": 0.23343442380428314, "pitch": 0.9166373610496521, "yaw": 0.32317686080932617}, "local_position": {"x": null, "y": null, "z": null}, "status": {"flags": 135, "velocity_variance": 0.0, "pos_horiz_variance": 0.005385963711887598, "pos_vert_variance": 0.012813606299459934}}, "errors": ["PreArm: RC not found", "PreArm: Hardware safety switch", "PreArm: Compasses inconsistent"]}
{"timestamp": "2026-01-29T08:52:19.312547Z", "telemetry": {"lat": 0.0, "lon": 0.0, "satellites": 0, "altitude_gps_m": 0.6399999856948853, "groundspeed_mps": 0.3175741136074066}, "flight": {"mode": "ALT_HOLD", "armed": false}, "ekf": {"attitude": {"roll": 0.0011188487987965345, "pitch": 0.20830033719539642, "yaw": 0.49250203371047974}, "local_position": {"x": null, "y": null, "z": null}, "status": {"flags": 135, "velocity_variance": 0.0, "pos_horiz_variance": 0.03077555075287819, "pos_vert_variance": 0.06896746903657913}}, "errors": ["PreArm: RC not found", "PreArm: Hardware safety switch", "PreArm: Compasses inconsistent"]}
{"timestamp": "2026-01-29T08:52:20.307239Z", "telemetry": {"lat": 0.0, "lon": 0.0, "satellites": 0, "altitude_gps_m": 0.6399999856948853, "groundspeed_mps": 0.39791029691696167}, "flight": {"mode": "ALT_HOLD", "armed": false}, "ekf": {"attitude": {"roll": 0.20278586447238922, "pitch": 0.18429088592529297, "yaw": 1.3267486095428467}, "local_position": {"x": null, "y": null, "z": null}, "status": {"flags": 135, "velocity_variance": 0.0, "pos_horiz_variance": 0.013536959886550903, "pos_vert_variance": 0.011180096305906773}}, "errors": ["PreArm: RC not found", "PreArm: Hardware safety switch", "PreArm: Compasses inconsistent"]}
{"timestamp": "2026-01-29T08:52:21.295149Z", "telemetry": {"lat": 0.0, "lon": 0.0, "satellites": 0, "altitude_gps_m": 0.6399999856948853, "groundspeed_mps": 0.3187549114227295}, "flight": {"mode": "ALT_HOLD", "armed": false}, "ekf": {"attitude": {"roll": 0.022578300908207893, "pitch": 0.5002984404563904, "yaw": 0.3956064283847809}, "local_position": {"x": null, "y": null, "z": null}, "status": {"flags": 135, "velocity_variance": 0.0, "pos_horiz_variance": 0.03619236871600151, "pos_vert_variance": 0.08250678330659866}}, "errors": ["PreArm: RC not found", "PreArm: Hardware safety switch", "PreArm: Compasses inconsistent"]}
{"timestamp": "2026-01-29T08:52:22.319830Z", "telemetry": {"lat": 0.0, "lon": 0.0, "satellites": 0, "altitude_gps_m": 0.6399999856948853, "groundspeed_mps": 0.35485804080963135}, "flight": {"mode": "ALT_HOLD", "armed": false}, "ekf": {"attitude": {"roll": 0.14205792546272278, "pitch": 0.945861279964447, "yaw": 0.404680073261261}, "local_position": {"x": null, "y": null, "z": null}, "status": {"flags": 135, "velocity_variance": 0.0, "pos_horiz_variance": 0.05710671842098236, "pos_vert_variance": 0.000617647951003164}}, "errors": ["PreArm: RC not found", "PreArm: Hardware safety switch", "PreArm: Compasses inconsistent"]}
{"timestamp": "2026-01-29T08:52:23.308250Z", "telemetry": {"lat": 0.0, "lon": 0.0, "satellites": 0, "altitude_gps_m": 0.6399999856948853, "groundspeed_mps": 0.2600199282169342}, "flight": {"mode": "ALT_HOLD", "armed": false}, "ekf": {"attitude": {"roll": -0.17081928253173828, "pitch": 0.9507046937942505, "yaw": 0.14504574239253998}, "local_position": {"x": null, "y": null, "z": null}, "status": {"flags": 135, "velocity_variance": 0.0, "pos_horiz_variance": 0.042194221168756485, "pos_vert_variance": 0.009674145840108395}}, "errors": ["PreArm: RC not found", "PreArm: Hardware safety switch", "PreArm: Compasses inconsistent"]}
{"timestamp": "2026-01-29T08:52:24.301061Z", "telemetry": {"lat": 0.0, "lon": 0.0, "satellites": 0, "altitude_gps_m": 0.6399999856948853, "groundspeed_mps": 0.0703345462679863}, "flight": {"mode": "ALT_HOLD", "armed": false}, "ekf": {"attitude": {"roll": -0.31642770767211914, "pitch": 0.9956327080726624, "yaw": -0.23598438501358032}, "local_position": {"x": null, "y": null, "z": null}, "status": {"flags": 135, "velocity_variance": 0.0, "pos_horiz_variance": 0.04714371636509895, "pos_vert_variance": 0.005058720707893372}}, "errors": ["PreArm: RC not found", "PreArm: Hardware safety switch", "PreArm: Compasses inconsistent"]}
