{"timestamp": "2026-01-25T15:22:09.058419Z", "telemetry": {"lat": 0.0, "lon": 0.0, "satellites": 0, "altitude_gps_m": -0.03999999910593033, "groundspeed_mps": 0.027357276529073715}, "flight": {"mode": "STABILIZE", "armed": false}, "ekf": {"attitude": {"roll": -0.010168411768972874, "pitch": -0.012727078050374985, "yaw": -0.61164790391922}, "local_position": {"x": null, "y": null, "z": null}, "status": {"flags": 135, "velocity_variance": 0.0, "pos_horiz_variance": 0.005508295726031065, "pos_vert_variance": 0.056133829057216644}}, "errors": []}
{"timestamp": "2026-01-25T15:22:10.007845Z", "telemetry": {"lat": 0.0, "lon": 0.0, "satellites": 0, "altitude_gps_m": -0.03999999910593033, "groundspeed_mps": 0.030761243775486946}, "flight": {"mode": "STABILIZE", "armed": false}, "ekf": {"attitude": {"roll": -0.01044340617954731, "pitch": -0.012753579765558243, "yaw": -0.6117683053016663}, "local_position": {"x": null, "y": null, "z": null}, "status": {"flags": 135, "velocity_variance": 0.0, "pos_horiz_variance": 0.006061866879463196, "pos_vert_variance": 0.018815580755472183}}, "errors": []}
{"timestamp": "2026-01-25T15:22:10.967125Z", "telemetry": {"lat": 0.0, "lon": 0.0, "satellites": 0, "altitude_gps_m": -0.03999999910593033, "groundspeed_mps": 0.031543947756290436}, "flight": {"mode": "STABILIZE", "armed": false}, "ekf": {"attitude": {"roll": -0.010402454063296318, "pitch": -0.012789413332939148, "yaw": -0.6115986704826355}, "local_position": {"x": null, "y": null, "z": null}, "status": {"flags": 135, "velocity_variance": 0.0, "pos_horiz_variance": 0.006835545878857374, "pos_vert_variance": 0.051667165011167526}}, "errors": []}
{"timestamp": "2026-01-25T15:22:11.966785Z", "telemetry": {"lat": 0.0, "lon": 0.0, "satellites": 0, "altitude_gps_m": -0.03999999910593033, "groundspeed_mps": 0.031122321262955666}, "flight": {"mode": "STABILIZE", "armed": false}, "ekf": {"attitude": {"roll": -0.010502989403903484, "pitch": -0.012873239815235138, "yaw": -0.6111577153205872}, "local_position": {"x": null, "y": null, "z": null}, "status": {"flags": 135, "velocity_variance": 0.0, "pos_horiz_variance": 0.00711519131436944, "pos_vert_variance": 0.013644006103277206}}, "errors": []}
{"timestamp": "2026-01-25T15:22:12.967486Z", "telemetry": {"lat": 0.0, "lon": 0.0, "satellites": 0, "altitude_gps_m": -0.03999999910593033, "groundspeed_mps": 0.03048996813595295}, "flight": {"mode": "STABILIZE", "armed": false}, "ekf": {"attitude": {"roll": -0.010276859626173973, "pitch": -0.012747999280691147, "yaw": -0.6110760569572449}, "local_position": {"x": null, "y": null, "z": null}, "status": {"flags": 135, "velocity_variance": 0.0, "pos_horiz_variance": 0.007163983304053545, "pos_vert_variance": 0.008051642216742039}}, "errors": []}
{"timestamp": "2026-01-25T15:22:13.966896Z", "telemetry": {"lat": 0.0, "lon": 0.0, "satellites": 0, "altitude_gps_m": -0.03999999910593033, "groundspeed_mps": 0.028556663542985916}, "flight": {"mode": "STABILIZE", "armed": false}, "ekf": {"attitude": {"roll": -0.010189884342253208, "pitch": -0.012686677277088165, "yaw": -0.6112096905708313}, "local_position": {"x": null, "y": null, "z": null}, "status": {"flags": 135, "velocity_variance": 0.0, "pos_horiz_variance": 0.007145880721509457, "pos_vert_variance": 0.04937092587351799}}, "errors": []}
{"timestamp": "2026-01-25T15:22:14.967714Z", "telemetry": {"lat": 0.0, "lon": 0.0, "satellites": 0, "altitude_gps_m": -0.03999999910593033, "groundspeed_mps": 0.027319112792611122}, "flight": {"mode": "STABILIZE", "armed": false}, "ekf": {"attitude": {"roll": -0.010131370276212692, "pitch": -0.012792892754077911, "yaw": -0.6109610795974731}, "local_position": {"x": null, "y": null, "z": null}, "status": {"flags": 135, "velocity_variance": 0.0, "pos_horiz_variance": 0.007069065701216459, "pos_vert_variance": 0.05289142578840256}}, "errors": []}
{"timestamp": "2026-01-25T15:22:15.967226Z", "telemetry": {"lat": 0.0, "lon": 0.0, "satellites": 0, "altitude_gps_m": -0.03999999910593033, "groundspeed_mps": 0.02673029713332653}, "flight": {"mode": "STABILIZE", "armed": false}, "ekf": {"attitude": {"roll": -0.010367046110332012, "pitch": -0.012733057141304016, "yaw": -0.610939621925354}, "local_position": {"x": null, "y": null, "z": null}, "status": {"flags": 135, "velocity_variance": 0.0, "pos_horiz_variance": 0.006799391005188227, "pos_vert_variance": 0.06552552431821823}}, "errors": []}
{"timestamp": "2026-01-25T15:22:16.967271Z", "telemetry": {"lat": 0.0, "lon": 0.0, "satellites": 0, "altitude_gps_m": -0.03999999910593033, "groundspeed_mps": 0.030830075964331627}, "flight": {"mode": "STABILIZE", "armed": false}, "ekf": {"attitude": {"roll": -0.010510026477277279, "pitch": -0.012787479907274246, "yaw": -0.6105592250823975}, "local_position": {"x": null, "y": null, "z": null}, "status": {"flags": 135, "velocity_variance": 0.0, "pos_horiz_variance": 0.00669473223388195, "pos_vert_variance": 0.06711331009864807}}, "errors": []}
{"timestamp": "2026-01-25T15:22:17.966797Z", "telemetry": {"lat": 0.0, "lon": 0.0, "satellites": 0, "altitude_gps_m": -0.03999999910593033, "groundspeed_mps": 0.03279392793774605}, "flight": {"mode": "STABILIZE", "armed": false}, "ekf": {"attitude": {"roll": -0.010601028800010681, "pitch": -0.012773407623171806, "yaw": -0.6102710962295532}, "local_position": {"x": null, "y": null, "z": null}, "status": {"flags": 135, "velocity_variance": 0.0, "pos_horiz_variance": 0.0071809738874435425, "pos_vert_variance": 0.028111115097999573}}, "errors": []}
{"timestamp": "2026-01-25T15:22:18.966774Z", "telemetry": {"lat": 0.0, "lon": 0.0, "satellites": 0, "altitude_gps_m": -0.03999999910593033, "groundspeed_mps": 0.03439231961965561}, "flight": {"mode": "STABILIZE", "armed": false}, "ekf": {"attitude": {"roll": -0.010426054708659649, "pitch": -0.012782281264662743, "yaw": -0.6106086373329163}, "local_position": {"x": null, "y": null, "z": null}, "status": {"flags": 135, "velocity_variance": 0.0, "pos_horiz_variance": 0.007714900188148022, "pos_vert_variance": 0.04870287701487541}}, "errors": []}
{"timestamp": "2026-01-25T15:22:19.967069Z", "telemetry": {"lat": 0.0, "lon": 0.0, "satellites": 0, "altitude_gps_m": -0.03999999910593033, "groundspeed_mps": 0.03249532729387283}, "flight": {"mode": "STABILIZE", "armed": false}, "ekf": {"attitude": {"roll": -0.010371769778430462, "pitch": -0.012732023373246193, "yaw": -0.6105632781982422}, "local_position": {"x": null, "y": null, "z": null}, "status": {"flags": 135, "velocity_variance": 0.0, "pos_horiz_variance": 0.007973317056894302, "pos_vert_variance": 0.0036764321848750114}}, "errors": []}
{"timestamp": "2026-01-25T15:22:20.966973Z", "telemetry": {"lat": 0.0, "lon": 0.0, "satellites": 0, "altitude_gps_m": -0.03999999910593033, "groundspeed_mps": 0.03039972484111786}, "flight": {"mode": "STABILIZE", "armed": false}, "ekf": {"attitude": {"roll": -0.010308723896741867, "pitch": -0.012905959039926529, "yaw": -0.6103784441947937}, "local_position": {"x": null, "y": null, "z": null}, "status": {"flags": 135, "velocity_variance": 0.0, "pos_horiz_variance": 0.007862381637096405, "pos_vert_variance": 0.00880583468824625}}, "errors": []}
{"timestamp": "2026-01-25T15:22:21.966816Z", "telemetry": {"lat": 0.0, "lon": 0.0, "satellites": 0, "altitude_gps_m": -0.03999999910593033, "groundspeed_mps": 0.03281304985284805}, "flight": {"mode": "STABILIZE", "armed": false}, "ekf": {"attitude": {"roll": -0.010297373868525028, "pitch": -0.012944065034389496, "yaw": -0.6104007363319397}, "local_position": {"x": null, "y": null, "z": null}, "status": {"flags": 135, "velocity_variance": 0.0, "pos_horiz_variance": 0.0075365775264799595, "pos_vert_variance": 0.03398682177066803}}, "errors": []}
{"timestamp": "2026-01-25T15:22:22.966819Z", "telemetry": {"lat": 0.0, "lon": 0.0, "satellites": 0, "altitude_gps_m": -0.03999999910593033, "groundspeed_mps": 0.03482706844806671}, "flight": {"mode": "STABILIZE", "armed": false}, "ekf": {"attitude": {"roll": -0.010311998426914215, "pitch": -0.012942936271429062, "yaw": -0.610357940196991}, "local_position": {"x": null, "y": null, "z": null}, "status": {"flags": 135, "velocity_variance": 0.0, "pos_horiz_variance": 0.007919960655272007, "pos_vert_variance": 0.050351981073617935}}, "errors": []}
{"timestamp": "2026-01-25T15:22:23.967022Z", "telemetry": {"lat": 0.0, "lon": 0.0, "satellites": 0, "altitude_gps_m": -0.03999999910593033, "groundspeed_mps": 0.03550982102751732}, "flight": {"mode": "STABILIZE", "armed": false}, "ekf": {"attitude": {"roll": -0.010395565070211887, "pitch": -0.013029219582676888, "yaw": -0.6103287935256958}, "local_position": {"x": null, "y": null, "z": null}, "status": {"flags": 135, "velocity_variance": 0.0, "pos_horiz_variance": 0.008273412473499775, "pos_vert_variance": 0.014375468716025352}}, "errors": []}
{"timestamp": "2026-01-25T15:22:24.967983Z", "telemetry": {"lat": 0.0, "lon": 0.0, "satellites": 0, "altitude_gps_m": -0.03999999910593033, "groundspeed_mps": 0.03777516260743141}, "flight": {"mode": "STABILIZE", "armed": false}, "ekf": {"attitude": {"roll": -0.010174140334129333, "pitch": -0.013104936107993126, "yaw": -0.6103546619415283}, "local_position": {"x": null, "y": null, "z": null}, "status": {"flags": 135, "velocity_variance": 0.0, "pos_horiz_variance": 0.008517325855791569, "pos_vert_variance": 0.0027540598530322313}}, "errors": []}
{"timestamp": "2026-01-25T15:22:25.967350Z", "telemetry": {"lat": 0.0, "lon": 0.0, "satellites": 0, "altitude_gps_m": -0.03999999910593033, "groundspeed_mps": 0.03766456991434097}, "flight": {"mode": "STABILIZE", "armed": false}, "ekf": {"attitude": {"roll": -0.010172450914978981, "pitch": -0.013307033106684685, "yaw": -0.6104944348335266}, "local_position": {"x": null, "y": null, "z": null}, "status": {"flags": 135, "velocity_variance": 0.0, "pos_horiz_variance": 0.008848733268678188, "pos_vert_variance": 0.02370956912636757}}, "errors": []}
{"timestamp": "2026-01-25T15:22:26.966958Z", "telemetry": {"lat": 0.0, "lon": 0.0, "satellites": 0, "altitude_gps_m": -0.03999999910593033, "groundspeed_mps": 0.03943922743201256}, "flight": {"mode": "LOITER", "armed": false}, "ekf": {"attitude": {"roll": -0.00994201097637415, "pitch": -0.01335904747247696, "yaw": -0.6103663444519043}, "local_position": {"x": null, "y": null, "z": null}, "status": {"flags": 135, "velocity_variance": 0.0, "pos_horiz_variance": 0.008774411864578724, "pos_vert_variance": 0.035632774233818054}}, "errors": []}
{"timestamp": "2026-01-25T15:22:27.966707Z", "telemetry": {"lat": 0.0, "lon": 0.0, "satellites": 0, "altitude_gps_m": -0.03999999910593033, "groundspeed_mps": 0.0440499521791935}, "flight": {"mode": "STABILIZE", "armed": false}, "ekf": {"attitude": {"roll": -0.009763821959495544, "pitch": -0.013638101518154144, "yaw": -0.6102281808853149}, "local_position": {"x": null, "y": null, "z": null}, "status": {"flags": 135, "velocity_variance": 0.0, "pos_horiz_variance": 0.009325672872364521, "pos_vert_variance": 0.026996014639735222}}, "errors": []}
{"timestamp": "2026-01-25T15:22:28.966553Z", "telemetry": {"lat": 0.0, "lon": 0.0, "satellites": 0, "altitude_gps_m": -0.03999999910593033, "groundspeed_mps": 0.04941879212856293}, "flight": {"mode": "ALT_HOLD", "armed": false}, "ekf": {"attitude": {"roll": -0.009846560657024384, "pitch": -0.01363249309360981, "yaw": -0.60991370677948}, "local_position": {"x": null, "y": null, "z": null}, "status": {"flags": 135, "velocity_variance": 0.0, "pos_horiz_variance": 0.01087009347975254, "pos_vert_variance": 0.011576623655855656}}, "errors": []}
{"timestamp": "2026-01-25T15:22:29.967663Z", "telemetry": {"lat": 0.0, "lon": 0.0, "satellites": 0, "altitude_gps_m": -0.03999999910593033, "groundspeed_mps": 0.049077123403549194}, "flight": {"mode": "STABILIZE", "armed": false}, "ekf": {"attitude": {"roll": -0.009753922000527382, "pitch": -0.013594383373856544, "yaw": -0.6094657778739929}, "local_position": {"x": null, "y": null, "z": null}, "status": {"flags": 135, "velocity_variance": 0.0, "pos_horiz_variance": 0.011473855003714561, "pos_vert_variance": 0.030077654868364334}}, "errors": []}
{"timestamp": "2026-01-25T15:22:30.966910Z", "telemetry": {"lat": 0.0, "lon": 0.0, "satellites": 0, "altitude_gps_m": -0.03999999910593033, "groundspeed_mps": 0.049186818301677704}, "flight": {"mode": "LOITER", "armed": false}, "ekf": {"attitude": {"roll": -0.009676649235188961, "pitch": -0.013424986973404884, "yaw": -0.6093219518661499}, "local_position": {"x": null, "y": null, "z": null}, "status": {"flags": 135, "velocity_variance": 0.0, "pos_horiz_variance": 0.011689012870192528, "pos_vert_variance": 0.06084279343485832}}, "errors": []}
{"timestamp": "2026-01-25T15:22:31.966536Z", "telemetry": {"lat": 0.0, "lon": 0.0, "satellites": 0, "altitude_gps_m": -0.03999999910593033, "groundspeed_mps": 0.048349592834711075}, "flight": {"mode": "LOITER", "armed": false}, "ekf": {"attitude": {"roll": -0.009624072350561619, "pitch": -0.013524595648050308, "yaw": -0.6091113686561584}, "local_position": {"x": null, "y": null, "z": null}, "status": {"flags": 135, "velocity_variance": 0.0, "pos_horiz_variance": 0.011760862544178963, "pos_vert_variance": 0.06021406874060631}}, "errors": []}
{"timestamp": "2026-01-25T15:22:32.966714Z", "telemetry": {"lat": 0.0, "lon": 0.0, "satellites": 0, "altitude_gps_m": -0.03999999910593033, "groundspeed_mps": 0.04995184391736984}, "flight": {"mode": "LOITER", "armed": false}, "ekf": {"attitude": {"roll": -0.009788598865270615, "pitch": -0.013510458171367645, "yaw": -0.6089603900909424}, "local_position": {"x": null, "y": null, "z": null}, "status": {"flags": 135, "velocity_variance": 0.0, "pos_horiz_variance": 0.011869629845023155, "pos_vert_variance": 0.02916455827653408}}, "errors": []}
{"timestamp": "2026-01-25T15:22:33.966708Z", "telemetry": {"lat": 0.0, "lon": 0.0, "satellites": 0, "altitude_gps_m": -0.03999999910593033, "groundspeed_mps": 0.04966689273715019}, "flight": {"mode": "LOITER", "armed": false}, "ekf": {"attitude": {"roll": -0.009712638333439827, "pitch": -0.013586066663265228, "yaw": -0.6089280843734741}, "local_position": {"x": null, "y": null, "z": null}, "status": {"flags": 135, "velocity_variance": 0.0, "pos_horiz_variance": 0.011977866291999817, "pos_vert_variance": 0.07666125148534775}}, "errors": []}
{"timestamp": "2026-01-25T15:22:34.967779Z", "telemetry": {"lat": 0.0, "lon": 0.0, "satellites": 0, "altitude_gps_m": -0.03999999910593033, "groundspeed_mps": 0.05153706669807434}, "flight": {"mode": "LOITER", "armed": false}, "ekf": {"attitude": {"roll": -0.009799097664654255, "pitch": -0.013744315132498741, "yaw": -0.6087100505828857}, "local_position": {"x": null, "y": null, "z": null}, "status": {"flags": 135, "velocity_variance": 0.0, "pos_horiz_variance": 0.01190225314348936, "pos_vert_variance": 0.022960085421800613}}, "errors": []}
{"timestamp": "2026-01-25T15:22:35.967085Z", "telemetry": {"lat": 0.0, "lon": 0.0, "satellites": 0, "altitude_gps_m": -0.03999999910593033, "groundspeed_mps": 0.05208422243595123}, "flight": {"mode": "LOITER", "armed": false}, "ekf": {"attitude": {"roll": -0.009688607417047024, "pitch": -0.013844357803463936, "yaw": -0.6089192628860474}, "local_position": {"x": null, "y": null, "z": null}, "status": {"flags": 135, "velocity_variance": 0.0, "pos_horiz_variance": 0.012221762910485268, "pos_vert_variance": 0.07317638397216797}}, "errors": []}
