{"timestamp": "2026-01-25T11:20:33.490237Z", "telemetry": {"lat": 0.0, "lon": 0.0, "satellites": 0, "altitude_gps_m": 0.5699999928474426, "groundspeed_mps": 0.019854510203003883}, "flight": {"mode": "STABILIZE", "armed": false}, "ekf": {"attitude": {"roll": 0.015334316529333591, "pitch": -0.010104862973093987, "yaw": -2.987328052520752}, "local_position": {"x": null, "y": null, "z": null}, "status": {"flags": 135, "velocity_variance": 0.0, "pos_horiz_variance": 0.005423428490757942, "pos_vert_variance": 0.014804708771407604}}, "errors": []}
{"timestamp": "2026-01-25T11:20:34.529976Z", "telemetry": {"lat": 0.0, "lon": 0.0, "satellites": 0, "altitude_gps_m": 0.5699999928474426, "groundspeed_mps": 0.016451222822070122}, "flight": {"mode": "STABILIZE", "armed": false}, "ekf": {"attitude": {"roll": 0.015238256193697453, "pitch": -0.010037938132882118, "yaw": -2.987579107284546}, "local_position": {"x": null, "y": null, "z": null}, "status": {"flags": 135, "velocity_variance": 0.0, "pos_horiz_variance": 0.004763694014400244, "pos_vert_variance": 0.07077038288116455}}, "errors": []}
{"timestamp": "2026-01-25T11:20:35.567441Z", "telemetry": {"lat": 0.0, "lon": 0.0, "satellites": 0, "altitude_gps_m": 0.5699999928474426, "groundspeed_mps": 0.017444929108023643}, "flight": {"mode": "STABILIZE", "armed": false}, "ekf": {"attitude": {"roll": 0.015205447562038898, "pitch": -0.010063784196972847, "yaw": -2.9877169132232666}, "local_position": {"x": null, "y": null, "z": null}, "status": {"flags": 135, "velocity_variance": 0.0, "pos_horiz_variance": 0.004372790921479464, "pos_vert_variance": 0.028195081278681755}}, "errors": []}
{"timestamp": "2026-01-25T11:20:36.567491Z", "telemetry": {"lat": 0.0, "lon": 0.0, "satellites": 0, "altitude_gps_m": 0.5699999928474426, "groundspeed_mps": 0.014901884831488132}, "flight": {"mode": "STABILIZE", "armed": false}, "ekf": {"attitude": {"roll": 0.015199889428913593, "pitch": -0.009993905201554298, "yaw": -2.9877281188964844}, "local_position": {"x": null, "y": null, "z": null}, "status": {"flags": 135, "velocity_variance": 0.0, "pos_horiz_variance": 0.004052839707583189, "pos_vert_variance": 0.03471456468105316}}, "errors": []}
{"timestamp": "2026-01-25T11:20:37.566937Z", "telemetry": {"lat": 0.0, "lon": 0.0, "satellites": 0, "altitude_gps_m": 0.5699999928474426, "groundspeed_mps": 0.014225422404706478}, "flight": {"mode": "STABILIZE", "armed": false}, "ekf": {"attitude": {"roll": 0.015119141899049282, "pitch": -0.009970810264348984, "yaw": -2.9877281188964844}, "local_position": {"x": null, "y": null, "z": null}, "status": {"flags": 135, "velocity_variance": 0.0, "pos_horiz_variance": 0.0037687262520194054, "pos_vert_variance": 0.014348783530294895}}, "errors": []}
{"timestamp": "2026-01-25T11:20:38.567346Z", "telemetry": {"lat": 0.0, "lon": 0.0, "satellites": 0, "altitude_gps_m": 0.5699999928474426, "groundspeed_mps": 0.014103906229138374}, "flight": {"mode": "STABILIZE", "armed": false}, "ekf": {"attitude": {"roll": 0.01523324754089117, "pitch": -0.01007302850484848, "yaw": -2.9876301288604736}, "local_position": {"x": null, "y": null, "z": null}, "status": {"flags": 135, "velocity_variance": 0.0, "pos_horiz_variance": 0.0035687717609107494, "pos_vert_variance": 0.005977948196232319}}, "errors": []}
{"timestamp": "2026-01-25T11:20:39.566551Z", "telemetry": {"lat": 0.0, "lon": 0.0, "satellites": 0, "altitude_gps_m": 0.5699999928474426, "groundspeed_mps": 0.016252344474196434}, "flight": {"mode": "STABILIZE", "armed": false}, "ekf": {"attitude": {"roll": 0.015178903006017208, "pitch": -0.010036302730441093, "yaw": -2.9875407218933105}, "local_position": {"x": null, "y": null, "z": null}, "status": {"flags": 135, "velocity_variance": 0.0, "pos_horiz_variance": 0.003637143410742283, "pos_vert_variance": 0.011677118949592113}}, "errors": []}
{"timestamp": "2026-01-25T11:20:40.566416Z", "telemetry": {"lat": 0.0, "lon": 0.0, "satellites": 0, "altitude_gps_m": 0.5699999928474426, "groundspeed_mps": 0.015819251537322998}, "flight": {"mode": "STABILIZE", "armed": false}, "ekf": {"attitude": {"roll": 0.015192857943475246, "pitch": -0.010044144466519356, "yaw": -2.987504243850708}, "local_position": {"x": null, "y": null, "z": null}, "status": {"flags": 135, "velocity_variance": 0.0, "pos_horiz_variance": 0.0038685237523168325, "pos_vert_variance": 0.04510335624217987}}, "errors": []}
{"timestamp": "2026-01-25T11:20:41.566245Z", "telemetry": {"lat": 0.0, "lon": 0.0, "satellites": 0, "altitude_gps_m": 0.5699999928474426, "groundspeed_mps": 0.01610470376908779}, "flight": {"mode": "STABILIZE", "armed": false}, "ekf": {"attitude": {"roll": 0.015137952752411366, "pitch": -0.009989337995648384, "yaw": -2.9873204231262207}, "local_position": {"x": null, "y": null, "z": null}, "status": {"flags": 135, "velocity_variance": 0.0, "pos_horiz_variance": 0.003939935937523842, "pos_vert_variance": 0.040253907442092896}}, "errors": []}
{"timestamp": "2026-01-25T11:20:42.566048Z", "telemetry": {"lat": 0.0, "lon": 0.0, "satellites": 0, "altitude_gps_m": 0.5699999928474426, "groundspeed_mps": 0.015011671930551529}, "flight": {"mode": "STABILIZE", "armed": false}, "ekf": {"attitude": {"roll": 0.015163370408117771, "pitch": -0.009966300800442696, "yaw": -2.987272024154663}, "local_position": {"x": null, "y": null, "z": null}, "status": {"flags": 135, "velocity_variance": 0.0, "pos_horiz_variance": 0.003919872455298901, "pos_vert_variance": 0.054842978715896606}}, "errors": []}
{"timestamp": "2026-01-25T11:20:43.602231Z", "telemetry": {"lat": 0.0, "lon": 0.0, "satellites": 0, "altitude_gps_m": 0.5699999928474426, "groundspeed_mps": 0.015280884690582752}, "flight": {"mode": "LOITER", "armed": false}, "ekf": {"attitude": {"roll": 0.015136067755520344, "pitch": -0.010052800178527832, "yaw": -2.98722243309021}, "local_position": {"x": null, "y": null, "z": null}, "status": {"flags": 135, "velocity_variance": 0.0, "pos_horiz_variance": 0.003805273910984397, "pos_vert_variance": 0.07249625027179718}}, "errors": []}
{"timestamp": "2026-01-25T11:20:44.564022Z", "telemetry": {"lat": 0.0, "lon": 0.0, "satellites": 0, "altitude_gps_m": 0.5699999928474426, "groundspeed_mps": 0.015455695800483227}, "flight": {"mode": "LOITER", "armed": false}, "ekf": {"attitude": {"roll": 0.015266421250998974, "pitch": -0.010007830336689949, "yaw": -2.9873504638671875}, "local_position": {"x": null, "y": null, "z": null}, "status": {"flags": 135, "velocity_variance": 0.0, "pos_horiz_variance": 0.003755965968593955, "pos_vert_variance": 0.019827788695693016}}, "errors": []}
{"timestamp": "2026-01-25T11:20:45.567036Z", "telemetry": {"lat": 0.0, "lon": 0.0, "satellites": 0, "altitude_gps_m": 0.5699999928474426, "groundspeed_mps": 0.014553188346326351}, "flight": {"mode": "LOITER", "armed": false}, "ekf": {"attitude": {"roll": 0.01523348968476057, "pitch": -0.009927919134497643, "yaw": -2.9873909950256348}, "local_position": {"x": null, "y": null, "z": null}, "status": {"flags": 135, "velocity_variance": 0.0, "pos_horiz_variance": 0.0036152175161987543, "pos_vert_variance": 0.08469817042350769}}, "errors": []}
{"timestamp": "2026-01-25T11:20:46.562746Z", "telemetry": {"lat": 0.0, "lon": 0.0, "satellites": 0, "altitude_gps_m": 0.5699999928474426, "groundspeed_mps": 0.014511055313050747}, "flight": {"mode": "ALT_HOLD", "armed": false}, "ekf": {"attitude": {"roll": 0.01531126257032156, "pitch": -0.00995500385761261, "yaw": -2.987413167953491}, "local_position": {"x": null, "y": null, "z": null}, "status": {"flags": 135, "velocity_variance": 0.0, "pos_horiz_variance": 0.0036085809115320444, "pos_vert_variance": 0.011709200218319893}}, "errors": []}
{"timestamp": "2026-01-25T11:20:47.562143Z", "telemetry": {"lat": 0.0, "lon": 0.0, "satellites": 0, "altitude_gps_m": 0.5699999928474426, "groundspeed_mps": 0.01688803918659687}, "flight": {"mode": "STABILIZE", "armed": false}, "ekf": {"attitude": {"roll": 0.01533683855086565, "pitch": -0.009854070842266083, "yaw": -2.9875402450561523}, "local_position": {"x": null, "y": null, "z": null}, "status": {"flags": 135, "velocity_variance": 0.0, "pos_horiz_variance": 0.003801490645855665, "pos_vert_variance": 0.04687460511922836}}, "errors": []}
{"timestamp": "2026-01-25T11:20:48.562299Z", "telemetry": {"lat": 0.0, "lon": 0.0, "satellites": 0, "altitude_gps_m": 0.5699999928474426, "groundspeed_mps": 0.014881336130201817}, "flight": {"mode": "STABILIZE", "armed": false}, "ekf": {"attitude": {"roll": 0.015366961248219013, "pitch": -0.009853888303041458, "yaw": -2.9875969886779785}, "local_position": {"x": null, "y": null, "z": null}, "status": {"flags": 135, "velocity_variance": 0.0, "pos_horiz_variance": 0.003907572012394667, "pos_vert_variance": 0.030968744307756424}}, "errors": []}
{"timestamp": "2026-01-25T11:20:49.561445Z", "telemetry": {"lat": 0.0, "lon": 0.0, "satellites": 0, "altitude_gps_m": 0.5699999928474426, "groundspeed_mps": 0.008694309741258621}, "flight": {"mode": "LOITER", "armed": false}, "ekf": {"attitude": {"roll": 0.01529719214886427, "pitch": -0.009886372834444046, "yaw": -2.987607479095459}, "local_position": {"x": null, "y": null, "z": null}, "status": {"flags": 135, "velocity_variance": 0.0, "pos_horiz_variance": 0.0032602259889245033, "pos_vert_variance": 0.0066802301444113255}}, "errors": []}
{"timestamp": "2026-01-25T11:20:50.599954Z", "telemetry": {"lat": 0.0, "lon": 0.0, "satellites": 0, "altitude_gps_m": 0.5699999928474426, "groundspeed_mps": 0.012272561900317669}, "flight": {"mode": "ALT_HOLD", "armed": false}, "ekf": {"attitude": {"roll": 0.015288961119949818, "pitch": -0.009893810376524925, "yaw": -2.987602472305298}, "local_position": {"x": null, "y": null, "z": null}, "status": {"flags": 135, "velocity_variance": 0.0, "pos_horiz_variance": 0.0026503324043005705, "pos_vert_variance": 0.006849834695458412}}, "errors": ["PreArm: RC not found", "PreArm: Need Alt Estimate", "PreArm: Hardware safety switch", "PreArm: Compasses inconsistent", "PreArm: GPS 1: Bad fix"]}
{"timestamp": "2026-01-25T11:20:51.601028Z", "telemetry": {"lat": 0.0, "lon": 0.0, "satellites": 0, "altitude_gps_m": 0.5699999928474426, "groundspeed_mps": 0.01351337693631649}, "flight": {"mode": "STABILIZE", "armed": false}, "ekf": {"attitude": {"roll": 0.015432273037731647, "pitch": -0.009861301630735397, "yaw": -2.987567186355591}, "local_position": {"x": null, "y": null, "z": null}, "status": {"flags": 135, "velocity_variance": 0.0, "pos_horiz_variance": 0.003027135506272316, "pos_vert_variance": 0.031649164855480194}}, "errors": ["PreArm: RC not found", "PreArm: Need Alt Estimate", "PreArm: Hardware safety switch", "PreArm: Compasses inconsistent", "PreArm: GPS 1: Bad fix"]}
{"timestamp": "2026-01-25T11:20:52.599644Z", "telemetry": {"lat": 0.0, "lon": 0.0, "satellites": 0, "altitude_gps_m": 0.5699999928474426, "groundspeed_mps": 0.010464949533343315}, "flight": {"mode": "LOITER", "armed": false}, "ekf": {"attitude": {"roll": 0.015451702289283276, "pitch": -0.009860122576355934, "yaw": -2.9875032901763916}, "local_position": {"x": null, "y": null, "z": null}, "status": {"flags": 135, "velocity_variance": 0.0, "pos_horiz_variance": 0.003093376522883773, "pos_vert_variance": 0.023397143930196762}}, "errors": ["PreArm: RC not found", "PreArm: Need Alt Estimate", "PreArm: Hardware safety switch", "PreArm: Compasses inconsistent", "PreArm: GPS 1: Bad fix"]}
{"timestamp": "2026-01-25T11:20:53.600232Z", "telemetry": {"lat": 0.0, "lon": 0.0, "satellites": 0, "altitude_gps_m": 0.5699999928474426, "groundspeed_mps": 0.009814918041229248}, "flight": {"mode": "LOITER", "armed": false}, "ekf": {"attitude": {"roll": 0.015500637702643871, "pitch": -0.00992600992321968, "yaw": -2.98750901222229}, "local_position": {"x": null, "y": null, "z": null}, "status": {"flags": 135, "velocity_variance": 0.0, "pos_horiz_variance": 0.0025195495691150427, "pos_vert_variance": 0.03146390989422798}}, "errors": ["PreArm: RC not found", "PreArm: Need Alt Estimate", "PreArm: Hardware safety switch", "PreArm: Compasses inconsistent", "PreArm: GPS 1: Bad fix"]}
{"timestamp": "2026-01-25T11:20:54.561859Z", "telemetry": {"lat": 0.0, "lon": 0.0, "satellites": 0, "altitude_gps_m": 0.5699999928474426, "groundspeed_mps": 0.008754859678447247}, "flight": {"mode": "LOITER", "armed": false}, "ekf": {"attitude": {"roll": 0.015524494461715221, "pitch": -0.009786287322640419, "yaw": -2.987549066543579}, "local_position": {"x": null, "y": null, "z": null}, "status": {"flags": 135, "velocity_variance": 0.0, "pos_horiz_variance": 0.002504080068320036, "pos_vert_variance": 0.028211310505867004}}, "errors": ["PreArm: RC not found", "PreArm: Need Alt Estimate", "PreArm: Hardware safety switch", "PreArm: Compasses inconsistent", "PreArm: GPS 1: Bad fix"]}
{"timestamp": "2026-01-25T11:20:55.560986Z", "telemetry": {"lat": 0.0, "lon": 0.0, "satellites": 0, "altitude_gps_m": 0.5699999928474426, "groundspeed_mps": 0.009489990770816803}, "flight": {"mode": "ALT_HOLD", "armed": false}, "ekf": {"attitude": {"roll": 0.015513370744884014, "pitch": -0.009900808334350586, "yaw": -2.9875974655151367}, "local_position": {"x": null, "y": null, "z": null}, "status": {"flags": 135, "velocity_variance": 0.0, "pos_horiz_variance": 0.0024028595071285963, "pos_vert_variance": 0.06403151154518127}}, "errors": ["PreArm: RC not found", "PreArm: Need Alt Estimate", "PreArm: Hardware safety switch", "PreArm: Compasses inconsistent", "PreArm: GPS 1: Bad fix"]}
{"timestamp": "2026-01-25T11:20:56.563229Z", "telemetry": {"lat": 0.0, "lon": 0.0, "satellites": 0, "altitude_gps_m": 0.5699999928474426, "groundspeed_mps": 0.009272722527384758}, "flight": {"mode": "STABILIZE", "armed": false}, "ekf": {"attitude": {"roll": 0.015545611269772053, "pitch": -0.009767232462763786, "yaw": -2.9875943660736084}, "local_position": {"x": null, "y": null, "z": null}, "status": {"flags": 135, "velocity_variance": 0.0, "pos_horiz_variance": 0.002400987781584263, "pos_vert_variance": 0.036962639540433884}}, "errors": ["PreArm: RC not found", "PreArm: Need Alt Estimate", "PreArm: Hardware safety switch", "PreArm: Compasses inconsistent", "PreArm: GPS 1: Bad fix"]}
{"timestamp": "2026-01-25T11:20:57.599025Z", "telemetry": {"lat": 0.0, "lon": 0.0, "satellites": 0, "altitude_gps_m": 0.5699999928474426, "groundspeed_mps": 0.010305067524313927}, "flight": {"mode": "ALT_HOLD", "armed": false}, "ekf": {"attitude": {"roll": 0.015566474758088589, "pitch": -0.00979204848408699, "yaw": -2.987565755844116}, "local_position": {"x": null, "y": null, "z": null}, "status": {"flags": 135, "velocity_variance": 0.0, "pos_horiz_variance": 0.00241746474057436, "pos_vert_variance": 0.014814088121056557}}, "errors": ["PreArm: RC not found", "PreArm: Need Alt Estimate", "PreArm: Hardware safety switch", "PreArm: Compasses inconsistent", "PreArm: GPS 1: Bad fix"]}
{"timestamp": "2026-01-25T11:20:58.560150Z", "telemetry": {"lat": 0.0, "lon": 0.0, "satellites": 0, "altitude_gps_m": 0.5699999928474426, "groundspeed_mps": 0.010678068734705448}, "flight": {"mode": "ALT_HOLD", "armed": false}, "ekf": {"attitude": {"roll": 0.015602056868374348, "pitch": -0.009983154013752937, "yaw": -2.987536668777466}, "local_position": {"x": null, "y": null, "z": null}, "status": {"flags": 135, "velocity_variance": 0.0, "pos_horiz_variance": 0.0023791231215000153, "pos_vert_variance": 0.05029360204935074}}, "errors": ["PreArm: RC not found", "PreArm: Need Alt Estimate", "PreArm: Hardware safety switch", "PreArm: Compasses inconsistent", "PreArm: GPS 1: Bad fix"]}
{"timestamp": "2026-01-25T11:20:59.599226Z", "telemetry": {"lat": 0.0, "lon": 0.0, "satellites": 0, "altitude_gps_m": 0.5699999928474426, "groundspeed_mps": 0.013208478689193726}, "flight": {"mode": "ALT_HOLD", "armed": false}, "ekf": {"attitude": {"roll": 0.01559410896152258, "pitch": -0.010063210502266884, "yaw": -2.9874744415283203}, "local_position": {"x": null, "y": null, "z": null}, "status": {"flags": 135, "velocity_variance": 0.0, "pos_horiz_variance": 0.0026544155552983284, "pos_vert_variance": 0.09940232336521149}}, "errors": ["PreArm: RC not found", "PreArm: Need Alt Estimate", "PreArm: Hardware safety switch", "PreArm: Compasses inconsistent", "PreArm: GPS 1: Bad fix"]}
{"timestamp": "2026-01-25T11:21:00.561740Z", "telemetry": {"lat": 0.0, "lon": 0.0, "satellites": 0, "altitude_gps_m": 0.5699999928474426, "groundspeed_mps": 0.015035519376397133}, "flight": {"mode": "ALT_HOLD", "armed": false}, "ekf": {"attitude": {"roll": 0.015584959648549557, "pitch": -0.010239686816930771, "yaw": -2.9874625205993652}, "local_position": {"x": null, "y": null, "z": null}, "status": {"flags": 135, "velocity_variance": 0.0, "pos_horiz_variance": 0.003111324505880475, "pos_vert_variance": 0.04630356654524803}}, "errors": ["PreArm: RC not found", "PreArm: Need Alt Estimate", "PreArm: Hardware safety switch", "PreArm: Compasses inconsistent", "PreArm: GPS 1: Bad fix"]}
{"timestamp": "2026-01-25T11:21:01.561884Z", "telemetry": {"lat": 0.0, "lon": 0.0, "satellites": 0, "altitude_gps_m": 0.5699999928474426, "groundspeed_mps": 0.017834611237049103}, "flight": {"mode": "ALT_HOLD", "armed": false}, "ekf": {"attitude": {"roll": 0.015646617859601974, "pitch": -0.010296232998371124, "yaw": -2.9876291751861572}, "local_position": {"x": null, "y": null, "z": null}, "status": {"flags": 135, "velocity_variance": 0.0, "pos_horiz_variance": 0.0037473205011337996, "pos_vert_variance": 0.022089745849370956}}, "errors": ["PreArm: RC not found", "PreArm: Need Alt Estimate", "PreArm: Hardware safety switch", "PreArm: Compasses inconsistent", "PreArm: GPS 1: Bad fix"]}
{"timestamp": "2026-01-25T11:21:02.558797Z", "telemetry": {"lat": 0.0, "lon": 0.0, "satellites": 0, "altitude_gps_m": 0.5699999928474426, "groundspeed_mps": 0.01821262389421463}, "flight": {"mode": "ALT_HOLD", "armed": false}, "ekf": {"attitude": {"roll": 0.015622354112565517, "pitch": -0.010350583121180534, "yaw": -2.98752760887146}, "local_position": {"x": null, "y": null, "z": null}, "status": {"flags": 135, "velocity_variance": 0.0, "pos_horiz_variance": 0.003991428297013044, "pos_vert_variance": 0.003009473206475377}}, "errors": ["PreArm: RC not found", "PreArm: Need Alt Estimate", "PreArm: Hardware safety switch", "PreArm: Compasses inconsistent", "PreArm: GPS 1: Bad fix"]}
{"timestamp": "2026-01-25T11:21:03.558895Z", "telemetry": {"lat": 0.0, "lon": 0.0, "satellites": 0, "altitude_gps_m": 0.5699999928474426, "groundspeed_mps": 0.021137261763215065}, "flight": {"mode": "ALT_HOLD", "armed": false}, "ekf": {"attitude": {"roll": 0.015564951114356518, "pitch": -0.01040719449520111, "yaw": -2.9874651432037354}, "local_position": {"x": null, "y": null, "z": null}, "status": {"flags": 135, "velocity_variance": 0.0, "pos_horiz_variance": 0.004349871538579464, "pos_vert_variance": 0.016296977177262306}}, "errors": ["PreArm: RC not found", "PreArm: Need Alt Estimate", "PreArm: Hardware safety switch", "PreArm: Compasses inconsistent", "PreArm: GPS 1: Bad fix"]}
{"timestamp": "2026-01-25T11:21:04.558349Z", "telemetry": {"lat": 0.0, "lon": 0.0, "satellites": 0, "altitude_gps_m": 0.5699999928474426, "groundspeed_mps": 0.02166629768908024}, "flight": {"mode": "ALT_HOLD", "armed": false}, "ekf": {"attitude": {"roll": 0.015511230565607548, "pitch": -0.010564252734184265, "yaw": -2.9872846603393555}, "local_position": {"x": null, "y": null, "z": null}, "status": {"flags": 135, "velocity_variance": 0.0, "pos_horiz_variance": 0.0048600141890347, "pos_vert_variance": 0.004640943370759487}}, "errors": ["PreArm: RC not found", "PreArm: Need Alt Estimate", "PreArm: Hardware safety switch", "PreArm: Compasses inconsistent", "PreArm: GPS 1: Bad fix"]}
{"timestamp": "2026-01-25T11:21:05.558797Z", "telemetry": {"lat": 0.0, "lon": 0.0, "satellites": 0, "altitude_gps_m": 0.5699999928474426, "groundspeed_mps": 0.021620389074087143}, "flight": {"mode": "ALT_HOLD", "armed": false}, "ekf": {"attitude": {"roll": 0.015529557131230831, "pitch": -0.010369576513767242, "yaw": -2.9872403144836426}, "local_position": {"x": null, "y": null, "z": null}, "status": {"flags": 135, "velocity_variance": 0.0, "pos_horiz_variance": 0.00518591096624732, "pos_vert_variance": 0.002101683523505926}}, "errors": ["PreArm: RC not found", "PreArm: Need Alt Estimate", "PreArm: Hardware safety switch", "PreArm: Compasses inconsistent", "PreArm: GPS 1: Bad fix"]}
{"timestamp": "2026-01-25T11:21:06.558668Z", "telemetry": {"lat": 0.0, "lon": 0.0, "satellites": 0, "altitude_gps_m": 0.5699999928474426, "groundspeed_mps": 0.01918313279747963}, "flight": {"mode": "ALT_HOLD", "armed": false}, "ekf": {"attitude": {"roll": 0.015494120307266712, "pitch": -0.010422231629490852, "yaw": -2.9870378971099854}, "local_position": {"x": null, "y": null, "z": null}, "status": {"flags": 135, "velocity_variance": 0.0, "pos_horiz_variance": 0.005128837190568447, "pos_vert_variance": 0.07636319845914841}}, "errors": ["PreArm: RC not found", "PreArm: Need Alt Estimate", "PreArm: Hardware safety switch", "PreArm: Compasses inconsistent", "PreArm: GPS 1: Bad fix"]}
{"timestamp": "2026-01-25T11:21:07.557617Z", "telemetry": {"lat": 0.0, "lon": 0.0, "satellites": 0, "altitude_gps_m": 0.5699999928474426, "groundspeed_mps": 0.02086516097187996}, "flight": {"mode": "ALT_HOLD", "armed": false}, "ekf": {"attitude": {"roll": 0.015571578405797482, "pitch": -0.010308267548680305, "yaw": -2.986957311630249}, "local_position": {"x": null, "y": null, "z": null}, "status": {"flags": 135, "velocity_variance": 0.0, "pos_horiz_variance": 0.00489769596606493, "pos_vert_variance": 0.0018471884541213512}}, "errors": ["PreArm: RC not found", "PreArm: Need Alt Estimate", "PreArm: Hardware safety switch", "PreArm: Compasses inconsistent", "PreArm: GPS 1: Bad fix"]}
{"timestamp": "2026-01-25T11:21:08.557862Z", "telemetry": {"lat": 0.0, "lon": 0.0, "satellites": 0, "altitude_gps_m": 0.5699999928474426, "groundspeed_mps": 0.02086516097187996}, "flight": {"mode": "ALT_HOLD", "armed": false}, "ekf": {"attitude": {"roll": 0.015571578405797482, "pitch": -0.010308267548680305, "yaw": -2.986957311630249}, "local_position": {"x": null, "y": null, "z": null}, "status": {"flags": 135, "velocity_variance": 0.0, "pos_horiz_variance": 0.00489769596606493, "pos_vert_variance": 0.0018471884541213512}}, "errors": ["PreArm: RC not found", "PreArm: Need Alt Estimate", "PreArm: Hardware safety switch", "PreArm: Compasses inconsistent", "PreArm: GPS 1: Bad fix"]}
