{"timestamp": "2026-01-24T15:30:45.952611Z", "telemetry": {"lat": 28.7534189, "lon": 77.1179383, "satellites": 7, "altitude_gps_m": 193.00999450683594, "groundspeed_mps": 0.008083058521151543}, "flight": {"mode": "STABILIZE", "armed": false}, "ekf": {"attitude": {"roll": 0.017769264057278633, "pitch": -0.0051124244928359985, "yaw": 0.9096115231513977}, "local_position": {"x": null, "y": null, "z": null}, "status": {"flags": 135, "velocity_variance": 0.0, "pos_horiz_variance": 0.0016684994334354997, "pos_vert_variance": 0.019676605239510536}}, "errors": []}
{"timestamp": "2026-01-24T15:30:46.909751Z", "telemetry": {"lat": 28.7534089, "lon": 77.1179397, "satellites": 7, "altitude_gps_m": 194.34999084472656, "groundspeed_mps": 0.007011944893747568}, "flight": {"mode": "STABILIZE", "armed": false}, "ekf": {"attitude": {"roll": 0.017711253836750984, "pitch": -0.005096804350614548, "yaw": 0.9096125960350037}, "local_position": {"x": null, "y": null, "z": null}, "status": {"flags": 135, "velocity_variance": 0.0, "pos_horiz_variance": 0.0018617718014866114, "pos_vert_variance": 0.0759662389755249}}, "errors": []}
{"timestamp": "2026-01-24T15:30:47.910106Z", "telemetry": {"lat": 28.7534081, "lon": 77.1179402, "satellites": 7, "altitude_gps_m": 195.5399932861328, "groundspeed_mps": 0.007794653065502644}, "flight": {"mode": "STABILIZE", "armed": false}, "ekf": {"attitude": {"roll": 0.0176174808293581, "pitch": -0.005007553845643997, "yaw": 0.909629762172699}, "local_position": {"x": null, "y": null, "z": null}, "status": {"flags": 135, "velocity_variance": 0.0, "pos_horiz_variance": 0.0017966624582186341, "pos_vert_variance": 0.024752341210842133}}, "errors": []}
{"timestamp": "2026-01-24T15:30:48.910110Z", "telemetry": {"lat": 28.7533908, "lon": 77.1179328, "satellites": 7, "altitude_gps_m": 193.12998962402344, "groundspeed_mps": 0.006855505518615246}, "flight": {"mode": "STABILIZE", "armed": false}, "ekf": {"attitude": {"roll": 0.017474809661507607, "pitch": -0.004896879196166992, "yaw": 0.909579336643219}, "local_position": {"x": null, "y": null, "z": null}, "status": {"flags": 135, "velocity_variance": 0.0, "pos_horiz_variance": 0.0017970339395105839, "pos_vert_variance": 0.047404807060956955}}, "errors": []}
{"timestamp": "2026-01-24T15:30:49.910249Z", "telemetry": {"lat": 28.7533935, "lon": 77.1179058, "satellites": 6, "altitude_gps_m": 190.1599884033203, "groundspeed_mps": 0.007357333321124315}, "flight": {"mode": "STABILIZE", "armed": false}, "ekf": {"attitude": {"roll": 0.01747075654566288, "pitch": -0.004886265844106674, "yaw": 0.9095251560211182}, "local_position": {"x": null, "y": null, "z": null}, "status": {"flags": 135, "velocity_variance": 0.0, "pos_horiz_variance": 0.0016861994517967105, "pos_vert_variance": 0.008003401570022106}}, "errors": []}
{"timestamp": "2026-01-24T15:30:50.910879Z", "telemetry": {"lat": 28.753389, "lon": 77.1178957, "satellites": 6, "altitude_gps_m": 186.25, "groundspeed_mps": 0.00851376447826624}, "flight": {"mode": "STABILIZE", "armed": false}, "ekf": {"attitude": {"roll": 0.01751573570072651, "pitch": -0.004870392382144928, "yaw": 0.9094943404197693}, "local_position": {"x": null, "y": null, "z": null}, "status": {"flags": 135, "velocity_variance": 0.0, "pos_horiz_variance": 0.0019112845184281468, "pos_vert_variance": 0.043316859751939774}}, "errors": []}
{"timestamp": "2026-01-24T15:30:51.911325Z", "telemetry": {"lat": 28.7533929, "lon": 77.1178871, "satellites": 6, "altitude_gps_m": 183.6999969482422, "groundspeed_mps": 0.026812715455889702}, "flight": {"mode": "STABILIZE", "armed": false}, "ekf": {"attitude": {"roll": 0.014275922439992428, "pitch": -0.004584457725286484, "yaw": 0.9093123078346252}, "local_position": {"x": null, "y": null, "z": null}, "status": {"flags": 135, "velocity_variance": 0.0, "pos_horiz_variance": 0.0024437583051621914, "pos_vert_variance": 0.0003138421743642539}}, "errors": []}
{"timestamp": "2026-01-24T15:30:52.910838Z", "telemetry": {"lat": 28.7533829, "lon": 77.1178771, "satellites": 6, "altitude_gps_m": 179.27999877929688, "groundspeed_mps": 0.00937658455222845}, "flight": {"mode": "STABILIZE", "armed": false}, "ekf": {"attitude": {"roll": 0.016199614852666855, "pitch": -0.005578190088272095, "yaw": 0.9096078872680664}, "local_position": {"x": null, "y": null, "z": null}, "status": {"flags": 135, "velocity_variance": 0.0, "pos_horiz_variance": 0.0020957686938345432, "pos_vert_variance": 0.005400527268648148}}, "errors": []}
{"timestamp": "2026-01-24T15:30:53.910895Z", "telemetry": {"lat": 28.7533966, "lon": 77.1178755, "satellites": 7, "altitude_gps_m": 178.6699981689453, "groundspeed_mps": 0.02141156606376171}, "flight": {"mode": "STABILIZE", "armed": false}, "ekf": {"attitude": {"roll": 0.012113058939576149, "pitch": -0.0046966783702373505, "yaw": 0.9090948700904846}, "local_position": {"x": null, "y": null, "z": null}, "status": {"flags": 135, "velocity_variance": 0.0, "pos_horiz_variance": 0.002550540491938591, "pos_vert_variance": 0.02863096073269844}}, "errors": []}
{"timestamp": "2026-01-24T15:30:54.911187Z", "telemetry": {"lat": 28.7533942, "lon": 77.117861, "satellites": 7, "altitude_gps_m": 175.72999572753906, "groundspeed_mps": 0.02045373246073723}, "flight": {"mode": "STABILIZE", "armed": false}, "ekf": {"attitude": {"roll": 0.017040617763996124, "pitch": -0.004232265055179596, "yaw": 0.9093272686004639}, "local_position": {"x": null, "y": null, "z": null}, "status": {"flags": 135, "velocity_variance": 0.0, "pos_horiz_variance": 0.002397919772192836, "pos_vert_variance": 0.010007794946432114}}, "errors": ["PreArm: Hardware safety switch"]}
{"timestamp": "2026-01-24T15:30:55.911410Z", "telemetry": {"lat": 28.753383, "lon": 77.1178484, "satellites": 8, "altitude_gps_m": 172.92999267578125, "groundspeed_mps": 0.01580791547894478}, "flight": {"mode": "STABILIZE", "armed": false}, "ekf": {"attitude": {"roll": 0.01744641549885273, "pitch": -0.005015730857849121, "yaw": 0.9092408418655396}, "local_position": {"x": null, "y": null, "z": null}, "status": {"flags": 135, "velocity_variance": 0.0, "pos_horiz_variance": 0.0028451138641685247, "pos_vert_variance": 0.012469697743654251}}, "errors": ["PreArm: Hardware safety switch"]}
{"timestamp": "2026-01-24T15:30:56.911681Z", "telemetry": {"lat": 28.7533686, "lon": 77.1178413, "satellites": 8, "altitude_gps_m": 171.97000122070312, "groundspeed_mps": 0.013089742511510849}, "flight": {"mode": "STABILIZE", "armed": false}, "ekf": {"attitude": {"roll": 0.01734068989753723, "pitch": -0.004848845303058624, "yaw": 0.9091594219207764}, "local_position": {"x": null, "y": null, "z": null}, "status": {"flags": 135, "velocity_variance": 0.0, "pos_horiz_variance": 0.0034018480218946934, "pos_vert_variance": 0.03557482361793518}}, "errors": ["PreArm: Hardware safety switch"]}
{"timestamp": "2026-01-24T15:30:57.874271Z", "telemetry": {"lat": 28.7533542, "lon": 77.117838, "satellites": 6, "altitude_gps_m": 169.5699920654297, "groundspeed_mps": 0.014109478332102299}, "flight": {"mode": "STABILIZE", "armed": false}, "ekf": {"attitude": {"roll": 0.017272906377911568, "pitch": -0.004809118807315826, "yaw": 0.9091456532478333}, "local_position": {"x": null, "y": null, "z": null}, "status": {"flags": 135, "velocity_variance": 0.0, "pos_horiz_variance": 0.003569204593077302, "pos_vert_variance": 0.020499274134635925}}, "errors": ["PreArm: Hardware safety switch"]}
{"timestamp": "2026-01-24T15:30:58.874308Z", "telemetry": {"lat": 28.7533324, "lon": 77.1178314, "satellites": 6, "altitude_gps_m": 166.1199951171875, "groundspeed_mps": 0.01304468885064125}, "flight": {"mode": "STABILIZE", "armed": false}, "ekf": {"attitude": {"roll": 0.017307475209236145, "pitch": -0.004754621535539627, "yaw": 0.9090562462806702}, "local_position": {"x": null, "y": null, "z": null}, "status": {"flags": 135, "velocity_variance": 0.0, "pos_horiz_variance": 0.003503160085529089, "pos_vert_variance": 0.02568940259516239}}, "errors": ["PreArm: Hardware safety switch"]}
{"timestamp": "2026-01-24T15:30:59.912026Z", "telemetry": {"lat": 28.7533225, "lon": 77.1178259, "satellites": 6, "altitude_gps_m": 161.64999389648438, "groundspeed_mps": 0.009523819200694561}, "flight": {"mode": "STABILIZE", "armed": false}, "ekf": {"attitude": {"roll": 0.01734243892133236, "pitch": -0.0048780739307403564, "yaw": 0.9087546467781067}, "local_position": {"x": null, "y": null, "z": null}, "status": {"flags": 135, "velocity_variance": 0.0, "pos_horiz_variance": 0.0033896390814334154, "pos_vert_variance": 0.06397369503974915}}, "errors": ["PreArm: Hardware safety switch"]}
{"timestamp": "2026-01-24T15:31:00.912186Z", "telemetry": {"lat": 28.7533205, "lon": 77.117816, "satellites": 6, "altitude_gps_m": 157.05999755859375, "groundspeed_mps": 0.012312961742281914}, "flight": {"mode": "STABILIZE", "armed": false}, "ekf": {"attitude": {"roll": 0.01725427620112896, "pitch": -0.004852216690778732, "yaw": 0.9087108969688416}, "local_position": {"x": null, "y": null, "z": null}, "status": {"flags": 135, "velocity_variance": 0.0, "pos_horiz_variance": 0.003060434013605118, "pos_vert_variance": 0.02714349888265133}}, "errors": ["PreArm: Hardware safety switch"]}
{"timestamp": "2026-01-24T15:31:01.912308Z", "telemetry": {"lat": 28.7533143, "lon": 77.1178167, "satellites": 5, "altitude_gps_m": 152.1999969482422, "groundspeed_mps": 0.01316280197352171}, "flight": {"mode": "STABILIZE", "armed": false}, "ekf": {"attitude": {"roll": 0.01713574305176735, "pitch": -0.0049069710075855255, "yaw": 0.9084470868110657}, "local_position": {"x": null, "y": null, "z": null}, "status": {"flags": 135, "velocity_variance": 0.0, "pos_horiz_variance": 0.0034452390391379595, "pos_vert_variance": 0.014660943299531937}}, "errors": ["PreArm: Hardware safety switch"]}
{"timestamp": "2026-01-24T15:31:02.912418Z", "telemetry": {"lat": 28.7533259, "lon": 77.1178133, "satellites": 5, "altitude_gps_m": 148.25999450683594, "groundspeed_mps": 0.016245152801275253}, "flight": {"mode": "STABILIZE", "armed": false}, "ekf": {"attitude": {"roll": 0.017107989639043808, "pitch": -0.004850219935178757, "yaw": 0.9084059000015259}, "local_position": {"x": null, "y": null, "z": null}, "status": {"flags": 135, "velocity_variance": 0.0, "pos_horiz_variance": 0.0038796872831881046, "pos_vert_variance": 0.0263331551104784}}, "errors": ["PreArm: Hardware safety switch"]}
{"timestamp": "2026-01-24T15:31:03.912532Z", "telemetry": {"lat": 28.7533203, "lon": 77.1178104, "satellites": 7, "altitude_gps_m": 144.75, "groundspeed_mps": 0.01658277027308941}, "flight": {"mode": "STABILIZE", "armed": false}, "ekf": {"attitude": {"roll": 0.017075497657060623, "pitch": -0.004877112805843353, "yaw": 0.9083625078201294}, "local_position": {"x": null, "y": null, "z": null}, "status": {"flags": 135, "velocity_variance": 0.0, "pos_horiz_variance": 0.004084052983671427, "pos_vert_variance": 0.03538365662097931}}, "errors": ["PreArm: Hardware safety switch"]}
{"timestamp": "2026-01-24T15:31:04.912786Z", "telemetry": {"lat": 28.7533227, "lon": 77.1178126, "satellites": 7, "altitude_gps_m": 145.20999145507812, "groundspeed_mps": 0.031233614310622215}, "flight": {"mode": "STABILIZE", "armed": false}, "ekf": {"attitude": {"roll": 0.011682994663715363, "pitch": -0.004334386438131332, "yaw": 0.9082528948783875}, "local_position": {"x": null, "y": null, "z": null}, "status": {"flags": 135, "velocity_variance": 0.0, "pos_horiz_variance": 0.005525762680917978, "pos_vert_variance": 0.10015011578798294}}, "errors": ["PreArm: Hardware safety switch"]}
{"timestamp": "2026-01-24T15:31:05.913025Z", "telemetry": {"lat": 28.7533151, "lon": 77.1178057, "satellites": 7, "altitude_gps_m": 143.9499969482422, "groundspeed_mps": 0.022002505138516426}, "flight": {"mode": "STABILIZE", "armed": false}, "ekf": {"attitude": {"roll": 0.012369104661047459, "pitch": -0.004467964172363281, "yaw": 0.9084230065345764}, "local_position": {"x": null, "y": null, "z": null}, "status": {"flags": 135, "velocity_variance": 0.0, "pos_horiz_variance": 0.005308115389198065, "pos_vert_variance": 0.016198573634028435}}, "errors": ["PreArm: Hardware safety switch"]}
{"timestamp": "2026-01-24T15:31:06.913097Z", "telemetry": {"lat": 28.7533164, "lon": 77.1178022, "satellites": 6, "altitude_gps_m": 143.92999267578125, "groundspeed_mps": 0.016953106969594955}, "flight": {"mode": "STABILIZE", "armed": false}, "ekf": {"attitude": {"roll": 0.012814016081392765, "pitch": -0.004372015595436096, "yaw": 0.9083431363105774}, "local_position": {"x": null, "y": null, "z": null}, "status": {"flags": 135, "velocity_variance": 0.0, "pos_horiz_variance": 0.005641653668135405, "pos_vert_variance": 0.014720221981406212}}, "errors": ["PreArm: Hardware safety switch"]}
{"timestamp": "2026-01-24T15:31:07.913266Z", "telemetry": {"lat": 28.7533272, "lon": 77.1177998, "satellites": 7, "altitude_gps_m": 144.0, "groundspeed_mps": 0.015632478520274162}, "flight": {"mode": "STABILIZE", "armed": false}, "ekf": {"attitude": {"roll": 0.011646470986306667, "pitch": -0.005404334515333176, "yaw": 0.9083608388900757}, "local_position": {"x": null, "y": null, "z": null}, "status": {"flags": 135, "velocity_variance": 0.0, "pos_horiz_variance": 0.0060277036391198635, "pos_vert_variance": 0.04074806720018387}}, "errors": ["PreArm: Hardware safety switch"]}
{"timestamp": "2026-01-24T15:31:08.913422Z", "telemetry": {"lat": 28.753336, "lon": 77.1178033, "satellites": 7, "altitude_gps_m": 142.58999633789062, "groundspeed_mps": 0.02021334506571293}, "flight": {"mode": "STABILIZE", "armed": false}, "ekf": {"attitude": {"roll": 0.012748022563755512, "pitch": -0.004598468542098999, "yaw": 0.9083479642868042}, "local_position": {"x": null, "y": null, "z": null}, "status": {"flags": 135, "velocity_variance": 0.0, "pos_horiz_variance": 0.005482071079313755, "pos_vert_variance": 0.04287669435143471}}, "errors": ["PreArm: Hardware safety switch"]}
{"timestamp": "2026-01-24T15:31:09.913688Z", "telemetry": {"lat": 28.7533332, "lon": 77.117803, "satellites": 7, "altitude_gps_m": 141.3699951171875, "groundspeed_mps": 0.017019841820001602}, "flight": {"mode": "STABILIZE", "armed": false}, "ekf": {"attitude": {"roll": 0.012238495983183384, "pitch": -0.004506956785917282, "yaw": 0.9083926677703857}, "local_position": {"x": null, "y": null, "z": null}, "status": {"flags": 135, "velocity_variance": 0.0, "pos_horiz_variance": 0.0052749356254935265, "pos_vert_variance": 0.04581817239522934}}, "errors": ["PreArm: Hardware safety switch"]}
{"timestamp": "2026-01-24T15:31:10.913989Z", "telemetry": {"lat": 28.7533206, "lon": 77.1178034, "satellites": 7, "altitude_gps_m": 141.239990234375, "groundspeed_mps": 0.01407760102301836}, "flight": {"mode": "STABILIZE", "armed": false}, "ekf": {"attitude": {"roll": 0.011965222656726837, "pitch": -0.004411462694406509, "yaw": 0.9083686470985413}, "local_position": {"x": null, "y": null, "z": null}, "status": {"flags": 135, "velocity_variance": 0.0, "pos_horiz_variance": 0.0046595376916229725, "pos_vert_variance": 0.010264742188155651}}, "errors": ["PreArm: Hardware safety switch"]}
{"timestamp": "2026-01-24T15:31:11.914026Z", "telemetry": {"lat": 28.7533233, "lon": 77.1178129, "satellites": 7, "altitude_gps_m": 140.77999877929688, "groundspeed_mps": 0.009480237029492855}, "flight": {"mode": "STABILIZE", "armed": false}, "ekf": {"attitude": {"roll": 0.01220289058983326, "pitch": -0.0044362470507621765, "yaw": 0.9084128141403198}, "local_position": {"x": null, "y": null, "z": null}, "status": {"flags": 135, "velocity_variance": 0.0, "pos_horiz_variance": 0.003881579963490367, "pos_vert_variance": 0.01397748477756977}}, "errors": ["PreArm: Hardware safety switch"]}
{"timestamp": "2026-01-24T15:31:12.913934Z", "telemetry": {"lat": 28.7533338, "lon": 77.117815, "satellites": 8, "altitude_gps_m": 142.47999572753906, "groundspeed_mps": 0.0021779327653348446}, "flight": {"mode": "STABILIZE", "armed": false}, "ekf": {"attitude": {"roll": 0.016223100945353508, "pitch": -0.004865929484367371, "yaw": 0.9086313843727112}, "local_position": {"x": null, "y": null, "z": null}, "status": {"flags": 135, "velocity_variance": 0.0, "pos_horiz_variance": 0.002667219378054142, "pos_vert_variance": 0.045906566083431244}}, "errors": ["PreArm: Hardware safety switch"]}
{"timestamp": "2026-01-24T15:31:13.914307Z", "telemetry": {"lat": 28.753341, "lon": 77.1178121, "satellites": 8, "altitude_gps_m": 140.97999572753906, "groundspeed_mps": 0.008224984630942345}, "flight": {"mode": "STABILIZE", "armed": false}, "ekf": {"attitude": {"roll": 0.017260905355215073, "pitch": -0.004544124007225037, "yaw": 0.9084526300430298}, "local_position": {"x": null, "y": null, "z": null}, "status": {"flags": 135, "velocity_variance": 0.0, "pos_horiz_variance": 0.0025573428720235825, "pos_vert_variance": 0.07103171199560165}}, "errors": ["PreArm: Hardware safety switch"]}
{"timestamp": "2026-01-24T15:31:14.914448Z", "telemetry": {"lat": 28.753339, "lon": 77.1178069, "satellites": 8, "altitude_gps_m": 139.14999389648438, "groundspeed_mps": 0.010587151162326336}, "flight": {"mode": "STABILIZE", "armed": false}, "ekf": {"attitude": {"roll": 0.017423205077648163, "pitch": -0.004983328282833099, "yaw": 0.9085831642150879}, "local_position": {"x": null, "y": null, "z": null}, "status": {"flags": 135, "velocity_variance": 0.0, "pos_horiz_variance": 0.002799314446747303, "pos_vert_variance": 0.007041419856250286}}, "errors": ["PreArm: Hardware safety switch"]}
{"timestamp": "2026-01-24T15:31:15.876683Z", "telemetry": {"lat": 28.7533467, "lon": 77.1178093, "satellites": 6, "altitude_gps_m": 138.4199981689453, "groundspeed_mps": 0.010229703038930893}, "flight": {"mode": "STABILIZE", "armed": false}, "ekf": {"attitude": {"roll": 0.017474530264735222, "pitch": -0.005173157900571823, "yaw": 0.9086412191390991}, "local_position": {"x": null, "y": null, "z": null}, "status": {"flags": 135, "velocity_variance": 0.0, "pos_horiz_variance": 0.002927318448200822, "pos_vert_variance": 0.004336104262620211}}, "errors": ["PreArm: Hardware safety switch"]}
{"timestamp": "2026-01-24T15:31:16.914693Z", "telemetry": {"lat": 28.7533535, "lon": 77.1178161, "satellites": 6, "altitude_gps_m": 137.87998962402344, "groundspeed_mps": 0.00953319575637579}, "flight": {"mode": "STABILIZE", "armed": false}, "ekf": {"attitude": {"roll": 0.01736755110323429, "pitch": -0.00517253577709198, "yaw": 0.9085924625396729}, "local_position": {"x": null, "y": null, "z": null}, "status": {"flags": 135, "velocity_variance": 0.0, "pos_horiz_variance": 0.0027341817039996386, "pos_vert_variance": 0.016914114356040955}}, "errors": ["PreArm: Hardware safety switch"]}
{"timestamp": "2026-01-24T15:31:17.915020Z", "telemetry": {"lat": 28.7533543, "lon": 77.1178187, "satellites": 6, "altitude_gps_m": 138.4199981689453, "groundspeed_mps": 0.012701793573796749}, "flight": {"mode": "STABILIZE", "armed": false}, "ekf": {"attitude": {"roll": 0.01729070208966732, "pitch": -0.00514337420463562, "yaw": 0.9085540175437927}, "local_position": {"x": null, "y": null, "z": null}, "status": {"flags": 135, "velocity_variance": 0.0, "pos_horiz_variance": 0.0029156433884054422, "pos_vert_variance": 0.01974237710237503}}, "errors": ["PreArm: Hardware safety switch"]}
{"timestamp": "2026-01-24T15:31:18.915209Z", "telemetry": {"lat": 28.7533536, "lon": 77.1178187, "satellites": 6, "altitude_gps_m": 137.8699951171875, "groundspeed_mps": 0.013619638048112392}, "flight": {"mode": "STABILIZE", "armed": false}, "ekf": {"attitude": {"roll": 0.01725112460553646, "pitch": -0.005129508674144745, "yaw": 0.9085668921470642}, "local_position": {"x": null, "y": null, "z": null}, "status": {"flags": 135, "velocity_variance": 0.0, "pos_horiz_variance": 0.003336162306368351, "pos_vert_variance": 0.02372695878148079}}, "errors": ["PreArm: Hardware safety switch"]}
{"timestamp": "2026-01-24T15:31:19.915233Z", "telemetry": {"lat": 28.7533497, "lon": 77.1178213, "satellites": 6, "altitude_gps_m": 139.38999938964844, "groundspeed_mps": 0.012283996678888798}, "flight": {"mode": "STABILIZE", "armed": false}, "ekf": {"attitude": {"roll": 0.01725306734442711, "pitch": -0.005129225552082062, "yaw": 0.9085304141044617}, "local_position": {"x": null, "y": null, "z": null}, "status": {"flags": 135, "velocity_variance": 0.0, "pos_horiz_variance": 0.0035940860398113728, "pos_vert_variance": 0.00925968773663044}}, "errors": ["PreArm: Hardware safety switch"]}
{"timestamp": "2026-01-24T15:31:20.915528Z", "telemetry": {"lat": 28.7533493, "lon": 77.1178122, "satellites": 8, "altitude_gps_m": 138.55999755859375, "groundspeed_mps": 0.014047057367861271}, "flight": {"mode": "STABILIZE", "armed": false}, "ekf": {"attitude": {"roll": 0.01718023791909218, "pitch": -0.005188457667827606, "yaw": 0.9084950089454651}, "local_position": {"x": null, "y": null, "z": null}, "status": {"flags": 135, "velocity_variance": 0.0, "pos_horiz_variance": 0.003676425665616989, "pos_vert_variance": 0.014162381179630756}}, "errors": ["PreArm: Hardware safety switch"]}
{"timestamp": "2026-01-24T15:31:21.915571Z", "telemetry": {"lat": 28.7533287, "lon": 77.1177977, "satellites": 8, "altitude_gps_m": 141.52000427246094, "groundspeed_mps": 0.016397105529904366}, "flight": {"mode": "STABILIZE", "armed": false}, "ekf": {"attitude": {"roll": 0.017344888299703598, "pitch": -0.005067821592092514, "yaw": 0.9083730578422546}, "local_position": {"x": null, "y": null, "z": null}, "status": {"flags": 135, "velocity_variance": 0.0, "pos_horiz_variance": 0.004065725486725569, "pos_vert_variance": 0.005872044246643782}}, "errors": ["PreArm: Hardware safety switch"]}
{"timestamp": "2026-01-24T15:31:22.915669Z", "telemetry": {"lat": 28.7533184, "lon": 77.1177867, "satellites": 8, "altitude_gps_m": 139.0500030517578, "groundspeed_mps": 0.01586664281785488}, "flight": {"mode": "STABILIZE", "armed": false}, "ekf": {"attitude": {"roll": 0.017426205798983574, "pitch": -0.005191978067159653, "yaw": 0.9083288311958313}, "local_position": {"x": null, "y": null, "z": null}, "status": {"flags": 135, "velocity_variance": 0.0, "pos_horiz_variance": 0.004361300729215145, "pos_vert_variance": 0.02580065093934536}}, "errors": ["PreArm: Hardware safety switch"]}
{"timestamp": "2026-01-24T15:31:23.915956Z", "telemetry": {"lat": 28.7533102, "lon": 77.1177887, "satellites": 8, "altitude_gps_m": 139.6999969482422, "groundspeed_mps": 0.015412181615829468}, "flight": {"mode": "STABILIZE", "armed": false}, "ekf": {"attitude": {"roll": 0.017429735511541367, "pitch": -0.005124080926179886, "yaw": 0.9084044098854065}, "local_position": {"x": null, "y": null, "z": null}, "status": {"flags": 135, "velocity_variance": 0.0, "pos_horiz_variance": 0.00435542082414031, "pos_vert_variance": 0.0416581816971302}}, "errors": ["PreArm: Hardware safety switch"]}
{"timestamp": "2026-01-24T15:31:24.916696Z", "telemetry": {"lat": 28.7533102, "lon": 77.1177887, "satellites": 8, "altitude_gps_m": 139.6999969482422, "groundspeed_mps": 0.015412181615829468}, "flight": {"mode": "STABILIZE", "armed": false}, "ekf": {"attitude": {"roll": 0.017429735511541367, "pitch": -0.005124080926179886, "yaw": 0.9084044098854065}, "local_position": {"x": null, "y": null, "z": null}, "status": {"flags": 135, "velocity_variance": 0.0, "pos_horiz_variance": 0.00435542082414031, "pos_vert_variance": 0.0416581816971302}}, "errors": ["PreArm: Hardware safety switch"]}
