{"timestamp": "2026-01-30T15:31:21.065975Z", "telemetry": {"lat": 0.0, "lon": 0.0, "satellites": 0, "altitude_gps_m": 1.4299999475479126, "groundspeed_mps": 0.13129360973834991}, "flight": {"mode": "STABILIZE", "armed": false}, "ekf": {"attitude": {"roll": -0.030343325808644295, "pitch": -0.024944055825471878, "yaw": 0.8186249136924744}, "local_position": {"x": null, "y": null, "z": null}, "status": {"flags": 135, "velocity_variance": 0.0, "pos_horiz_variance": 0.0310126394033432, "pos_vert_variance": 0.08185765147209167}}, "errors": []}
{"timestamp": "2026-01-30T15:31:22.070761Z", "telemetry": {"lat": 0.0, "lon": 0.0, "satellites": 0, "altitude_gps_m": 1.4299999475479126, "groundspeed_mps": 0.1361735463142395}, "flight": {"mode": "STABILIZE", "armed": false}, "ekf": {"attitude": {"roll": -0.030253157019615173, "pitch": -0.025180432945489883, "yaw": 0.8187623620033264}, "local_position": {"x": null, "y": null, "z": null}, "status": {"flags": 135, "velocity_variance": 0.0, "pos_horiz_variance": 0.031981006264686584, "pos_vert_variance": 0.10077894479036331}}, "errors": []}
{"timestamp": "2026-01-30T15:31:23.070928Z", "telemetry": {"lat": 0.0, "lon": 0.0, "satellites": 0, "altitude_gps_m": 1.4299999475479126, "groundspeed_mps": 0.13852739334106445}, "flight": {"mode": "STABILIZE", "armed": false}, "ekf": {"attitude": {"roll": -0.030224954709410667, "pitch": -0.025353187695145607, "yaw": 0.8190085887908936}, "local_position": {"x": null, "y": null, "z": null}, "status": {"flags": 135, "velocity_variance": 0.0, "pos_horiz_variance": 0.032691922038793564, "pos_vert_variance": 0.06395267695188522}}, "errors": []}
{"timestamp": "2026-01-30T15:31:24.071071Z", "telemetry": {"lat": 0.0, "lon": 0.0, "satellites": 0, "altitude_gps_m": 1.4299999475479126, "groundspeed_mps": 0.13944901525974274}, "flight": {"mode": "STABILIZE", "armed": false}, "ekf": {"attitude": {"roll": -0.030033951625227928, "pitch": -0.025370916351675987, "yaw": 0.8189381957054138}, "local_position": {"x": null, "y": null, "z": null}, "status": {"flags": 135, "velocity_variance": 0.0, "pos_horiz_variance": 0.03325421363115311, "pos_vert_variance": 0.05866871029138565}}, "errors": []}
{"timestamp": "2026-01-30T15:31:25.071484Z", "telemetry": {"lat": 0.0, "lon": 0.0, "satellites": 0, "altitude_gps_m": 1.4299999475479126, "groundspeed_mps": 0.13991311192512512}, "flight": {"mode": "STABILIZE", "armed": false}, "ekf": {"attitude": {"roll": -0.02988089621067047, "pitch": -0.02535853534936905, "yaw": 0.8189595937728882}, "local_position": {"x": null, "y": null, "z": null}, "status": {"flags": 135, "velocity_variance": 0.0, "pos_horiz_variance": 0.03341870754957199, "pos_vert_variance": 0.02653423510491848}}, "errors": []}
{"timestamp": "2026-01-30T15:31:26.071073Z", "telemetry": {"lat": 0.0, "lon": 0.0, "satellites": 0, "altitude_gps_m": 1.4299999475479126, "groundspeed_mps": 0.14570409059524536}, "flight": {"mode": "STABILIZE", "armed": false}, "ekf": {"attitude": {"roll": -0.029797706753015518, "pitch": -0.025854188948869705, "yaw": 0.8191167712211609}, "local_position": {"x": null, "y": null, "z": null}, "status": {"flags": 135, "velocity_variance": 0.0, "pos_horiz_variance": 0.03484218195080757, "pos_vert_variance": 0.02264612540602684}}, "errors": []}
{"timestamp": "2026-01-30T15:31:27.071419Z", "telemetry": {"lat": 0.0, "lon": 0.0, "satellites": 0, "altitude_gps_m": 1.4299999475479126, "groundspeed_mps": 0.14548365771770477}, "flight": {"mode": "STABILIZE", "armed": false}, "ekf": {"attitude": {"roll": -0.029866162687540054, "pitch": -0.025809556245803833, "yaw": 0.8189885020256042}, "local_position": {"x": null, "y": null, "z": null}, "status": {"flags": 135, "velocity_variance": 0.0, "pos_horiz_variance": 0.035266127437353134, "pos_vert_variance": 0.012364462949335575}}, "errors": []}
{"timestamp": "2026-01-30T15:31:28.071112Z", "telemetry": {"lat": 0.0, "lon": 0.0, "satellites": 0, "altitude_gps_m": 1.4299999475479126, "groundspeed_mps": 0.1482577621936798}, "flight": {"mode": "STABILIZE", "armed": false}, "ekf": {"attitude": {"roll": -0.02999790944159031, "pitch": -0.02587186172604561, "yaw": 0.8190869688987732}, "local_position": {"x": null, "y": null, "z": null}, "status": {"flags": 135, "velocity_variance": 0.0, "pos_horiz_variance": 0.035625651478767395, "pos_vert_variance": 0.03076459839940071}}, "errors": []}
{"timestamp": "2026-01-30T15:31:29.071257Z", "telemetry": {"lat": 0.0, "lon": 0.0, "satellites": 0, "altitude_gps_m": 1.4299999475479126, "groundspeed_mps": 0.15042395889759064}, "flight": {"mode": "STABILIZE", "armed": false}, "ekf": {"attitude": {"roll": -0.030063945800065994, "pitch": -0.026017731055617332, "yaw": 0.8191811442375183}, "local_position": {"x": null, "y": null, "z": null}, "status": {"flags": 135, "velocity_variance": 0.0, "pos_horiz_variance": 0.03574998304247856, "pos_vert_variance": 0.006064115557819605}}, "errors": []}
{"timestamp": "2026-01-30T15:31:30.071015Z", "telemetry": {"lat": 0.0, "lon": 0.0, "satellites": 0, "altitude_gps_m": 1.4299999475479126, "groundspeed_mps": 0.14965541660785675}, "flight": {"mode": "STABILIZE", "armed": false}, "ekf": {"attitude": {"roll": -0.029941212385892868, "pitch": -0.026095286011695862, "yaw": 0.819263219833374}, "local_position": {"x": null, "y": null, "z": null}, "status": {"flags": 135, "velocity_variance": 0.0, "pos_horiz_variance": 0.03627064824104309, "pos_vert_variance": 0.014295053668320179}}, "errors": ["PreArm: RC not found", "PreArm: Hardware safety switch"]}
{"timestamp": "2026-01-30T15:31:31.072278Z", "telemetry": {"lat": 0.0, "lon": 0.0, "satellites": 0, "altitude_gps_m": 1.4299999475479126, "groundspeed_mps": 0.15291231870651245}, "flight": {"mode": "STABILIZE", "armed": false}, "ekf": {"attitude": {"roll": -0.02995387278497219, "pitch": -0.026019010692834854, "yaw": 0.8193497657775879}, "local_position": {"x": null, "y": null, "z": null}, "status": {"flags": 135, "velocity_variance": 0.0, "pos_horiz_variance": 0.036681462079286575, "pos_vert_variance": 0.051598820835351944}}, "errors": ["PreArm: RC not found", "PreArm: Hardware safety switch", "PreArm: Compasses inconsistent"]}
{"timestamp": "2026-01-30T15:31:32.071416Z", "telemetry": {"lat": 0.0, "lon": 0.0, "satellites": 0, "altitude_gps_m": 1.4299999475479126, "groundspeed_mps": 0.15509212017059326}, "flight": {"mode": "STABILIZE", "armed": false}, "ekf": {"attitude": {"roll": -0.029923468828201294, "pitch": -0.02611576020717621, "yaw": 0.8193180561065674}, "local_position": {"x": null, "y": null, "z": null}, "status": {"flags": 135, "velocity_variance": 0.0, "pos_horiz_variance": 0.03694852069020271, "pos_vert_variance": 0.06835885345935822}}, "errors": ["PreArm: RC not found", "PreArm: Hardware safety switch", "PreArm: Compasses inconsistent"]}
{"timestamp": "2026-01-30T15:31:33.071492Z", "telemetry": {"lat": 0.0, "lon": 0.0, "satellites": 0, "altitude_gps_m": 1.4299999475479126, "groundspeed_mps": 0.1579657346010208}, "flight": {"mode": "STABILIZE", "armed": false}, "ekf": {"attitude": {"roll": -0.029816780239343643, "pitch": -0.026222392916679382, "yaw": 0.8195825219154358}, "local_position": {"x": null, "y": null, "z": null}, "status": {"flags": 135, "velocity_variance": 0.0, "pos_horiz_variance": 0.03739467263221741, "pos_vert_variance": 0.0919223427772522}}, "errors": ["PreArm: RC not found", "PreArm: Hardware safety switch", "PreArm: Compasses inconsistent"]}
{"timestamp": "2026-01-30T15:31:34.071537Z", "telemetry": {"lat": 0.0, "lon": 0.0, "satellites": 0, "altitude_gps_m": 1.4299999475479126, "groundspeed_mps": 0.15695112943649292}, "flight": {"mode": "STABILIZE", "armed": false}, "ekf": {"attitude": {"roll": -0.02977111004292965, "pitch": -0.026194177567958832, "yaw": 0.8197304010391235}, "local_position": {"x": null, "y": null, "z": null}, "status": {"flags": 135, "velocity_variance": 0.0, "pos_horiz_variance": 0.037770938128232956, "pos_vert_variance": 0.01239787507802248}}, "errors": ["PreArm: RC not found", "PreArm: Hardware safety switch", "PreArm: Compasses inconsistent"]}
{"timestamp": "2026-01-30T15:31:35.071377Z", "telemetry": {"lat": 0.0, "lon": 0.0, "satellites": 0, "altitude_gps_m": 1.4299999475479126, "groundspeed_mps": 0.15726211667060852}, "flight": {"mode": "STABILIZE", "armed": false}, "ekf": {"attitude": {"roll": -0.029829705134034157, "pitch": -0.02603183314204216, "yaw": 0.8199172616004944}, "local_position": {"x": null, "y": null, "z": null}, "status": {"flags": 135, "velocity_variance": 0.0, "pos_horiz_variance": 0.03841336444020271, "pos_vert_variance": 0.09017446637153625}}, "errors": ["PreArm: RC not found", "PreArm: Hardware safety switch", "PreArm: Compasses inconsistent"]}
{"timestamp": "2026-01-30T15:31:36.071514Z", "telemetry": {"lat": 0.0, "lon": 0.0, "satellites": 0, "altitude_gps_m": 1.4299999475479126, "groundspeed_mps": 0.15444965660572052}, "flight": {"mode": "STABILIZE", "armed": false}, "ekf": {"attitude": {"roll": -0.030007315799593925, "pitch": -0.025895092636346817, "yaw": 0.8202993273735046}, "local_position": {"x": null, "y": null, "z": null}, "status": {"flags": 135, "velocity_variance": 0.0, "pos_horiz_variance": 0.0376899354159832, "pos_vert_variance": 0.06096392869949341}}, "errors": ["PreArm: RC not found", "PreArm: Hardware safety switch", "PreArm: Compasses inconsistent"]}
{"timestamp": "2026-01-30T15:31:37.071200Z", "telemetry": {"lat": 0.0, "lon": 0.0, "satellites": 0, "altitude_gps_m": 1.4299999475479126, "groundspeed_mps": 0.15013042092323303}, "flight": {"mode": "STABILIZE", "armed": false}, "ekf": {"attitude": {"roll": -0.030209790915250778, "pitch": -0.025853518396615982, "yaw": 0.8204293251037598}, "local_position": {"x": null, "y": null, "z": null}, "status": {"flags": 135, "velocity_variance": 0.0, "pos_horiz_variance": 0.03770628944039345, "pos_vert_variance": 0.17348209023475647}}, "errors": ["PreArm: RC not found", "PreArm: Hardware safety switch", "PreArm: Compasses inconsistent"]}
{"timestamp": "2026-01-30T15:31:38.071570Z", "telemetry": {"lat": 0.0, "lon": 0.0, "satellites": 0, "altitude_gps_m": 1.4299999475479126, "groundspeed_mps": 0.15219667553901672}, "flight": {"mode": "STABILIZE", "armed": false}, "ekf": {"attitude": {"roll": -0.0301153976470232, "pitch": -0.02590072527527809, "yaw": 0.8203837275505066}, "local_position": {"x": null, "y": null, "z": null}, "status": {"flags": 135, "velocity_variance": 0.0, "pos_horiz_variance": 0.0368487611413002, "pos_vert_variance": 0.04556266963481903}}, "errors": ["PreArm: RC not found", "PreArm: Hardware safety switch", "PreArm: Compasses inconsistent"]}
{"timestamp": "2026-01-30T15:31:39.072375Z", "telemetry": {"lat": 0.0, "lon": 0.0, "satellites": 0, "altitude_gps_m": 1.4299999475479126, "groundspeed_mps": 0.1529591679573059}, "flight": {"mode": "STABILIZE", "armed": false}, "ekf": {"attitude": {"roll": -0.030108215287327766, "pitch": -0.02597200684249401, "yaw": 0.8204523921012878}, "local_position": {"x": null, "y": null, "z": null}, "status": {"flags": 135, "velocity_variance": 0.0, "pos_horiz_variance": 0.03704846277832985, "pos_vert_variance": 0.026293780654668808}}, "errors": ["PreArm: RC not found", "PreArm: Hardware safety switch", "PreArm: Compasses inconsistent"]}
{"timestamp": "2026-01-30T15:31:40.071383Z", "telemetry": {"lat": 0.0, "lon": 0.0, "satellites": 0, "altitude_gps_m": 1.4299999475479126, "groundspeed_mps": 0.1520049273967743}, "flight": {"mode": "STABILIZE", "armed": false}, "ekf": {"attitude": {"roll": -0.03001415729522705, "pitch": -0.02576383762061596, "yaw": 0.8205848932266235}, "local_position": {"x": null, "y": null, "z": null}, "status": {"flags": 135, "velocity_variance": 0.0, "pos_horiz_variance": 0.03713304176926613, "pos_vert_variance": 0.05388091132044792}}, "errors": ["PreArm: RC not found", "PreArm: Hardware safety switch", "PreArm: Compasses inconsistent"]}
{"timestamp": "2026-01-30T15:31:41.072138Z", "telemetry": {"lat": 0.0, "lon": 0.0, "satellites": 0, "altitude_gps_m": 1.4299999475479126, "groundspeed_mps": 0.15125331282615662}, "flight": {"mode": "STABILIZE", "armed": false}, "ekf": {"attitude": {"roll": -0.02973983995616436, "pitch": -0.025954879820346832, "yaw": 0.820899486541748}, "local_position": {"x": null, "y": null, "z": null}, "status": {"flags": 135, "velocity_variance": 0.0, "pos_horiz_variance": 0.03694511204957962, "pos_vert_variance": 0.011024518869817257}}, "errors": ["PreArm: RC not found", "PreArm: Hardware safety switch", "PreArm: Compasses inconsistent"]}
{"timestamp": "2026-01-30T15:31:42.072097Z", "telemetry": {"lat": 0.0, "lon": 0.0, "satellites": 0, "altitude_gps_m": 1.4299999475479126, "groundspeed_mps": 0.1526084989309311}, "flight": {"mode": "STABILIZE", "armed": false}, "ekf": {"attitude": {"roll": -0.029670801013708115, "pitch": -0.026040829718112946, "yaw": 0.8210177421569824}, "local_position": {"x": null, "y": null, "z": null}, "status": {"flags": 135, "velocity_variance": 0.0, "pos_horiz_variance": 0.03699884191155434, "pos_vert_variance": 0.030597101897001266}}, "errors": ["PreArm: RC not found", "PreArm: Hardware safety switch", "PreArm: Compasses inconsistent"]}
{"timestamp": "2026-01-30T15:31:43.071559Z", "telemetry": {"lat": 0.0, "lon": 0.0, "satellites": 0, "altitude_gps_m": 1.4299999475479126, "groundspeed_mps": 0.15470728278160095}, "flight": {"mode": "STABILIZE", "armed": false}, "ekf": {"attitude": {"roll": -0.029583167284727097, "pitch": -0.026088282465934753, "yaw": 0.8212355375289917}, "local_position": {"x": null, "y": null, "z": null}, "status": {"flags": 135, "velocity_variance": 0.0, "pos_horiz_variance": 0.03717474266886711, "pos_vert_variance": 0.0793759748339653}}, "errors": ["PreArm: RC not found", "PreArm: Hardware safety switch", "PreArm: Compasses inconsistent"]}
{"timestamp": "2026-01-30T15:31:44.071536Z", "telemetry": {"lat": 0.0, "lon": 0.0, "satellites": 0, "altitude_gps_m": 1.4299999475479126, "groundspeed_mps": 0.15574416518211365}, "flight": {"mode": "STABILIZE", "armed": false}, "ekf": {"attitude": {"roll": -0.02964060567319393, "pitch": -0.02605767734348774, "yaw": 0.8212785720825195}, "local_position": {"x": null, "y": null, "z": null}, "status": {"flags": 135, "velocity_variance": 0.0, "pos_horiz_variance": 0.03753593936562538, "pos_vert_variance": 0.05065061151981354}}, "errors": ["PreArm: RC not found", "PreArm: Hardware safety switch", "PreArm: Compasses inconsistent"]}
{"timestamp": "2026-01-30T15:31:45.071498Z", "telemetry": {"lat": 0.0, "lon": 0.0, "satellites": 0, "altitude_gps_m": 1.4299999475479126, "groundspeed_mps": 0.15664441883563995}, "flight": {"mode": "STABILIZE", "armed": false}, "ekf": {"attitude": {"roll": -0.02964610606431961, "pitch": -0.025899738073349, "yaw": 0.8215234279632568}, "local_position": {"x": null, "y": null, "z": null}, "status": {"flags": 135, "velocity_variance": 0.0, "pos_horiz_variance": 0.03805840387940407, "pos_vert_variance": 0.04226827248930931}}, "errors": ["PreArm: RC not found", "PreArm: Hardware safety switch", "PreArm: Compasses inconsistent"]}
{"timestamp": "2026-01-30T15:31:46.071602Z", "telemetry": {"lat": 0.0, "lon": 0.0, "satellites": 0, "altitude_gps_m": 1.4299999475479126, "groundspeed_mps": 0.15733221173286438}, "flight": {"mode": "STABILIZE", "armed": false}, "ekf": {"attitude": {"roll": -0.029602088034152985, "pitch": -0.02597278170287609, "yaw": 0.8214113116264343}, "local_position": {"x": null, "y": null, "z": null}, "status": {"flags": 135, "velocity_variance": 0.0, "pos_horiz_variance": 0.03834390640258789, "pos_vert_variance": 0.013375677168369293}}, "errors": ["PreArm: RC not found", "PreArm: Hardware safety switch", "PreArm: Compasses inconsistent"]}
{"timestamp": "2026-01-30T15:31:47.071605Z", "telemetry": {"lat": 0.0, "lon": 0.0, "satellites": 0, "altitude_gps_m": 1.4299999475479126, "groundspeed_mps": 0.15536881983280182}, "flight": {"mode": "STABILIZE", "armed": false}, "ekf": {"attitude": {"roll": -0.02976197935640812, "pitch": -0.025882050395011902, "yaw": 0.8218838572502136}, "local_position": {"x": null, "y": null, "z": null}, "status": {"flags": 135, "velocity_variance": 0.0, "pos_horiz_variance": 0.037902723997831345, "pos_vert_variance": 0.017510736361145973}}, "errors": ["PreArm: RC not found", "PreArm: Hardware safety switch", "PreArm: Compasses inconsistent"]}
{"timestamp": "2026-01-30T15:31:48.071517Z", "telemetry": {"lat": 0.0, "lon": 0.0, "satellites": 0, "altitude_gps_m": 1.4299999475479126, "groundspeed_mps": 0.15516147017478943}, "flight": {"mode": "STABILIZE", "armed": false}, "ekf": {"attitude": {"roll": -0.029728394001722336, "pitch": -0.0257196594029665, "yaw": 0.8220388889312744}, "local_position": {"x": null, "y": null, "z": null}, "status": {"flags": 135, "velocity_variance": 0.0, "pos_horiz_variance": 0.037576012313365936, "pos_vert_variance": 0.020861726254224777}}, "errors": ["PreArm: RC not found", "PreArm: Hardware safety switch", "PreArm: Compasses inconsistent"]}
{"timestamp": "2026-01-30T15:31:49.072680Z", "telemetry": {"lat": 0.0, "lon": 0.0, "satellites": 0, "altitude_gps_m": 1.4299999475479126, "groundspeed_mps": 0.15987396240234375}, "flight": {"mode": "STABILIZE", "armed": false}, "ekf": {"attitude": {"roll": -0.029686735942959785, "pitch": -0.02625403180718422, "yaw": 0.8219311833381653}, "local_position": {"x": null, "y": null, "z": null}, "status": {"flags": 135, "velocity_variance": 0.0, "pos_horiz_variance": 0.037847306579351425, "pos_vert_variance": 0.02210182137787342}}, "errors": ["PreArm: RC not found", "PreArm: Hardware safety switch", "PreArm: Compasses inconsistent"]}
{"timestamp": "2026-01-30T15:31:50.071953Z", "telemetry": {"lat": 0.0, "lon": 0.0, "satellites": 0, "altitude_gps_m": 1.4299999475479126, "groundspeed_mps": 0.15381614863872528}, "flight": {"mode": "STABILIZE", "armed": false}, "ekf": {"attitude": {"roll": -0.029536226764321327, "pitch": -0.026155970990657806, "yaw": 0.8219887018203735}, "local_position": {"x": null, "y": null, "z": null}, "status": {"flags": 135, "velocity_variance": 0.0, "pos_horiz_variance": 0.0370459258556366, "pos_vert_variance": 0.029242301359772682}}, "errors": ["PreArm: RC not found", "PreArm: Hardware safety switch", "PreArm: Compasses inconsistent"]}
{"timestamp": "2026-01-30T15:31:51.072383Z", "telemetry": {"lat": 0.0, "lon": 0.0, "satellites": 0, "altitude_gps_m": 1.4299999475479126, "groundspeed_mps": 0.14748910069465637}, "flight": {"mode": "STABILIZE", "armed": false}, "ekf": {"attitude": {"roll": -0.029550742357969284, "pitch": -0.025896310806274414, "yaw": 0.8224487900733948}, "local_position": {"x": null, "y": null, "z": null}, "status": {"flags": 135, "velocity_variance": 0.0, "pos_horiz_variance": 0.036503687500953674, "pos_vert_variance": 0.008109775371849537}}, "errors": ["PreArm: RC not found", "PreArm: Hardware safety switch", "PreArm: Compasses inconsistent"]}
{"timestamp": "2026-01-30T15:31:52.071690Z", "telemetry": {"lat": 0.0, "lon": 0.0, "satellites": 0, "altitude_gps_m": 1.4299999475479126, "groundspeed_mps": 0.14792531728744507}, "flight": {"mode": "STABILIZE", "armed": false}, "ekf": {"attitude": {"roll": -0.029634598642587662, "pitch": -0.025785190984606743, "yaw": 0.822523295879364}, "local_position": {"x": null, "y": null, "z": null}, "status": {"flags": 135, "velocity_variance": 0.0, "pos_horiz_variance": 0.036260511726140976, "pos_vert_variance": 0.03107207827270031}}, "errors": ["PreArm: RC not found", "PreArm: Hardware safety switch", "PreArm: Compasses inconsistent"]}
{"timestamp": "2026-01-30T15:31:53.071749Z", "telemetry": {"lat": 0.0, "lon": 0.0, "satellites": 0, "altitude_gps_m": 1.4299999475479126, "groundspeed_mps": 0.14526866376399994}, "flight": {"mode": "STABILIZE", "armed": false}, "ekf": {"attitude": {"roll": -0.029591325670480728, "pitch": -0.025637123733758926, "yaw": 0.8225676417350769}, "local_position": {"x": null, "y": null, "z": null}, "status": {"flags": 135, "velocity_variance": 0.0, "pos_horiz_variance": 0.03593887761235237, "pos_vert_variance": 0.0007132549653761089}}, "errors": ["PreArm: RC not found", "PreArm: Hardware safety switch", "PreArm: Compasses inconsistent"]}
{"timestamp": "2026-01-30T15:31:54.071738Z", "telemetry": {"lat": 0.0, "lon": 0.0, "satellites": 0, "altitude_gps_m": 1.4299999475479126, "groundspeed_mps": 0.14515666663646698}, "flight": {"mode": "STABILIZE", "armed": false}, "ekf": {"attitude": {"roll": -0.02976628579199314, "pitch": -0.02563231810927391, "yaw": 0.8227055668830872}, "local_position": {"x": null, "y": null, "z": null}, "status": {"flags": 135, "velocity_variance": 0.0, "pos_horiz_variance": 0.03550894185900688, "pos_vert_variance": 0.02340801991522312}}, "errors": ["PreArm: RC not found", "PreArm: Hardware safety switch", "PreArm: Compasses inconsistent"]}
{"timestamp": "2026-01-30T15:31:55.071742Z", "telemetry": {"lat": 0.0, "lon": 0.0, "satellites": 0, "altitude_gps_m": 1.4299999475479126, "groundspeed_mps": 0.14513757824897766}, "flight": {"mode": "STABILIZE", "armed": false}, "ekf": {"attitude": {"roll": -0.029802562668919563, "pitch": -0.02556559629738331, "yaw": 0.8227085471153259}, "local_position": {"x": null, "y": null, "z": null}, "status": {"flags": 135, "velocity_variance": 0.0, "pos_horiz_variance": 0.03525385633111, "pos_vert_variance": 0.015981070697307587}}, "errors": ["PreArm: RC not found", "PreArm: Hardware safety switch", "PreArm: Compasses inconsistent"]}
{"timestamp": "2026-01-30T15:31:56.072346Z", "telemetry": {"lat": 0.0, "lon": 0.0, "satellites": 0, "altitude_gps_m": 1.4299999475479126, "groundspeed_mps": 0.1466030478477478}, "flight": {"mode": "STABILIZE", "armed": false}, "ekf": {"attitude": {"roll": -0.02980009838938713, "pitch": -0.025744732469320297, "yaw": 0.822564959526062}, "local_position": {"x": null, "y": null, "z": null}, "status": {"flags": 135, "velocity_variance": 0.0, "pos_horiz_variance": 0.035283833742141724, "pos_vert_variance": 0.03349654749035835}}, "errors": ["PreArm: RC not found", "PreArm: Hardware safety switch", "PreArm: Compasses inconsistent"]}
{"timestamp": "2026-01-30T15:31:57.072053Z", "telemetry": {"lat": 0.0, "lon": 0.0, "satellites": 0, "altitude_gps_m": 1.4299999475479126, "groundspeed_mps": 0.14704616367816925}, "flight": {"mode": "STABILIZE", "armed": false}, "ekf": {"attitude": {"roll": -0.02972894161939621, "pitch": -0.025825483724474907, "yaw": 0.8225525617599487}, "local_position": {"x": null, "y": null, "z": null}, "status": {"flags": 135, "velocity_variance": 0.0, "pos_horiz_variance": 0.03556717932224274, "pos_vert_variance": 0.06617090106010437}}, "errors": ["PreArm: RC not found", "PreArm: Hardware safety switch", "PreArm: Compasses inconsistent"]}
{"timestamp": "2026-01-30T15:31:58.071914Z", "telemetry": {"lat": 0.0, "lon": 0.0, "satellites": 0, "altitude_gps_m": 1.4299999475479126, "groundspeed_mps": 0.1494612842798233}, "flight": {"mode": "STABILIZE", "armed": false}, "ekf": {"attitude": {"roll": -0.02964264154434204, "pitch": -0.0258244089782238, "yaw": 0.822584867477417}, "local_position": {"x": null, "y": null, "z": null}, "status": {"flags": 135, "velocity_variance": 0.0, "pos_horiz_variance": 0.03593849390745163, "pos_vert_variance": 0.016300320625305176}}, "errors": ["PreArm: RC not found", "PreArm: Hardware safety switch", "PreArm: Compasses inconsistent"]}
{"timestamp": "2026-01-30T15:31:59.072534Z", "telemetry": {"lat": 0.0, "lon": 0.0, "satellites": 0, "altitude_gps_m": 1.4299999475479126, "groundspeed_mps": 0.14837144315242767}, "flight": {"mode": "STABILIZE", "armed": false}, "ekf": {"attitude": {"roll": -0.029753699898719788, "pitch": -0.025849321857094765, "yaw": 0.8227148652076721}, "local_position": {"x": null, "y": null, "z": null}, "status": {"flags": 135, "velocity_variance": 0.0, "pos_horiz_variance": 0.035975731909275055, "pos_vert_variance": 0.11041297018527985}}, "errors": ["PreArm: RC not found", "PreArm: Hardware safety switch", "PreArm: Compasses inconsistent"]}
{"timestamp": "2026-01-30T15:32:00.072059Z", "telemetry": {"lat": 0.0, "lon": 0.0, "satellites": 0, "altitude_gps_m": 1.4299999475479126, "groundspeed_mps": 0.1502089649438858}, "flight": {"mode": "STABILIZE", "armed": false}, "ekf": {"attitude": {"roll": -0.029610296711325645, "pitch": -0.025821566581726074, "yaw": 0.822765052318573}, "local_position": {"x": null, "y": null, "z": null}, "status": {"flags": 135, "velocity_variance": 0.0, "pos_horiz_variance": 0.036255914717912674, "pos_vert_variance": 0.02581755816936493}}, "errors": ["PreArm: RC not found", "PreArm: Hardware safety switch", "PreArm: Compasses inconsistent"]}
{"timestamp": "2026-01-30T15:32:01.071955Z", "telemetry": {"lat": 0.0, "lon": 0.0, "satellites": 0, "altitude_gps_m": 1.4299999475479126, "groundspeed_mps": 0.15061233937740326}, "flight": {"mode": "STABILIZE", "armed": false}, "ekf": {"attitude": {"roll": -0.029411325231194496, "pitch": -0.025778595358133316, "yaw": 0.8228181600570679}, "local_position": {"x": null, "y": null, "z": null}, "status": {"flags": 135, "velocity_variance": 0.0, "pos_horiz_variance": 0.03637710213661194, "pos_vert_variance": 0.015563641674816608}}, "errors": ["PreArm: RC not found", "PreArm: Hardware safety switch", "PreArm: Compasses inconsistent"]}
{"timestamp": "2026-01-30T15:32:02.072419Z", "telemetry": {"lat": 0.0, "lon": 0.0, "satellites": 0, "altitude_gps_m": 1.4299999475479126, "groundspeed_mps": 0.15104299783706665}, "flight": {"mode": "STABILIZE", "armed": false}, "ekf": {"attitude": {"roll": -0.02929511107504368, "pitch": -0.025623418390750885, "yaw": 0.8229965567588806}, "local_position": {"x": null, "y": null, "z": null}, "status": {"flags": 135, "velocity_variance": 0.0, "pos_horiz_variance": 0.03647055849432945, "pos_vert_variance": 0.007659123279154301}}, "errors": ["PreArm: RC not found", "PreArm: Hardware safety switch", "PreArm: Compasses inconsistent", "PreArm: RC not found", "PreArm: Hardware safety switch", "PreArm: Compasses inconsistent"]}
{"timestamp": "2026-01-30T15:32:03.072509Z", "telemetry": {"lat": 0.0, "lon": 0.0, "satellites": 0, "altitude_gps_m": 1.4299999475479126, "groundspeed_mps": 0.14961303770542145}, "flight": {"mode": "STABILIZE", "armed": false}, "ekf": {"attitude": {"roll": -0.029215730726718903, "pitch": -0.025531474500894547, "yaw": 0.8229149580001831}, "local_position": {"x": null, "y": null, "z": null}, "status": {"flags": 135, "velocity_variance": 0.0, "pos_horiz_variance": 0.036318983882665634, "pos_vert_variance": 0.07844285666942596}}, "errors": ["PreArm: RC not found", "PreArm: Hardware safety switch", "PreArm: Compasses inconsistent", "PreArm: RC not found", "PreArm: Hardware safety switch", "PreArm: Compasses inconsistent"]}
{"timestamp": "2026-01-30T15:32:04.072677Z", "telemetry": {"lat": 0.0, "lon": 0.0, "satellites": 0, "altitude_gps_m": 1.4299999475479126, "groundspeed_mps": 0.14597776532173157}, "flight": {"mode": "STABILIZE", "armed": false}, "ekf": {"attitude": {"roll": -0.02922641858458519, "pitch": -0.02532017230987549, "yaw": 0.822866678237915}, "local_position": {"x": null, "y": null, "z": null}, "status": {"flags": 135, "velocity_variance": 0.0, "pos_horiz_variance": 0.03612213581800461, "pos_vert_variance": 0.009554273448884487}}, "errors": ["PreArm: RC not found", "PreArm: Hardware safety switch", "PreArm: Compasses inconsistent", "PreArm: RC not found", "PreArm: Hardware safety switch", "PreArm: Compasses inconsistent"]}
{"timestamp": "2026-01-30T15:32:05.072077Z", "telemetry": {"lat": 0.0, "lon": 0.0, "satellites": 0, "altitude_gps_m": 1.4299999475479126, "groundspeed_mps": 0.12968416512012482}, "flight": {"mode": "STABILIZE", "armed": false}, "ekf": {"attitude": {"roll": -0.027818327769637108, "pitch": -0.02513345330953598, "yaw": 0.8185648322105408}, "local_position": {"x": null, "y": null, "z": null}, "status": {"flags": 135, "velocity_variance": 0.0, "pos_horiz_variance": 0.03541884198784828, "pos_vert_variance": 0.04055934399366379}}, "errors": ["PreArm: RC not found", "PreArm: Hardware safety switch", "PreArm: Compasses inconsistent", "PreArm: RC not found", "PreArm: Hardware safety switch", "PreArm: Compasses inconsistent"]}
{"timestamp": "2026-01-30T15:32:06.073308Z", "telemetry": {"lat": 0.0, "lon": 0.0, "satellites": 0, "altitude_gps_m": 1.4299999475479126, "groundspeed_mps": 0.15550774335861206}, "flight": {"mode": "STABILIZE", "armed": false}, "ekf": {"attitude": {"roll": -0.030124777927994728, "pitch": -0.02668847143650055, "yaw": 0.1523115336894989}, "local_position": {"x": null, "y": null, "z": null}, "status": {"flags": 135, "velocity_variance": 0.0, "pos_horiz_variance": 0.02435423620045185, "pos_vert_variance": 0.007140495348721743}}, "errors": ["PreArm: RC not found", "PreArm: Hardware safety switch", "PreArm: Compasses inconsistent", "PreArm: RC not found", "PreArm: Hardware safety switch", "PreArm: Compasses inconsistent"]}
{"timestamp": "2026-01-30T15:32:07.072650Z", "telemetry": {"lat": 0.0, "lon": 0.0, "satellites": 0, "altitude_gps_m": 1.4299999475479126, "groundspeed_mps": 0.1851027011871338}, "flight": {"mode": "STABILIZE", "armed": false}, "ekf": {"attitude": {"roll": -0.030583765357732773, "pitch": -0.026262745261192322, "yaw": 0.1444747895002365}, "local_position": {"x": null, "y": null, "z": null}, "status": {"flags": 135, "velocity_variance": 0.0, "pos_horiz_variance": 0.03547277674078941, "pos_vert_variance": 0.03228502348065376}}, "errors": ["PreArm: RC not found", "PreArm: Hardware safety switch", "PreArm: Compasses inconsistent", "PreArm: RC not found", "PreArm: Hardware safety switch", "PreArm: Compasses inconsistent"]}
{"timestamp": "2026-01-30T15:32:08.071467Z", "telemetry": {"lat": 0.0, "lon": 0.0, "satellites": 0, "altitude_gps_m": 1.4299999475479126, "groundspeed_mps": 0.09965143352746964}, "flight": {"mode": "STABILIZE", "armed": false}, "ekf": {"attitude": {"roll": 0.01908186636865139, "pitch": 0.014174342155456543, "yaw": -0.007559879682958126}, "local_position": {"x": null, "y": null, "z": null}, "status": {"flags": 135, "velocity_variance": 0.0, "pos_horiz_variance": 0.03263041004538536, "pos_vert_variance": 0.010711484588682652}}, "errors": ["PreArm: RC not found", "PreArm: Hardware safety switch", "PreArm: Compasses inconsistent", "PreArm: RC not found", "PreArm: Hardware safety switch", "PreArm: Compasses inconsistent"]}
{"timestamp": "2026-01-30T15:32:09.071886Z", "telemetry": {"lat": 0.0, "lon": 0.0, "satellites": 0, "altitude_gps_m": 1.4299999475479126, "groundspeed_mps": 0.1719352900981903}, "flight": {"mode": "STABILIZE", "armed": false}, "ekf": {"attitude": {"roll": -0.18503515422344208, "pitch": 0.03893313929438591, "yaw": -0.3372502624988556}, "local_position": {"x": null, "y": null, "z": null}, "status": {"flags": 135, "velocity_variance": 0.0, "pos_horiz_variance": 0.03352666646242142, "pos_vert_variance": 0.05086996406316757}}, "errors": ["PreArm: RC not found", "PreArm: Hardware safety switch", "PreArm: Compasses inconsistent", "PreArm: RC not found", "PreArm: Hardware safety switch", "PreArm: Compasses inconsistent"]}
{"timestamp": "2026-01-30T15:32:10.071615Z", "telemetry": {"lat": 0.0, "lon": 0.0, "satellites": 0, "altitude_gps_m": 1.4299999475479126, "groundspeed_mps": 0.25827348232269287}, "flight": {"mode": "STABILIZE", "armed": false}, "ekf": {"attitude": {"roll": -0.1163746565580368, "pitch": 0.024823050945997238, "yaw": -0.8321067690849304}, "local_position": {"x": null, "y": null, "z": null}, "status": {"flags": 135, "velocity_variance": 0.0, "pos_horiz_variance": 0.04749670997262001, "pos_vert_variance": 0.018423616886138916}}, "errors": ["PreArm: RC not found", "PreArm: Hardware safety switch", "PreArm: Compasses inconsistent", "PreArm: RC not found", "PreArm: Hardware safety switch", "PreArm: Compasses inconsistent"]}
{"timestamp": "2026-01-30T15:32:11.071827Z", "telemetry": {"lat": 0.0, "lon": 0.0, "satellites": 0, "altitude_gps_m": 1.4299999475479126, "groundspeed_mps": 0.2576937973499298}, "flight": {"mode": "STABILIZE", "armed": false}, "ekf": {"attitude": {"roll": -0.08432819694280624, "pitch": -0.08544324338436127, "yaw": -1.998870849609375}, "local_position": {"x": null, "y": null, "z": null}, "status": {"flags": 135, "velocity_variance": 0.0, "pos_horiz_variance": 0.059273362159729004, "pos_vert_variance": 0.0314750075340271}}, "errors": ["PreArm: RC not found", "PreArm: Hardware safety switch", "PreArm: Compasses inconsistent", "PreArm: RC not found", "PreArm: Hardware safety switch", "PreArm: Compasses inconsistent"]}
{"timestamp": "2026-01-30T15:32:12.071804Z", "telemetry": {"lat": 0.0, "lon": 0.0, "satellites": 0, "altitude_gps_m": 1.4299999475479126, "groundspeed_mps": 0.26409804821014404}, "flight": {"mode": "STABILIZE", "armed": false}, "ekf": {"attitude": {"roll": 9.775068610906601e-05, "pitch": -0.08358322083950043, "yaw": -3.03743839263916}, "local_position": {"x": null, "y": null, "z": null}, "status": {"flags": 135, "velocity_variance": 0.0, "pos_horiz_variance": 0.042567744851112366, "pos_vert_variance": 0.03027690388262272}}, "errors": ["PreArm: RC not found", "PreArm: Hardware safety switch", "PreArm: Compasses inconsistent", "PreArm: RC not found", "PreArm: Hardware safety switch", "PreArm: Compasses inconsistent"]}
{"timestamp": "2026-01-30T15:32:13.072376Z", "telemetry": {"lat": 0.0, "lon": 0.0, "satellites": 0, "altitude_gps_m": 1.4299999475479126, "groundspeed_mps": 0.2618691623210907}, "flight": {"mode": "STABILIZE", "armed": false}, "ekf": {"attitude": {"roll": 0.10595795512199402, "pitch": -0.10036060214042664, "yaw": 3.0722289085388184}, "local_position": {"x": null, "y": null, "z": null}, "status": {"flags": 135, "velocity_variance": 0.0, "pos_horiz_variance": 0.03492124006152153, "pos_vert_variance": 0.04308133199810982}}, "errors": ["PreArm: RC not found", "PreArm: Hardware safety switch", "PreArm: Compasses inconsistent", "PreArm: RC not found", "PreArm: Hardware safety switch", "PreArm: Compasses inconsistent"]}
{"timestamp": "2026-01-30T15:32:14.072030Z", "telemetry": {"lat": 0.0, "lon": 0.0, "satellites": 0, "altitude_gps_m": 1.4299999475479126, "groundspeed_mps": 0.3776790499687195}, "flight": {"mode": "STABILIZE", "armed": false}, "ekf": {"attitude": {"roll": 0.22235733270645142, "pitch": -0.18364103138446808, "yaw": 2.634744167327881}, "local_position": {"x": null, "y": null, "z": null}, "status": {"flags": 135, "velocity_variance": 0.0, "pos_horiz_variance": 0.05254371464252472, "pos_vert_variance": 0.057536590844392776}}, "errors": ["PreArm: RC not found", "PreArm: Hardware safety switch", "PreArm: Compasses inconsistent", "PreArm: RC not found", "PreArm: Hardware safety switch", "PreArm: Compasses inconsistent"]}
{"timestamp": "2026-01-30T15:32:15.071988Z", "telemetry": {"lat": 0.0, "lon": 0.0, "satellites": 0, "altitude_gps_m": 1.4299999475479126, "groundspeed_mps": 0.5039852857589722}, "flight": {"mode": "STABILIZE", "armed": false}, "ekf": {"attitude": {"roll": 0.037004049867391586, "pitch": 0.0580318458378315, "yaw": 3.0710079669952393}, "local_position": {"x": null, "y": null, "z": null}, "status": {"flags": 135, "velocity_variance": 0.0, "pos_horiz_variance": 0.0798376277089119, "pos_vert_variance": 0.05628672614693642}}, "errors": ["PreArm: RC not found", "PreArm: Hardware safety switch", "PreArm: Compasses inconsistent", "PreArm: RC not found", "PreArm: Hardware safety switch", "PreArm: Compasses inconsistent"]}
{"timestamp": "2026-01-30T15:32:16.071945Z", "telemetry": {"lat": 0.0, "lon": 0.0, "satellites": 0, "altitude_gps_m": 1.4299999475479126, "groundspeed_mps": 0.35985004901885986}, "flight": {"mode": "STABILIZE", "armed": false}, "ekf": {"attitude": {"roll": -0.012906820513308048, "pitch": 0.06529442965984344, "yaw": 2.8523402214050293}, "local_position": {"x": null, "y": null, "z": null}, "status": {"flags": 135, "velocity_variance": 0.0, "pos_horiz_variance": 0.09315835684537888, "pos_vert_variance": 0.00039715718594379723}}, "errors": ["PreArm: RC not found", "PreArm: Hardware safety switch", "PreArm: Compasses inconsistent", "PreArm: RC not found", "PreArm: Hardware safety switch", "PreArm: Compasses inconsistent"]}
{"timestamp": "2026-01-30T15:32:17.072197Z", "telemetry": {"lat": 0.0, "lon": 0.0, "satellites": 0, "altitude_gps_m": 1.4299999475479126, "groundspeed_mps": 0.27741721272468567}, "flight": {"mode": "STABILIZE", "armed": false}, "ekf": {"attitude": {"roll": 0.07159079611301422, "pitch": -0.027315940707921982, "yaw": 2.066519260406494}, "local_position": {"x": null, "y": null, "z": null}, "status": {"flags": 135, "velocity_variance": 0.0, "pos_horiz_variance": 0.08268323540687561, "pos_vert_variance": 0.0722709447145462}}, "errors": ["PreArm: RC not found", "PreArm: Hardware safety switch", "PreArm: Compasses inconsistent", "PreArm: RC not found", "PreArm: Hardware safety switch", "PreArm: Compasses inconsistent"]}
{"timestamp": "2026-01-30T15:32:18.071725Z", "telemetry": {"lat": 0.0, "lon": 0.0, "satellites": 0, "altitude_gps_m": 1.4299999475479126, "groundspeed_mps": 0.36501604318618774}, "flight": {"mode": "STABILIZE", "armed": false}, "ekf": {"attitude": {"roll": 0.062114566564559937, "pitch": -0.05427843704819679, "yaw": 1.9350852966308594}, "local_position": {"x": null, "y": null, "z": null}, "status": {"flags": 135, "velocity_variance": 0.0, "pos_horiz_variance": 0.07813530415296555, "pos_vert_variance": 0.04466233775019646}}, "errors": ["PreArm: RC not found", "PreArm: Hardware safety switch", "PreArm: Compasses inconsistent", "PreArm: RC not found", "PreArm: Hardware safety switch", "PreArm: Compasses inconsistent"]}
{"timestamp": "2026-01-30T15:32:19.072548Z", "telemetry": {"lat": 0.0, "lon": 0.0, "satellites": 0, "altitude_gps_m": 1.4299999475479126, "groundspeed_mps": 0.29920023679733276}, "flight": {"mode": "STABILIZE", "armed": false}, "ekf": {"attitude": {"roll": 0.08762915432453156, "pitch": -0.2514314651489258, "yaw": 2.3274288177490234}, "local_position": {"x": null, "y": null, "z": null}, "status": {"flags": 135, "velocity_variance": 0.0, "pos_horiz_variance": 0.07048815488815308, "pos_vert_variance": 0.047102682292461395}}, "errors": ["PreArm: RC not found", "PreArm: Hardware safety switch", "PreArm: Compasses inconsistent", "PreArm: RC not found", "PreArm: Hardware safety switch", "PreArm: Compasses inconsistent", "EKF3 IMU1 forced reset", "EKF3 IMU1 initialised"]}
{"timestamp": "2026-01-30T15:32:20.072357Z", "telemetry": {"lat": 0.0, "lon": 0.0, "satellites": 0, "altitude_gps_m": 1.4299999475479126, "groundspeed_mps": 0.26637381315231323}, "flight": {"mode": "STABILIZE", "armed": false}, "ekf": {"attitude": {"roll": 0.09167060256004333, "pitch": -0.24674294888973236, "yaw": 2.3270769119262695}, "local_position": {"x": null, "y": null, "z": null}, "status": {"flags": 135, "velocity_variance": 0.0, "pos_horiz_variance": 0.06086866930127144, "pos_vert_variance": 0.08521457016468048}}, "errors": ["PreArm: RC not found", "PreArm: Hardware safety switch", "PreArm: Compasses inconsistent", "PreArm: RC not found", "PreArm: Hardware safety switch", "PreArm: Compasses inconsistent", "EKF3 IMU1 forced reset", "EKF3 IMU1 initialised", "EKF3 IMU1 tilt alignment complete", "EKF3 IMU1 MAG0 initial yaw alignment complete"]}
{"timestamp": "2026-01-30T15:32:21.072417Z", "telemetry": {"lat": 0.0, "lon": 0.0, "satellites": 0, "altitude_gps_m": 1.4299999475479126, "groundspeed_mps": 0.24600178003311157}, "flight": {"mode": "STABILIZE", "armed": false}, "ekf": {"attitude": {"roll": 0.09816332906484604, "pitch": -0.22842027246952057, "yaw": 2.318875312805176}, "local_position": {"x": null, "y": null, "z": null}, "status": {"flags": 135, "velocity_variance": 0.0, "pos_horiz_variance": 0.058961424976587296, "pos_vert_variance": 0.028513049706816673}}, "errors": ["PreArm: RC not found", "PreArm: Hardware safety switch", "PreArm: Compasses inconsistent", "PreArm: RC not found", "PreArm: Hardware safety switch", "PreArm: Compasses inconsistent", "EKF3 IMU1 forced reset", "EKF3 IMU1 initialised", "EKF3 IMU1 tilt alignment complete", "EKF3 IMU1 MAG0 initial yaw alignment complete"]}
{"timestamp": "2026-01-30T15:32:22.072298Z", "telemetry": {"lat": 0.0, "lon": 0.0, "satellites": 0, "altitude_gps_m": 1.4299999475479126, "groundspeed_mps": 0.24582506716251373}, "flight": {"mode": "STABILIZE", "armed": false}, "ekf": {"attitude": {"roll": 0.127616748213768, "pitch": -0.3589835464954376, "yaw": 2.2951154708862305}, "local_position": {"x": null, "y": null, "z": null}, "status": {"flags": 135, "velocity_variance": 0.0, "pos_horiz_variance": 0.06150820106267929, "pos_vert_variance": 0.016159141436219215}}, "errors": ["PreArm: RC not found", "PreArm: Hardware safety switch", "PreArm: Compasses inconsistent", "PreArm: RC not found", "PreArm: Hardware safety switch", "PreArm: Compasses inconsistent", "EKF3 IMU1 forced reset", "EKF3 IMU1 initialised", "EKF3 IMU1 tilt alignment complete", "EKF3 IMU1 MAG0 initial yaw alignment complete"]}
{"timestamp": "2026-01-30T15:32:23.073144Z", "telemetry": {"lat": 0.0, "lon": 0.0, "satellites": 0, "altitude_gps_m": 1.4299999475479126, "groundspeed_mps": 0.23152343928813934}, "flight": {"mode": "STABILIZE", "armed": false}, "ekf": {"attitude": {"roll": 0.11414740234613419, "pitch": -0.36411407589912415, "yaw": 2.3026065826416016}, "local_position": {"x": null, "y": null, "z": null}, "status": {"flags": 135, "velocity_variance": 0.0, "pos_horiz_variance": 0.05847284570336342, "pos_vert_variance": 0.07085820287466049}}, "errors": ["PreArm: RC not found", "PreArm: Hardware safety switch", "PreArm: Compasses inconsistent", "PreArm: RC not found", "PreArm: Hardware safety switch", "PreArm: Compasses inconsistent", "EKF3 IMU1 forced reset", "EKF3 IMU1 initialised", "EKF3 IMU1 tilt alignment complete", "EKF3 IMU1 MAG0 initial yaw alignment complete"]}
{"timestamp": "2026-01-30T15:32:24.072619Z", "telemetry": {"lat": 0.0, "lon": 0.0, "satellites": 0, "altitude_gps_m": 1.4299999475479126, "groundspeed_mps": 0.2089361548423767}, "flight": {"mode": "STABILIZE", "armed": false}, "ekf": {"attitude": {"roll": 0.1074414998292923, "pitch": -0.3686613142490387, "yaw": 2.304955005645752}, "local_position": {"x": null, "y": null, "z": null}, "status": {"flags": 135, "velocity_variance": 0.0, "pos_horiz_variance": 0.05501068755984306, "pos_vert_variance": 0.011463644914329052}}, "errors": ["PreArm: RC not found", "PreArm: Hardware safety switch", "PreArm: Compasses inconsistent", "PreArm: RC not found", "PreArm: Hardware safety switch", "PreArm: Compasses inconsistent", "EKF3 IMU1 forced reset", "EKF3 IMU1 initialised", "EKF3 IMU1 tilt alignment complete", "EKF3 IMU1 MAG0 initial yaw alignment complete"]}
{"timestamp": "2026-01-30T15:32:25.074303Z", "telemetry": {"lat": 0.0, "lon": 0.0, "satellites": 0, "altitude_gps_m": 1.4299999475479126, "groundspeed_mps": 0.20701958239078522}, "flight": {"mode": "STABILIZE", "armed": false}, "ekf": {"attitude": {"roll": 0.10238906741142273, "pitch": -0.3631868064403534, "yaw": 2.3216938972473145}, "local_position": {"x": null, "y": null, "z": null}, "status": {"flags": 135, "velocity_variance": 0.0, "pos_horiz_variance": 0.05139025300741196, "pos_vert_variance": 0.016869818791747093}}, "errors": ["PreArm: RC not found", "PreArm: Hardware safety switch", "PreArm: Compasses inconsistent", "PreArm: RC not found", "PreArm: Hardware safety switch", "PreArm: Compasses inconsistent", "EKF3 IMU1 forced reset", "EKF3 IMU1 initialised", "EKF3 IMU1 tilt alignment complete", "EKF3 IMU1 MAG0 initial yaw alignment complete"]}
{"timestamp": "2026-01-30T15:32:26.072388Z", "telemetry": {"lat": 0.0, "lon": 0.0, "satellites": 0, "altitude_gps_m": 1.4299999475479126, "groundspeed_mps": 0.14530187845230103}, "flight": {"mode": "STABILIZE", "armed": false}, "ekf": {"attitude": {"roll": 0.06659097224473953, "pitch": -0.09557123482227325, "yaw": 1.9514753818511963}, "local_position": {"x": null, "y": null, "z": null}, "status": {"flags": 135, "velocity_variance": 0.0, "pos_horiz_variance": 0.04098208621144295, "pos_vert_variance": 0.07385393232107162}}, "errors": ["PreArm: RC not found", "PreArm: Hardware safety switch", "PreArm: Compasses inconsistent", "PreArm: RC not found", "PreArm: Hardware safety switch", "PreArm: Compasses inconsistent", "EKF3 IMU1 forced reset", "EKF3 IMU1 initialised", "EKF3 IMU1 tilt alignment complete", "EKF3 IMU1 MAG0 initial yaw alignment complete"]}
{"timestamp": "2026-01-30T15:32:27.072179Z", "telemetry": {"lat": 0.0, "lon": 0.0, "satellites": 0, "altitude_gps_m": 1.4299999475479126, "groundspeed_mps": 0.44945859909057617}, "flight": {"mode": "STABILIZE", "armed": false}, "ekf": {"attitude": {"roll": 0.07341761887073517, "pitch": -0.06358733773231506, "yaw": 2.546882152557373}, "local_position": {"x": null, "y": null, "z": null}, "status": {"flags": 135, "velocity_variance": 0.0, "pos_horiz_variance": 0.055891070514917374, "pos_vert_variance": 0.0017738973256200552}}, "errors": ["PreArm: RC not found", "PreArm: Hardware safety switch", "PreArm: Compasses inconsistent", "PreArm: RC not found", "PreArm: Hardware safety switch", "PreArm: Compasses inconsistent", "EKF3 IMU1 forced reset", "EKF3 IMU1 initialised", "EKF3 IMU1 tilt alignment complete", "EKF3 IMU1 MAG0 initial yaw alignment complete"]}
{"timestamp": "2026-01-30T15:32:28.072433Z", "telemetry": {"lat": 0.0, "lon": 0.0, "satellites": 0, "altitude_gps_m": 1.4299999475479126, "groundspeed_mps": 0.3943886160850525}, "flight": {"mode": "STABILIZE", "armed": false}, "ekf": {"attitude": {"roll": 0.002559813903644681, "pitch": -0.10049732774496078, "yaw": -2.7430617809295654}, "local_position": {"x": null, "y": null, "z": null}, "status": {"flags": 135, "velocity_variance": 0.0, "pos_horiz_variance": 0.07392065227031708, "pos_vert_variance": 0.020329413935542107}}, "errors": ["PreArm: RC not found", "PreArm: Hardware safety switch", "PreArm: Compasses inconsistent", "PreArm: RC not found", "PreArm: Hardware safety switch", "PreArm: Compasses inconsistent", "EKF3 IMU1 forced reset", "EKF3 IMU1 initialised", "EKF3 IMU1 tilt alignment complete", "EKF3 IMU1 MAG0 initial yaw alignment complete"]}
{"timestamp": "2026-01-30T15:32:29.072878Z", "telemetry": {"lat": 0.0, "lon": 0.0, "satellites": 0, "altitude_gps_m": 1.4299999475479126, "groundspeed_mps": 0.09370427578687668}, "flight": {"mode": "STABILIZE", "armed": false}, "ekf": {"attitude": {"roll": 0.00016170786693692207, "pitch": -0.1666543334722519, "yaw": -2.880190849304199}, "local_position": {"x": null, "y": null, "z": null}, "status": {"flags": 135, "velocity_variance": 0.0, "pos_horiz_variance": 0.07243578881025314, "pos_vert_variance": 0.0010427783709019423}}, "errors": ["PreArm: RC not found", "PreArm: Hardware safety switch", "PreArm: Compasses inconsistent", "PreArm: RC not found", "PreArm: Hardware safety switch", "PreArm: Compasses inconsistent", "EKF3 IMU1 forced reset", "EKF3 IMU1 initialised", "EKF3 IMU1 tilt alignment complete", "EKF3 IMU1 MAG0 initial yaw alignment complete"]}
{"timestamp": "2026-01-30T15:32:30.072628Z", "telemetry": {"lat": 0.0, "lon": 0.0, "satellites": 0, "altitude_gps_m": 1.4299999475479126, "groundspeed_mps": 0.008191815577447414}, "flight": {"mode": "STABILIZE", "armed": false}, "ekf": {"attitude": {"roll": 0.018308401107788086, "pitch": -0.1344018429517746, "yaw": -2.8964309692382812}, "local_position": {"x": null, "y": null, "z": null}, "status": {"flags": 135, "velocity_variance": 0.0, "pos_horiz_variance": 0.02539682947099209, "pos_vert_variance": 0.02731897681951523}}, "errors": ["PreArm: RC not found", "PreArm: Hardware safety switch", "PreArm: Compasses inconsistent", "PreArm: RC not found", "PreArm: Hardware safety switch", "PreArm: Compasses inconsistent", "EKF3 IMU1 forced reset", "EKF3 IMU1 initialised", "EKF3 IMU1 tilt alignment complete", "EKF3 IMU1 MAG0 initial yaw alignment complete"]}
{"timestamp": "2026-01-30T15:32:31.072448Z", "telemetry": {"lat": 0.0, "lon": 0.0, "satellites": 0, "altitude_gps_m": 1.4299999475479126, "groundspeed_mps": 0.03113405779004097}, "flight": {"mode": "STABILIZE", "armed": false}, "ekf": {"attitude": {"roll": -0.010470054112374783, "pitch": -0.11172895133495331, "yaw": -2.961646318435669}, "local_position": {"x": null, "y": null, "z": null}, "status": {"flags": 135, "velocity_variance": 0.0, "pos_horiz_variance": 0.009449507109820843, "pos_vert_variance": 0.041446663439273834}}, "errors": ["PreArm: RC not found", "PreArm: Hardware safety switch", "PreArm: Compasses inconsistent", "PreArm: RC not found", "PreArm: Hardware safety switch", "PreArm: Compasses inconsistent", "EKF3 IMU1 forced reset", "EKF3 IMU1 initialised", "EKF3 IMU1 tilt alignment complete", "EKF3 IMU1 MAG0 initial yaw alignment complete"]}
{"timestamp": "2026-01-30T15:32:32.072429Z", "telemetry": {"lat": 0.0, "lon": 0.0, "satellites": 0, "altitude_gps_m": 1.4299999475479126, "groundspeed_mps": 0.2001517415046692}, "flight": {"mode": "STABILIZE", "armed": false}, "ekf": {"attitude": {"roll": 0.011054469272494316, "pitch": -0.06407703459262848, "yaw": -2.4766454696655273}, "local_position": {"x": null, "y": null, "z": null}, "status": {"flags": 135, "velocity_variance": 0.0, "pos_horiz_variance": 0.0407404899597168, "pos_vert_variance": 0.03006565198302269}}, "errors": ["PreArm: RC not found", "PreArm: Hardware safety switch", "PreArm: Compasses inconsistent", "PreArm: RC not found", "PreArm: Hardware safety switch", "PreArm: Compasses inconsistent", "EKF3 IMU1 forced reset", "EKF3 IMU1 initialised", "EKF3 IMU1 tilt alignment complete", "EKF3 IMU1 MAG0 initial yaw alignment complete", "PreArm: RC not found", "PreArm: Hardware safety switch", "PreArm: Compasses inconsistent"]}
{"timestamp": "2026-01-30T15:32:33.072977Z", "telemetry": {"lat": 0.0, "lon": 0.0, "satellites": 0, "altitude_gps_m": 1.4299999475479126, "groundspeed_mps": 0.12186888605356216}, "flight": {"mode": "STABILIZE", "armed": false}, "ekf": {"attitude": {"roll": 0.05630463361740112, "pitch": -0.0225822813808918, "yaw": -2.80112624168396}, "local_position": {"x": null, "y": null, "z": null}, "status": {"flags": 135, "velocity_variance": 0.0, "pos_horiz_variance": 0.03304342180490494, "pos_vert_variance": 0.11981992423534393}}, "errors": ["PreArm: RC not found", "PreArm: Hardware safety switch", "PreArm: Compasses inconsistent", "PreArm: RC not found", "PreArm: Hardware safety switch", "PreArm: Compasses inconsistent", "EKF3 IMU1 forced reset", "EKF3 IMU1 initialised", "EKF3 IMU1 tilt alignment complete", "EKF3 IMU1 MAG0 initial yaw alignment complete", "PreArm: RC not found", "PreArm: Hardware safety switch", "PreArm: Compasses inconsistent"]}
{"timestamp": "2026-01-30T15:32:34.072999Z", "telemetry": {"lat": 0.0, "lon": 0.0, "satellites": 0, "altitude_gps_m": 1.4299999475479126, "groundspeed_mps": 0.19040954113006592}, "flight": {"mode": "STABILIZE", "armed": false}, "ekf": {"attitude": {"roll": 0.015761805698275566, "pitch": 0.023309607058763504, "yaw": -2.8334603309631348}, "local_position": {"x": null, "y": null, "z": null}, "status": {"flags": 135, "velocity_variance": 0.0, "pos_horiz_variance": 0.038993824273347855, "pos_vert_variance": 0.07560201734304428}}, "errors": ["PreArm: RC not found", "PreArm: Hardware safety switch", "PreArm: Compasses inconsistent", "PreArm: RC not found", "PreArm: Hardware safety switch", "PreArm: Compasses inconsistent", "EKF3 IMU1 forced reset", "EKF3 IMU1 initialised", "EKF3 IMU1 tilt alignment complete", "EKF3 IMU1 MAG0 initial yaw alignment complete", "PreArm: RC not found", "PreArm: Hardware safety switch", "PreArm: Compasses inconsistent"]}
{"timestamp": "2026-01-30T15:32:35.072591Z", "telemetry": {"lat": 0.0, "lon": 0.0, "satellites": 0, "altitude_gps_m": 1.4299999475479126, "groundspeed_mps": 0.22488117218017578}, "flight": {"mode": "STABILIZE", "armed": false}, "ekf": {"attitude": {"roll": 0.021097484976053238, "pitch": 0.014916978776454926, "yaw": -2.8669166564941406}, "local_position": {"x": null, "y": null, "z": null}, "status": {"flags": 135, "velocity_variance": 0.0, "pos_horiz_variance": 0.046964120119810104, "pos_vert_variance": 0.053241629153490067}}, "errors": ["PreArm: RC not found", "PreArm: Hardware safety switch", "PreArm: Compasses inconsistent", "PreArm: RC not found", "PreArm: Hardware safety switch", "PreArm: Compasses inconsistent", "EKF3 IMU1 forced reset", "EKF3 IMU1 initialised", "EKF3 IMU1 tilt alignment complete", "EKF3 IMU1 MAG0 initial yaw alignment complete", "PreArm: RC not found", "PreArm: Hardware safety switch", "PreArm: Compasses inconsistent"]}
{"timestamp": "2026-01-30T15:32:36.072505Z", "telemetry": {"lat": 0.0, "lon": 0.0, "satellites": 0, "altitude_gps_m": 1.4299999475479126, "groundspeed_mps": 0.16998191177845}, "flight": {"mode": "STABILIZE", "armed": false}, "ekf": {"attitude": {"roll": -0.014493847265839577, "pitch": -0.030839376151561737, "yaw": -3.127695322036743}, "local_position": {"x": null, "y": null, "z": null}, "status": {"flags": 135, "velocity_variance": 0.0, "pos_horiz_variance": 0.044042252004146576, "pos_vert_variance": 0.08971891552209854}}, "errors": ["PreArm: RC not found", "PreArm: Hardware safety switch", "PreArm: Compasses inconsistent", "PreArm: RC not found", "PreArm: Hardware safety switch", "PreArm: Compasses inconsistent", "EKF3 IMU1 forced reset", "EKF3 IMU1 initialised", "EKF3 IMU1 tilt alignment complete", "EKF3 IMU1 MAG0 initial yaw alignment complete", "PreArm: RC not found", "PreArm: Hardware safety switch", "PreArm: Compasses inconsistent"]}
{"timestamp": "2026-01-30T15:32:37.072483Z", "telemetry": {"lat": 0.0, "lon": 0.0, "satellites": 0, "altitude_gps_m": 1.4299999475479126, "groundspeed_mps": 0.19227075576782227}, "flight": {"mode": "STABILIZE", "armed": false}, "ekf": {"attitude": {"roll": 0.019818682223558426, "pitch": -0.0353771336376667, "yaw": -3.072962999343872}, "local_position": {"x": null, "y": null, "z": null}, "status": {"flags": 135, "velocity_variance": 0.0, "pos_horiz_variance": 0.04561677947640419, "pos_vert_variance": 0.09855031222105026}}, "errors": ["PreArm: RC not found", "PreArm: Hardware safety switch", "PreArm: Compasses inconsistent", "PreArm: RC not found", "PreArm: Hardware safety switch", "PreArm: Compasses inconsistent", "EKF3 IMU1 forced reset", "EKF3 IMU1 initialised", "EKF3 IMU1 tilt alignment complete", "EKF3 IMU1 MAG0 initial yaw alignment complete", "PreArm: RC not found", "PreArm: Hardware safety switch", "PreArm: Compasses inconsistent"]}
{"timestamp": "2026-01-30T15:32:38.073083Z", "telemetry": {"lat": 0.0, "lon": 0.0, "satellites": 0, "altitude_gps_m": 1.4299999475479126, "groundspeed_mps": 0.1737581193447113}, "flight": {"mode": "STABILIZE", "armed": false}, "ekf": {"attitude": {"roll": 0.013911684043705463, "pitch": -0.017608720809221268, "yaw": -3.0151772499084473}, "local_position": {"x": null, "y": null, "z": null}, "status": {"flags": 135, "velocity_variance": 0.0, "pos_horiz_variance": 0.044343747198581696, "pos_vert_variance": 0.03837087005376816}}, "errors": ["PreArm: RC not found", "PreArm: Hardware safety switch", "PreArm: Compasses inconsistent", "PreArm: RC not found", "PreArm: Hardware safety switch", "PreArm: Compasses inconsistent", "EKF3 IMU1 forced reset", "EKF3 IMU1 initialised", "EKF3 IMU1 tilt alignment complete", "EKF3 IMU1 MAG0 initial yaw alignment complete", "PreArm: RC not found", "PreArm: Hardware safety switch", "PreArm: Compasses inconsistent"]}
{"timestamp": "2026-01-30T15:32:39.073012Z", "telemetry": {"lat": 0.0, "lon": 0.0, "satellites": 0, "altitude_gps_m": 1.4299999475479126, "groundspeed_mps": 0.21219366788864136}, "flight": {"mode": "STABILIZE", "armed": false}, "ekf": {"attitude": {"roll": 0.00926394946873188, "pitch": 0.025357339531183243, "yaw": -2.957007646560669}, "local_position": {"x": null, "y": null, "z": null}, "status": {"flags": 135, "velocity_variance": 0.0, "pos_horiz_variance": 0.038591571152210236, "pos_vert_variance": 0.01361193135380745}}, "errors": ["PreArm: RC not found", "PreArm: Hardware safety switch", "PreArm: Compasses inconsistent", "PreArm: RC not found", "PreArm: Hardware safety switch", "PreArm: Compasses inconsistent", "EKF3 IMU1 forced reset", "EKF3 IMU1 initialised", "EKF3 IMU1 tilt alignment complete", "EKF3 IMU1 MAG0 initial yaw alignment complete", "PreArm: RC not found", "PreArm: Hardware safety switch", "PreArm: Compasses inconsistent"]}
{"timestamp": "2026-01-30T15:32:40.072606Z", "telemetry": {"lat": 0.0, "lon": 0.0, "satellites": 0, "altitude_gps_m": 1.4299999475479126, "groundspeed_mps": 0.1296926736831665}, "flight": {"mode": "STABILIZE", "armed": false}, "ekf": {"attitude": {"roll": 0.023163102567195892, "pitch": -0.025939352810382843, "yaw": -2.759171962738037}, "local_position": {"x": null, "y": null, "z": null}, "status": {"flags": 135, "velocity_variance": 0.0, "pos_horiz_variance": 0.04399815574288368, "pos_vert_variance": 0.09871773421764374}}, "errors": ["PreArm: RC not found", "PreArm: Hardware safety switch", "PreArm: Compasses inconsistent", "PreArm: RC not found", "PreArm: Hardware safety switch", "PreArm: Compasses inconsistent", "EKF3 IMU1 forced reset", "EKF3 IMU1 initialised", "EKF3 IMU1 tilt alignment complete", "EKF3 IMU1 MAG0 initial yaw alignment complete", "PreArm: RC not found", "PreArm: Hardware safety switch", "PreArm: Compasses inconsistent"]}
{"timestamp": "2026-01-30T15:32:41.072730Z", "telemetry": {"lat": 0.0, "lon": 0.0, "satellites": 0, "altitude_gps_m": 1.4299999475479126, "groundspeed_mps": 0.1476946324110031}, "flight": {"mode": "STABILIZE", "armed": false}, "ekf": {"attitude": {"roll": 0.05411113053560257, "pitch": -0.05092410370707512, "yaw": -2.7334487438201904}, "local_position": {"x": null, "y": null, "z": null}, "status": {"flags": 135, "velocity_variance": 0.0, "pos_horiz_variance": 0.03515613451600075, "pos_vert_variance": 0.00034846534254029393}}, "errors": ["PreArm: RC not found", "PreArm: Hardware safety switch", "PreArm: Compasses inconsistent", "PreArm: RC not found", "PreArm: Hardware safety switch", "PreArm: Compasses inconsistent", "EKF3 IMU1 forced reset", "EKF3 IMU1 initialised", "EKF3 IMU1 tilt alignment complete", "EKF3 IMU1 MAG0 initial yaw alignment complete", "PreArm: RC not found", "PreArm: Hardware safety switch", "PreArm: Compasses inconsistent"]}
{"timestamp": "2026-01-30T15:32:42.072671Z", "telemetry": {"lat": 0.0, "lon": 0.0, "satellites": 0, "altitude_gps_m": 1.4299999475479126, "groundspeed_mps": 0.10033846646547318}, "flight": {"mode": "STABILIZE", "armed": false}, "ekf": {"attitude": {"roll": 0.06263807415962219, "pitch": -0.0609460324048996, "yaw": -2.709559440612793}, "local_position": {"x": null, "y": null, "z": null}, "status": {"flags": 135, "velocity_variance": 0.0, "pos_horiz_variance": 0.03291293978691101, "pos_vert_variance": 0.01896602287888527}}, "errors": ["PreArm: RC not found", "PreArm: Hardware safety switch", "PreArm: Compasses inconsistent", "PreArm: RC not found", "PreArm: Hardware safety switch", "PreArm: Compasses inconsistent", "EKF3 IMU1 forced reset", "EKF3 IMU1 initialised", "EKF3 IMU1 tilt alignment complete", "EKF3 IMU1 MAG0 initial yaw alignment complete", "PreArm: RC not found", "PreArm: Hardware safety switch", "PreArm: Compasses inconsistent"]}
