{"timestamp": "2026-01-24T15:38:34.904987Z", "telemetry": {"lat": 28.7532291, "lon": 77.117979, "satellites": 9, "altitude_gps_m": 279.16998291015625, "groundspeed_mps": 0.009531422518193722}, "flight": {"mode": "STABILIZE", "armed": false}, "ekf": {"attitude": {"roll": 0.020543638616800308, "pitch": -0.002476673573255539, "yaw": 0.9885275959968567}, "local_position": {"x": null, "y": null, "z": null}, "status": {"flags": 135, "velocity_variance": 0.0, "pos_horiz_variance": 0.0036666146479547024, "pos_vert_variance": 0.01316282618790865}}, "errors": []}
{"timestamp": "2026-01-24T15:38:35.907683Z", "telemetry": {"lat": 28.7532216, "lon": 77.1179782, "satellites": 9, "altitude_gps_m": 278.44000244140625, "groundspeed_mps": 0.008674136362969875}, "flight": {"mode": "STABILIZE", "armed": false}, "ekf": {"attitude": {"roll": 0.020505517721176147, "pitch": -0.0025316737592220306, "yaw": 0.9885349869728088}, "local_position": {"x": null, "y": null, "z": null}, "status": {"flags": 135, "velocity_variance": 0.0, "pos_horiz_variance": 0.003148938762024045, "pos_vert_variance": 0.01639232411980629}}, "errors": ["PreArm: Hardware safety switch"]}
{"timestamp": "2026-01-24T15:38:36.904863Z", "telemetry": {"lat": 28.7532105, "lon": 77.1179794, "satellites": 9, "altitude_gps_m": 277.6399841308594, "groundspeed_mps": 0.010219672694802284}, "flight": {"mode": "STABILIZE", "armed": false}, "ekf": {"attitude": {"roll": 0.01935979165136814, "pitch": -0.0021938085556030273, "yaw": 0.9884088635444641}, "local_position": {"x": null, "y": null, "z": null}, "status": {"flags": 135, "velocity_variance": 0.0, "pos_horiz_variance": 0.002623029053211212, "pos_vert_variance": 0.004385896027088165}}, "errors": ["PreArm: Hardware safety switch"]}
{"timestamp": "2026-01-24T15:38:37.905663Z", "telemetry": {"lat": 28.753201, "lon": 77.1179817, "satellites": 9, "altitude_gps_m": 277.9599914550781, "groundspeed_mps": 0.00902402400970459}, "flight": {"mode": "STABILIZE", "armed": false}, "ekf": {"attitude": {"roll": 0.01842387206852436, "pitch": -0.0015042126178741455, "yaw": 0.9885846376419067}, "local_position": {"x": null, "y": null, "z": null}, "status": {"flags": 135, "velocity_variance": 0.0, "pos_horiz_variance": 0.002359201665967703, "pos_vert_variance": 0.014061180874705315}}, "errors": ["PreArm: Hardware safety switch"]}
{"timestamp": "2026-01-24T15:38:38.905147Z", "telemetry": {"lat": 28.7531918, "lon": 77.1179821, "satellites": 9, "altitude_gps_m": 278.5400085449219, "groundspeed_mps": 0.01396640483289957}, "flight": {"mode": "STABILIZE", "armed": false}, "ekf": {"attitude": {"roll": 0.015695765614509583, "pitch": -0.0010647140443325043, "yaw": 0.9885145425796509}, "local_position": {"x": null, "y": null, "z": null}, "status": {"flags": 135, "velocity_variance": 0.0, "pos_horiz_variance": 0.0022047134116292, "pos_vert_variance": 0.027624323964118958}}, "errors": ["PreArm: Hardware safety switch"]}
{"timestamp": "2026-01-24T15:38:39.905238Z", "telemetry": {"lat": 28.7531836, "lon": 77.1179789, "satellites": 9, "altitude_gps_m": 279.07000732421875, "groundspeed_mps": 0.006910087540745735}, "flight": {"mode": "STABILIZE", "armed": false}, "ekf": {"attitude": {"roll": 0.017030540853738785, "pitch": -0.0010916627943515778, "yaw": 0.9881076216697693}, "local_position": {"x": null, "y": null, "z": null}, "status": {"flags": 135, "velocity_variance": 0.0, "pos_horiz_variance": 0.0014573154039680958, "pos_vert_variance": 0.049278970807790756}}, "errors": ["PreArm: Hardware safety switch"]}
{"timestamp": "2026-01-24T15:38:40.905390Z", "telemetry": {"lat": 28.7531791, "lon": 77.1179757, "satellites": 9, "altitude_gps_m": 279.0400085449219, "groundspeed_mps": 0.0045162951573729515}, "flight": {"mode": "STABILIZE", "armed": false}, "ekf": {"attitude": {"roll": 0.019618835300207138, "pitch": -0.0008145906031131744, "yaw": 0.9878971576690674}, "local_position": {"x": null, "y": null, "z": null}, "status": {"flags": 135, "velocity_variance": 0.0, "pos_horiz_variance": 0.001221437705680728, "pos_vert_variance": 0.043615102767944336}}, "errors": ["PreArm: Hardware safety switch"]}
{"timestamp": "2026-01-24T15:38:41.905466Z", "telemetry": {"lat": 28.7531787, "lon": 77.1179769, "satellites": 9, "altitude_gps_m": 278.75, "groundspeed_mps": 0.006436362396925688}, "flight": {"mode": "STABILIZE", "armed": false}, "ekf": {"attitude": {"roll": 0.020574336871504784, "pitch": -0.0016754046082496643, "yaw": 0.9882822632789612}, "local_position": {"x": null, "y": null, "z": null}, "status": {"flags": 135, "velocity_variance": 0.0, "pos_horiz_variance": 0.0003558735188562423, "pos_vert_variance": 0.013174610212445259}}, "errors": ["PreArm: Hardware safety switch"]}
{"timestamp": "2026-01-24T15:38:42.905675Z", "telemetry": {"lat": 28.7531758, "lon": 77.1179802, "satellites": 9, "altitude_gps_m": 278.5799865722656, "groundspeed_mps": 0.009392867796123028}, "flight": {"mode": "STABILIZE", "armed": false}, "ekf": {"attitude": {"roll": 0.01941697672009468, "pitch": -0.001325756311416626, "yaw": 0.9882362484931946}, "local_position": {"x": null, "y": null, "z": null}, "status": {"flags": 135, "velocity_variance": 0.0, "pos_horiz_variance": 0.0008975485106930137, "pos_vert_variance": 0.07132538408041}}, "errors": ["PreArm: Hardware safety switch"]}
{"timestamp": "2026-01-24T15:38:43.905708Z", "telemetry": {"lat": 28.7531791, "lon": 77.1179846, "satellites": 9, "altitude_gps_m": 277.8599853515625, "groundspeed_mps": 0.007858945056796074}, "flight": {"mode": "STABILIZE", "armed": false}, "ekf": {"attitude": {"roll": 0.019648589193820953, "pitch": -0.0013742931187152863, "yaw": 0.9882016777992249}, "local_position": {"x": null, "y": null, "z": null}, "status": {"flags": 135, "velocity_variance": 0.0, "pos_horiz_variance": 0.0015857141697779298, "pos_vert_variance": 0.04745180904865265}}, "errors": ["PreArm: Hardware safety switch"]}
{"timestamp": "2026-01-24T15:38:44.905672Z", "telemetry": {"lat": 28.7531758, "lon": 77.1179898, "satellites": 9, "altitude_gps_m": 276.79998779296875, "groundspeed_mps": 0.008618810214102268}, "flight": {"mode": "STABILIZE", "armed": false}, "ekf": {"attitude": {"roll": 0.0204804427921772, "pitch": -0.0016651302576065063, "yaw": 0.9882175922393799}, "local_position": {"x": null, "y": null, "z": null}, "status": {"flags": 135, "velocity_variance": 0.0, "pos_horiz_variance": 0.0018677868647500873, "pos_vert_variance": 0.057096969336271286}}, "errors": ["PreArm: Hardware safety switch"]}
{"timestamp": "2026-01-24T15:38:45.905823Z", "telemetry": {"lat": 28.7531771, "lon": 77.1179877, "satellites": 9, "altitude_gps_m": 275.239990234375, "groundspeed_mps": 0.005250494461506605}, "flight": {"mode": "STABILIZE", "armed": false}, "ekf": {"attitude": {"roll": 0.01593724824488163, "pitch": -0.0007508210837841034, "yaw": 0.9886221885681152}, "local_position": {"x": null, "y": null, "z": null}, "status": {"flags": 135, "velocity_variance": 0.0, "pos_horiz_variance": 0.0031302282586693764, "pos_vert_variance": 0.06071218103170395}}, "errors": ["PreArm: Hardware safety switch"]}
{"timestamp": "2026-01-24T15:38:46.905858Z", "telemetry": {"lat": 28.7531783, "lon": 77.1179869, "satellites": 9, "altitude_gps_m": 272.489990234375, "groundspeed_mps": 0.019683828577399254}, "flight": {"mode": "STABILIZE", "armed": false}, "ekf": {"attitude": {"roll": 0.015237412415444851, "pitch": 5.157291889190674e-05, "yaw": 0.9875629544258118}, "local_position": {"x": null, "y": null, "z": null}, "status": {"flags": 135, "velocity_variance": 0.0, "pos_horiz_variance": 0.0033519172575324774, "pos_vert_variance": 0.07706829905509949}}, "errors": ["PreArm: Hardware safety switch"]}
{"timestamp": "2026-01-24T15:38:47.904360Z", "telemetry": {"lat": 28.75318, "lon": 77.117988, "satellites": 9, "altitude_gps_m": 269.5, "groundspeed_mps": 0.021641099825501442}, "flight": {"mode": "STABILIZE", "armed": false}, "ekf": {"attitude": {"roll": 0.01548373606055975, "pitch": -0.0013125240802764893, "yaw": 0.9879592061042786}, "local_position": {"x": null, "y": null, "z": null}, "status": {"flags": 135, "velocity_variance": 0.0, "pos_horiz_variance": 0.004089321941137314, "pos_vert_variance": 0.08152738213539124}}, "errors": ["PreArm: Hardware safety switch"]}
{"timestamp": "2026-01-24T15:38:48.901704Z", "telemetry": {"lat": 28.7531757, "lon": 77.1179943, "satellites": 9, "altitude_gps_m": 266.25, "groundspeed_mps": 0.013358067721128464}, "flight": {"mode": "STABILIZE", "armed": false}, "ekf": {"attitude": {"roll": 0.015393338166177273, "pitch": -0.0007812865078449249, "yaw": 0.9877044558525085}, "local_position": {"x": null, "y": null, "z": null}, "status": {"flags": 135, "velocity_variance": 0.0, "pos_horiz_variance": 0.004532537888735533, "pos_vert_variance": 0.003950786776840687}}, "errors": ["PreArm: Hardware safety switch"]}
{"timestamp": "2026-01-24T15:38:49.898619Z", "telemetry": {"lat": 28.7531756, "lon": 77.1179961, "satellites": 9, "altitude_gps_m": 263.3899841308594, "groundspeed_mps": 0.011325676925480366}, "flight": {"mode": "STABILIZE", "armed": false}, "ekf": {"attitude": {"roll": 0.015535320155322552, "pitch": -0.0009536966681480408, "yaw": 0.987687349319458}, "local_position": {"x": null, "y": null, "z": null}, "status": {"flags": 135, "velocity_variance": 0.0, "pos_horiz_variance": 0.003977013286203146, "pos_vert_variance": 0.06715328246355057}}, "errors": ["PreArm: Hardware safety switch"]}
{"timestamp": "2026-01-24T15:38:50.895636Z", "telemetry": {"lat": 28.7531686, "lon": 77.1179951, "satellites": 9, "altitude_gps_m": 261.3800048828125, "groundspeed_mps": 0.00938769057393074}, "flight": {"mode": "STABILIZE", "armed": false}, "ekf": {"attitude": {"roll": 0.01560142356902361, "pitch": -0.0010049045085906982, "yaw": 0.9876229166984558}, "local_position": {"x": null, "y": null, "z": null}, "status": {"flags": 135, "velocity_variance": 0.0, "pos_horiz_variance": 0.003391355974599719, "pos_vert_variance": 0.027534417808055878}}, "errors": ["PreArm: Hardware safety switch"]}
{"timestamp": "2026-01-24T15:38:51.892048Z", "telemetry": {"lat": 28.7531666, "lon": 77.1179905, "satellites": 9, "altitude_gps_m": 258.5299987792969, "groundspeed_mps": 0.008276915177702904}, "flight": {"mode": "STABILIZE", "armed": false}, "ekf": {"attitude": {"roll": 0.015655122697353363, "pitch": -0.0010118037462234497, "yaw": 0.9876538515090942}, "local_position": {"x": null, "y": null, "z": null}, "status": {"flags": 135, "velocity_variance": 0.0, "pos_horiz_variance": 0.0028174472972750664, "pos_vert_variance": 0.04237745329737663}}, "errors": ["PreArm: Hardware safety switch"]}
{"timestamp": "2026-01-24T15:38:52.926753Z", "telemetry": {"lat": 28.753174, "lon": 77.1179813, "satellites": 9, "altitude_gps_m": 254.97999572753906, "groundspeed_mps": 0.008200300857424736}, "flight": {"mode": "STABILIZE", "armed": false}, "ekf": {"attitude": {"roll": 0.01570616476237774, "pitch": -0.0010507740080356598, "yaw": 0.9875590205192566}, "local_position": {"x": null, "y": null, "z": null}, "status": {"flags": 135, "velocity_variance": 0.0, "pos_horiz_variance": 0.00256361230276525, "pos_vert_variance": 0.06958559900522232}}, "errors": ["PreArm: Hardware safety switch"]}
{"timestamp": "2026-01-24T15:38:53.923797Z", "telemetry": {"lat": 28.7531841, "lon": 77.117968, "satellites": 9, "altitude_gps_m": 251.239990234375, "groundspeed_mps": 0.007414568215608597}, "flight": {"mode": "STABILIZE", "armed": false}, "ekf": {"attitude": {"roll": 0.01567288674414158, "pitch": -0.0009672977030277252, "yaw": 0.9875298738479614}, "local_position": {"x": null, "y": null, "z": null}, "status": {"flags": 135, "velocity_variance": 0.0, "pos_horiz_variance": 0.0022959799971431494, "pos_vert_variance": 0.050531916320323944}}, "errors": ["PreArm: Hardware safety switch"]}
{"timestamp": "2026-01-24T15:38:54.920863Z", "telemetry": {"lat": 28.753191, "lon": 77.1179602, "satellites": 9, "altitude_gps_m": 246.83999633789062, "groundspeed_mps": 0.009505443274974823}, "flight": {"mode": "STABILIZE", "armed": false}, "ekf": {"attitude": {"roll": 0.0156264565885067, "pitch": -0.0010811090469360352, "yaw": 0.9875109195709229}, "local_position": {"x": null, "y": null, "z": null}, "status": {"flags": 135, "velocity_variance": 0.0, "pos_horiz_variance": 0.0023560221306979656, "pos_vert_variance": 0.05000234767794609}}, "errors": ["PreArm: Hardware safety switch"]}
{"timestamp": "2026-01-24T15:38:55.917824Z", "telemetry": {"lat": 28.7532017, "lon": 77.1179471, "satellites": 9, "altitude_gps_m": 240.52999877929688, "groundspeed_mps": 0.010063428431749344}, "flight": {"mode": "STABILIZE", "armed": false}, "ekf": {"attitude": {"roll": 0.015647951513528824, "pitch": -0.0011223666369915009, "yaw": 0.9875534176826477}, "local_position": {"x": null, "y": null, "z": null}, "status": {"flags": 135, "velocity_variance": 0.0, "pos_horiz_variance": 0.002604041714221239, "pos_vert_variance": 0.019575413316488266}}, "errors": ["PreArm: Hardware safety switch"]}
{"timestamp": "2026-01-24T15:38:56.914843Z", "telemetry": {"lat": 28.7532105, "lon": 77.1179365, "satellites": 10, "altitude_gps_m": 236.4399871826172, "groundspeed_mps": 0.008069710806012154}, "flight": {"mode": "STABILIZE", "armed": false}, "ekf": {"attitude": {"roll": 0.015576980076730251, "pitch": -0.0011834874749183655, "yaw": 0.9874587059020996}, "local_position": {"x": null, "y": null, "z": null}, "status": {"flags": 135, "velocity_variance": 0.0, "pos_horiz_variance": 0.0025421734899282455, "pos_vert_variance": 0.027165673673152924}}, "errors": ["PreArm: Hardware safety switch"]}
{"timestamp": "2026-01-24T15:38:57.913528Z", "telemetry": {"lat": 28.7532205, "lon": 77.1179243, "satellites": 9, "altitude_gps_m": 235.61000061035156, "groundspeed_mps": 0.006195989437401295}, "flight": {"mode": "STABILIZE", "armed": false}, "ekf": {"attitude": {"roll": 0.015668682754039764, "pitch": -0.0012486912310123444, "yaw": 0.9875131249427795}, "local_position": {"x": null, "y": null, "z": null}, "status": {"flags": 135, "velocity_variance": 0.0, "pos_horiz_variance": 0.0021981406025588512, "pos_vert_variance": 0.018943777307868004}}, "errors": ["PreArm: Hardware safety switch"]}
{"timestamp": "2026-01-24T15:38:58.909218Z", "telemetry": {"lat": 28.7532179, "lon": 77.1179205, "satellites": 9, "altitude_gps_m": 236.08999633789062, "groundspeed_mps": 0.004598244559019804}, "flight": {"mode": "STABILIZE", "armed": false}, "ekf": {"attitude": {"roll": 0.01545232068747282, "pitch": -0.001277722418308258, "yaw": 0.987430214881897}, "local_position": {"x": null, "y": null, "z": null}, "status": {"flags": 135, "velocity_variance": 0.0, "pos_horiz_variance": 0.0018648637924343348, "pos_vert_variance": 0.045419640839099884}}, "errors": ["PreArm: Hardware safety switch"]}
{"timestamp": "2026-01-24T15:38:59.906426Z", "telemetry": {"lat": 28.7532119, "lon": 77.1179184, "satellites": 9, "altitude_gps_m": 236.05999755859375, "groundspeed_mps": 0.002351226517930627}, "flight": {"mode": "STABILIZE", "armed": false}, "ekf": {"attitude": {"roll": 0.01535352598875761, "pitch": -0.001266714185476303, "yaw": 0.9875237345695496}, "local_position": {"x": null, "y": null, "z": null}, "status": {"flags": 135, "velocity_variance": 0.0, "pos_horiz_variance": 0.0012276493944227695, "pos_vert_variance": 0.00020664947805926204}}, "errors": ["PreArm: Hardware safety switch"]}
{"timestamp": "2026-01-24T15:39:00.903610Z", "telemetry": {"lat": 28.7532109, "lon": 77.1179163, "satellites": 9, "altitude_gps_m": 236.51998901367188, "groundspeed_mps": 0.0016794857801869512}, "flight": {"mode": "STABILIZE", "armed": false}, "ekf": {"attitude": {"roll": 0.015416613779962063, "pitch": -0.0012873932719230652, "yaw": 0.9873404502868652}, "local_position": {"x": null, "y": null, "z": null}, "status": {"flags": 135, "velocity_variance": 0.0, "pos_horiz_variance": 0.0005822720704600215, "pos_vert_variance": 0.013624056242406368}}, "errors": ["PreArm: Hardware safety switch"]}
{"timestamp": "2026-01-24T15:39:01.902927Z", "telemetry": {"lat": 28.7532095, "lon": 77.1179216, "satellites": 9, "altitude_gps_m": 236.17999267578125, "groundspeed_mps": 0.004892620258033276}, "flight": {"mode": "STABILIZE", "armed": false}, "ekf": {"attitude": {"roll": 0.015380348078906536, "pitch": -0.0012978240847587585, "yaw": 0.9873191714286804}, "local_position": {"x": null, "y": null, "z": null}, "status": {"flags": 135, "velocity_variance": 0.0, "pos_horiz_variance": 0.0003355153894517571, "pos_vert_variance": 0.024093089625239372}}, "errors": ["PreArm: Hardware safety switch"]}
{"timestamp": "2026-01-24T15:39:02.900372Z", "telemetry": {"lat": 28.7532091, "lon": 77.1179216, "satellites": 9, "altitude_gps_m": 237.239990234375, "groundspeed_mps": 0.004030229989439249}, "flight": {"mode": "STABILIZE", "armed": false}, "ekf": {"attitude": {"roll": 0.015459689311683178, "pitch": -0.0013893470168113708, "yaw": 0.9869884252548218}, "local_position": {"x": null, "y": null, "z": null}, "status": {"flags": 135, "velocity_variance": 0.0, "pos_horiz_variance": 0.0006444744649343193, "pos_vert_variance": 0.024499425664544106}}, "errors": ["PreArm: Hardware safety switch"]}
{"timestamp": "2026-01-24T15:39:03.897852Z", "telemetry": {"lat": 28.7532017, "lon": 77.1179304, "satellites": 8, "altitude_gps_m": 238.64999389648438, "groundspeed_mps": 0.0024856124073266983}, "flight": {"mode": "STABILIZE", "armed": false}, "ekf": {"attitude": {"roll": 0.015444762073457241, "pitch": -0.0013958737254142761, "yaw": 0.9870580434799194}, "local_position": {"x": null, "y": null, "z": null}, "status": {"flags": 135, "velocity_variance": 0.0, "pos_horiz_variance": 0.0006734844064339995, "pos_vert_variance": 0.031990133225917816}}, "errors": ["PreArm: Hardware safety switch"]}
{"timestamp": "2026-01-24T15:39:04.895606Z", "telemetry": {"lat": 28.7532001, "lon": 77.1179346, "satellites": 8, "altitude_gps_m": 237.739990234375, "groundspeed_mps": 0.004980734549462795}, "flight": {"mode": "STABILIZE", "armed": false}, "ekf": {"attitude": {"roll": 0.015377494506537914, "pitch": -0.0014703087508678436, "yaw": 0.9870578050613403}, "local_position": {"x": null, "y": null, "z": null}, "status": {"flags": 135, "velocity_variance": 0.0, "pos_horiz_variance": 0.0007123982650227845, "pos_vert_variance": 0.03454292193055153}}, "errors": ["PreArm: Hardware safety switch"]}
{"timestamp": "2026-01-24T15:39:05.892602Z", "telemetry": {"lat": 28.75321, "lon": 77.1179326, "satellites": 8, "altitude_gps_m": 237.1899871826172, "groundspeed_mps": 0.005151631310582161}, "flight": {"mode": "STABILIZE", "armed": false}, "ekf": {"attitude": {"roll": 0.0155312055721879, "pitch": -0.0015751458704471588, "yaw": 0.9869746565818787}, "local_position": {"x": null, "y": null, "z": null}, "status": {"flags": 135, "velocity_variance": 0.0, "pos_horiz_variance": 0.001197102596051991, "pos_vert_variance": 0.0409218966960907}}, "errors": ["PreArm: Hardware safety switch"]}
{"timestamp": "2026-01-24T15:39:06.889950Z", "telemetry": {"lat": 28.7532076, "lon": 77.117928, "satellites": 8, "altitude_gps_m": 236.80999755859375, "groundspeed_mps": 0.0020721913315355778}, "flight": {"mode": "STABILIZE", "armed": false}, "ekf": {"attitude": {"roll": 0.015610943548381329, "pitch": -0.0016658231616020203, "yaw": 0.9869808554649353}, "local_position": {"x": null, "y": null, "z": null}, "status": {"flags": 135, "velocity_variance": 0.0, "pos_horiz_variance": 0.0010032032150775194, "pos_vert_variance": 0.018415549769997597}}, "errors": ["PreArm: Hardware safety switch", "PreArm: Hardware safety switch"]}
{"timestamp": "2026-01-24T15:39:07.925232Z", "telemetry": {"lat": 28.7532135, "lon": 77.1179226, "satellites": 9, "altitude_gps_m": 236.8199920654297, "groundspeed_mps": 0.005397122353315353}, "flight": {"mode": "STABILIZE", "armed": false}, "ekf": {"attitude": {"roll": 0.015593855641782284, "pitch": -0.0016994476318359375, "yaw": 0.9870897531509399}, "local_position": {"x": null, "y": null, "z": null}, "status": {"flags": 135, "velocity_variance": 0.0, "pos_horiz_variance": 0.0007671769126318395, "pos_vert_variance": 0.009499792009592056}}, "errors": ["PreArm: Hardware safety switch", "PreArm: Hardware safety switch"]}
{"timestamp": "2026-01-24T15:39:08.922828Z", "telemetry": {"lat": 28.753217, "lon": 77.1179236, "satellites": 9, "altitude_gps_m": 236.61000061035156, "groundspeed_mps": 0.0070826467126607895}, "flight": {"mode": "STABILIZE", "armed": false}, "ekf": {"attitude": {"roll": 0.015642033889889717, "pitch": -0.0016494020819664001, "yaw": 0.9872016310691833}, "local_position": {"x": null, "y": null, "z": null}, "status": {"flags": 135, "velocity_variance": 0.0, "pos_horiz_variance": 0.0010682481806725264, "pos_vert_variance": 0.05327756330370903}}, "errors": ["PreArm: Hardware safety switch", "PreArm: Hardware safety switch"]}
{"timestamp": "2026-01-24T15:39:09.882912Z", "telemetry": {"lat": 28.753225, "lon": 77.1179258, "satellites": 9, "altitude_gps_m": 235.59999084472656, "groundspeed_mps": 0.008742813020944595}, "flight": {"mode": "STABILIZE", "armed": false}, "ekf": {"attitude": {"roll": 0.015713928267359734, "pitch": -0.0017686635255813599, "yaw": 0.9871491193771362}, "local_position": {"x": null, "y": null, "z": null}, "status": {"flags": 135, "velocity_variance": 0.0, "pos_horiz_variance": 0.0017534204525873065, "pos_vert_variance": 0.04322899878025055}}, "errors": ["PreArm: Hardware safety switch", "PreArm: Hardware safety switch"]}
{"timestamp": "2026-01-24T15:39:10.917940Z", "telemetry": {"lat": 28.7532372, "lon": 77.1179179, "satellites": 9, "altitude_gps_m": 234.6899871826172, "groundspeed_mps": 0.013606750406324863}, "flight": {"mode": "STABILIZE", "armed": false}, "ekf": {"attitude": {"roll": 0.015656987205147743, "pitch": -0.0018684938549995422, "yaw": 0.9872652888298035}, "local_position": {"x": null, "y": null, "z": null}, "status": {"flags": 135, "velocity_variance": 0.0, "pos_horiz_variance": 0.002484474331140518, "pos_vert_variance": 0.01884230598807335}}, "errors": ["PreArm: Hardware safety switch", "PreArm: Hardware safety switch"]}
{"timestamp": "2026-01-24T15:39:11.915791Z", "telemetry": {"lat": 28.7532404, "lon": 77.1179155, "satellites": 9, "altitude_gps_m": 233.62998962402344, "groundspeed_mps": 0.015826819464564323}, "flight": {"mode": "STABILIZE", "armed": false}, "ekf": {"attitude": {"roll": 0.0155896982178092, "pitch": -0.001991182565689087, "yaw": 0.9874262809753418}, "local_position": {"x": null, "y": null, "z": null}, "status": {"flags": 135, "velocity_variance": 0.0, "pos_horiz_variance": 0.00301445834338665, "pos_vert_variance": 0.01280708983540535}}, "errors": ["PreArm: Hardware safety switch", "PreArm: Hardware safety switch"]}
{"timestamp": "2026-01-24T15:39:12.913302Z", "telemetry": {"lat": 28.7532508, "lon": 77.1179086, "satellites": 9, "altitude_gps_m": 233.8300018310547, "groundspeed_mps": 0.017826247960329056}, "flight": {"mode": "STABILIZE", "armed": false}, "ekf": {"attitude": {"roll": 0.01564696989953518, "pitch": -0.0019489265978336334, "yaw": 0.987629771232605}, "local_position": {"x": null, "y": null, "z": null}, "status": {"flags": 135, "velocity_variance": 0.0, "pos_horiz_variance": 0.003971148282289505, "pos_vert_variance": 0.053148604929447174}}, "errors": ["PreArm: Hardware safety switch", "PreArm: Hardware safety switch"]}
{"timestamp": "2026-01-24T15:39:13.911178Z", "telemetry": {"lat": 28.7532516, "lon": 77.1178981, "satellites": 10, "altitude_gps_m": 234.4199981689453, "groundspeed_mps": 0.017509153112769127}, "flight": {"mode": "STABILIZE", "armed": false}, "ekf": {"attitude": {"roll": 0.015575419180095196, "pitch": -0.0019499287009239197, "yaw": 0.987619936466217}, "local_position": {"x": null, "y": null, "z": null}, "status": {"flags": 135, "velocity_variance": 0.0, "pos_horiz_variance": 0.004614559002220631, "pos_vert_variance": 0.07774889469146729}}, "errors": ["PreArm: Hardware safety switch", "PreArm: Hardware safety switch"]}
{"timestamp": "2026-01-24T15:39:14.908699Z", "telemetry": {"lat": 28.7532577, "lon": 77.1178868, "satellites": 10, "altitude_gps_m": 233.2899932861328, "groundspeed_mps": 0.015445215627551079}, "flight": {"mode": "STABILIZE", "armed": false}, "ekf": {"attitude": {"roll": 0.015579781495034695, "pitch": -0.0020138025283813477, "yaw": 0.9875054955482483}, "local_position": {"x": null, "y": null, "z": null}, "status": {"flags": 135, "velocity_variance": 0.0, "pos_horiz_variance": 0.004494080785661936, "pos_vert_variance": 0.02384256385266781}}, "errors": ["PreArm: Hardware safety switch", "PreArm: Hardware safety switch"]}
{"timestamp": "2026-01-24T15:39:15.906436Z", "telemetry": {"lat": 28.7532611, "lon": 77.1178821, "satellites": 10, "altitude_gps_m": 232.8199920654297, "groundspeed_mps": 0.017025385051965714}, "flight": {"mode": "STABILIZE", "armed": false}, "ekf": {"attitude": {"roll": 0.015466331504285336, "pitch": -0.0020392052829265594, "yaw": 0.9875162839889526}, "local_position": {"x": null, "y": null, "z": null}, "status": {"flags": 135, "velocity_variance": 0.0, "pos_horiz_variance": 0.00461868429556489, "pos_vert_variance": 0.02808397263288498}}, "errors": ["PreArm: Hardware safety switch", "PreArm: Hardware safety switch"]}
{"timestamp": "2026-01-24T15:39:16.906296Z", "telemetry": {"lat": 28.7532685, "lon": 77.1178796, "satellites": 10, "altitude_gps_m": 232.5399932861328, "groundspeed_mps": 0.019035518169403076}, "flight": {"mode": "STABILIZE", "armed": false}, "ekf": {"attitude": {"roll": 0.015510833822190762, "pitch": -0.002124268561601639, "yaw": 0.9874798059463501}, "local_position": {"x": null, "y": null, "z": null}, "status": {"flags": 135, "velocity_variance": 0.0, "pos_horiz_variance": 0.004814879968762398, "pos_vert_variance": 0.019414778798818588}}, "errors": ["PreArm: Hardware safety switch", "PreArm: Hardware safety switch"]}
{"timestamp": "2026-01-24T15:39:17.903840Z", "telemetry": {"lat": 28.7532742, "lon": 77.1178782, "satellites": 10, "altitude_gps_m": 232.8199920654297, "groundspeed_mps": 0.01929262839257717}, "flight": {"mode": "STABILIZE", "armed": false}, "ekf": {"attitude": {"roll": 0.015441237948834896, "pitch": -0.002103041857481003, "yaw": 0.9876410365104675}, "local_position": {"x": null, "y": null, "z": null}, "status": {"flags": 135, "velocity_variance": 0.0, "pos_horiz_variance": 0.0053345318883657455, "pos_vert_variance": 0.014101658947765827}}, "errors": ["PreArm: Hardware safety switch", "PreArm: Hardware safety switch"]}
{"timestamp": "2026-01-24T15:39:18.902024Z", "telemetry": {"lat": 28.7532782, "lon": 77.1178771, "satellites": 9, "altitude_gps_m": 233.62998962402344, "groundspeed_mps": 0.018324755132198334}, "flight": {"mode": "STABILIZE", "armed": false}, "ekf": {"attitude": {"roll": 0.01540991198271513, "pitch": -0.0021242648363113403, "yaw": 0.9877848625183105}, "local_position": {"x": null, "y": null, "z": null}, "status": {"flags": 135, "velocity_variance": 0.0, "pos_horiz_variance": 0.005390943959355354, "pos_vert_variance": 0.00694770272821188}}, "errors": ["PreArm: Hardware safety switch", "PreArm: Hardware safety switch"]}
{"timestamp": "2026-01-24T15:39:19.939057Z", "telemetry": {"lat": 28.7532802, "lon": 77.1178723, "satellites": 10, "altitude_gps_m": 234.14999389648438, "groundspeed_mps": 0.018277985975146294}, "flight": {"mode": "STABILIZE", "armed": false}, "ekf": {"attitude": {"roll": 0.015365422703325748, "pitch": -0.0021020136773586273, "yaw": 0.9877816438674927}, "local_position": {"x": null, "y": null, "z": null}, "status": {"flags": 135, "velocity_variance": 0.0, "pos_horiz_variance": 0.005344917997717857, "pos_vert_variance": 0.05669321119785309}}, "errors": ["PreArm: Hardware safety switch", "PreArm: Hardware safety switch"]}
{"timestamp": "2026-01-24T15:39:20.935896Z", "telemetry": {"lat": 28.7532807, "lon": 77.1178722, "satellites": 10, "altitude_gps_m": 235.4499969482422, "groundspeed_mps": 0.01662938855588436}, "flight": {"mode": "STABILIZE", "armed": false}, "ekf": {"attitude": {"roll": 0.015311346389353275, "pitch": -0.002094689756631851, "yaw": 0.9879104495048523}, "local_position": {"x": null, "y": null, "z": null}, "status": {"flags": 135, "velocity_variance": 0.0, "pos_horiz_variance": 0.005246903747320175, "pos_vert_variance": 0.004700629040598869}}, "errors": ["PreArm: Hardware safety switch", "PreArm: Hardware safety switch"]}
{"timestamp": "2026-01-24T15:39:21.896418Z", "telemetry": {"lat": 28.7532725, "lon": 77.1178621, "satellites": 10, "altitude_gps_m": 235.29998779296875, "groundspeed_mps": 0.01458515040576458}, "flight": {"mode": "STABILIZE", "armed": false}, "ekf": {"attitude": {"roll": 0.01530167181044817, "pitch": -0.0020971037447452545, "yaw": 0.9879879951477051}, "local_position": {"x": null, "y": null, "z": null}, "status": {"flags": 135, "velocity_variance": 0.0, "pos_horiz_variance": 0.004880033433437347, "pos_vert_variance": 0.0056540886871516705}}, "errors": ["PreArm: Hardware safety switch", "PreArm: Hardware safety switch"]}
{"timestamp": "2026-01-24T15:39:22.895035Z", "telemetry": {"lat": 28.753265, "lon": 77.1178586, "satellites": 10, "altitude_gps_m": 234.8199920654297, "groundspeed_mps": 0.01275610737502575}, "flight": {"mode": "STABILIZE", "armed": false}, "ekf": {"attitude": {"roll": 0.015202769078314304, "pitch": -0.0020418986678123474, "yaw": 0.9880269765853882}, "local_position": {"x": null, "y": null, "z": null}, "status": {"flags": 135, "velocity_variance": 0.0, "pos_horiz_variance": 0.004300619475543499, "pos_vert_variance": 0.01932659186422825}}, "errors": ["PreArm: Hardware safety switch", "PreArm: Hardware safety switch"]}
{"timestamp": "2026-01-24T15:39:23.892435Z", "telemetry": {"lat": 28.7532563, "lon": 77.1178534, "satellites": 10, "altitude_gps_m": 234.5, "groundspeed_mps": 0.014596709050238132}, "flight": {"mode": "STABILIZE", "armed": false}, "ekf": {"attitude": {"roll": 0.015125279314815998, "pitch": -0.0019940659403800964, "yaw": 0.9881501197814941}, "local_position": {"x": null, "y": null, "z": null}, "status": {"flags": 135, "velocity_variance": 0.0, "pos_horiz_variance": 0.004042140673846006, "pos_vert_variance": 0.030179457738995552}}, "errors": ["PreArm: Hardware safety switch", "PreArm: Hardware safety switch"]}
{"timestamp": "2026-01-24T15:39:24.890138Z", "telemetry": {"lat": 28.7532492, "lon": 77.1178515, "satellites": 8, "altitude_gps_m": 233.64999389648438, "groundspeed_mps": 0.015302621759474277}, "flight": {"mode": "STABILIZE", "armed": false}, "ekf": {"attitude": {"roll": 0.015066615305840969, "pitch": -0.001968216150999069, "yaw": 0.9879605174064636}, "local_position": {"x": null, "y": null, "z": null}, "status": {"flags": 135, "velocity_variance": 0.0, "pos_horiz_variance": 0.004127906635403633, "pos_vert_variance": 0.05070624127984047}}, "errors": ["PreArm: Hardware safety switch", "PreArm: Hardware safety switch"]}
{"timestamp": "2026-01-24T15:39:25.925691Z", "telemetry": {"lat": 28.7532469, "lon": 77.1178523, "satellites": 8, "altitude_gps_m": 233.39999389648438, "groundspeed_mps": 0.017002498731017113}, "flight": {"mode": "STABILIZE", "armed": false}, "ekf": {"attitude": {"roll": 0.015099872834980488, "pitch": -0.0019752904772758484, "yaw": 0.9879925847053528}, "local_position": {"x": null, "y": null, "z": null}, "status": {"flags": 135, "velocity_variance": 0.0, "pos_horiz_variance": 0.004397356882691383, "pos_vert_variance": 0.03594295680522919}}, "errors": ["PreArm: Hardware safety switch", "PreArm: Hardware safety switch"]}
{"timestamp": "2026-01-24T15:39:26.923930Z", "telemetry": {"lat": 28.7532419, "lon": 77.1178512, "satellites": 8, "altitude_gps_m": 232.87998962402344, "groundspeed_mps": 0.016468126326799393}, "flight": {"mode": "STABILIZE", "armed": false}, "ekf": {"attitude": {"roll": 0.015170960687100887, "pitch": -0.00196094810962677, "yaw": 0.9880530834197998}, "local_position": {"x": null, "y": null, "z": null}, "status": {"flags": 135, "velocity_variance": 0.0, "pos_horiz_variance": 0.004641215782612562, "pos_vert_variance": 0.07107804715633392}}, "errors": ["PreArm: Hardware safety switch", "PreArm: Hardware safety switch"]}
{"timestamp": "2026-01-24T15:39:27.884828Z", "telemetry": {"lat": 28.7532421, "lon": 77.1178479, "satellites": 8, "altitude_gps_m": 232.3699951171875, "groundspeed_mps": 0.016321318224072456}, "flight": {"mode": "STABILIZE", "armed": false}, "ekf": {"attitude": {"roll": 0.015177574940025806, "pitch": -0.0019257180392742157, "yaw": 0.988221287727356}, "local_position": {"x": null, "y": null, "z": null}, "status": {"flags": 135, "velocity_variance": 0.0, "pos_horiz_variance": 0.00459666270762682, "pos_vert_variance": 0.003212548792362213}}, "errors": ["PreArm: Hardware safety switch", "PreArm: Hardware safety switch"]}
{"timestamp": "2026-01-24T15:39:28.883461Z", "telemetry": {"lat": 28.7532439, "lon": 77.1178426, "satellites": 8, "altitude_gps_m": 231.72000122070312, "groundspeed_mps": 0.01594117283821106}, "flight": {"mode": "STABILIZE", "armed": false}, "ekf": {"attitude": {"roll": 0.015256688930094242, "pitch": -0.001967955380678177, "yaw": 0.9881446361541748}, "local_position": {"x": null, "y": null, "z": null}, "status": {"flags": 135, "velocity_variance": 0.0, "pos_horiz_variance": 0.004669081419706345, "pos_vert_variance": 0.030376408249139786}}, "errors": ["PreArm: Hardware safety switch", "PreArm: Hardware safety switch"]}
{"timestamp": "2026-01-24T15:39:29.918225Z", "telemetry": {"lat": 28.7532381, "lon": 77.1178416, "satellites": 8, "altitude_gps_m": 230.739990234375, "groundspeed_mps": 0.016591161489486694}, "flight": {"mode": "STABILIZE", "armed": false}, "ekf": {"attitude": {"roll": 0.015404959209263325, "pitch": -0.00201999768614769, "yaw": 0.9881765246391296}, "local_position": {"x": null, "y": null, "z": null}, "status": {"flags": 135, "velocity_variance": 0.0, "pos_horiz_variance": 0.004756066016852856, "pos_vert_variance": 0.018981361761689186}}, "errors": ["PreArm: Hardware safety switch", "PreArm: Hardware safety switch"]}
{"timestamp": "2026-01-24T15:39:30.916311Z", "telemetry": {"lat": 28.7532351, "lon": 77.1178369, "satellites": 8, "altitude_gps_m": 229.11000061035156, "groundspeed_mps": 0.017945200204849243}, "flight": {"mode": "STABILIZE", "armed": false}, "ekf": {"attitude": {"roll": 0.015421058051288128, "pitch": -0.001965779811143875, "yaw": 0.9883209466934204}, "local_position": {"x": null, "y": null, "z": null}, "status": {"flags": 135, "velocity_variance": 0.0, "pos_horiz_variance": 0.004939292091876268, "pos_vert_variance": 0.05105337128043175}}, "errors": ["PreArm: Hardware safety switch", "PreArm: Hardware safety switch"]}
{"timestamp": "2026-01-24T15:39:31.914698Z", "telemetry": {"lat": 28.7532388, "lon": 77.1178359, "satellites": 8, "altitude_gps_m": 227.5, "groundspeed_mps": 0.015822749584913254}, "flight": {"mode": "STABILIZE", "armed": false}, "ekf": {"attitude": {"roll": 0.015379282645881176, "pitch": -0.00199316069483757, "yaw": 0.9883655905723572}, "local_position": {"x": null, "y": null, "z": null}, "status": {"flags": 135, "velocity_variance": 0.0, "pos_horiz_variance": 0.0048640137538313866, "pos_vert_variance": 0.005271541886031628}}, "errors": ["PreArm: Hardware safety switch", "PreArm: Hardware safety switch"]}
{"timestamp": "2026-01-24T15:39:32.912748Z", "telemetry": {"lat": 28.7532391, "lon": 77.1178285, "satellites": 7, "altitude_gps_m": 225.97999572753906, "groundspeed_mps": 0.014831971377134323}, "flight": {"mode": "STABILIZE", "armed": false}, "ekf": {"attitude": {"roll": 0.015431133098900318, "pitch": -0.001973964273929596, "yaw": 0.9884787797927856}, "local_position": {"x": null, "y": null, "z": null}, "status": {"flags": 135, "velocity_variance": 0.0, "pos_horiz_variance": 0.004592532757669687, "pos_vert_variance": 0.01303485594689846}}, "errors": ["PreArm: Hardware safety switch", "PreArm: Hardware safety switch"]}
{"timestamp": "2026-01-24T15:39:33.911130Z", "telemetry": {"lat": 28.7532407, "lon": 77.1178196, "satellites": 6, "altitude_gps_m": 224.95999145507812, "groundspeed_mps": 0.015003161504864693}, "flight": {"mode": "STABILIZE", "armed": false}, "ekf": {"attitude": {"roll": 0.015481983311474323, "pitch": -0.0020120441913604736, "yaw": 0.9885100722312927}, "local_position": {"x": null, "y": null, "z": null}, "status": {"flags": 135, "velocity_variance": 0.0, "pos_horiz_variance": 0.004206405021250248, "pos_vert_variance": 0.011411257088184357}}, "errors": ["PreArm: Hardware safety switch", "PreArm: Hardware safety switch"]}
{"timestamp": "2026-01-24T15:39:34.909298Z", "telemetry": {"lat": 28.7532435, "lon": 77.1178129, "satellites": 6, "altitude_gps_m": 224.6999969482422, "groundspeed_mps": 0.017752833664417267}, "flight": {"mode": "STABILIZE", "armed": false}, "ekf": {"attitude": {"roll": 0.015486530028283596, "pitch": -0.001939285546541214, "yaw": 0.988532543182373}, "local_position": {"x": null, "y": null, "z": null}, "status": {"flags": 135, "velocity_variance": 0.0, "pos_horiz_variance": 0.004345628898590803, "pos_vert_variance": 0.06159535050392151}}, "errors": ["PreArm: Hardware safety switch", "PreArm: Hardware safety switch"]}
{"timestamp": "2026-01-24T15:39:35.908611Z", "telemetry": {"lat": 28.7532473, "lon": 77.1178124, "satellites": 6, "altitude_gps_m": 224.2899932861328, "groundspeed_mps": 0.01659124158322811}, "flight": {"mode": "STABILIZE", "armed": false}, "ekf": {"attitude": {"roll": 0.015417966060340405, "pitch": -0.0019212104380130768, "yaw": 0.9884595274925232}, "local_position": {"x": null, "y": null, "z": null}, "status": {"flags": 135, "velocity_variance": 0.0, "pos_horiz_variance": 0.004632686264812946, "pos_vert_variance": 0.04464568570256233}}, "errors": ["PreArm: Hardware safety switch", "PreArm: Hardware safety switch", "PreArm: Hardware safety switch"]}
{"timestamp": "2026-01-24T15:39:36.907052Z", "telemetry": {"lat": 28.7532512, "lon": 77.1178055, "satellites": 6, "altitude_gps_m": 224.0699920654297, "groundspeed_mps": 0.014304248616099358}, "flight": {"mode": "STABILIZE", "armed": false}, "ekf": {"attitude": {"roll": 0.015468754805624485, "pitch": -0.0018676519393920898, "yaw": 0.9884740710258484}, "local_position": {"x": null, "y": null, "z": null}, "status": {"flags": 135, "velocity_variance": 0.0, "pos_horiz_variance": 0.004518583416938782, "pos_vert_variance": 0.018287189304828644}}, "errors": ["PreArm: Hardware safety switch", "PreArm: Hardware safety switch", "PreArm: Hardware safety switch"]}
{"timestamp": "2026-01-24T15:39:37.907059Z", "telemetry": {"lat": 28.7532533, "lon": 77.1177975, "satellites": 6, "altitude_gps_m": 223.989990234375, "groundspeed_mps": 0.01413035299628973}, "flight": {"mode": "STABILIZE", "armed": false}, "ekf": {"attitude": {"roll": 0.015428111888468266, "pitch": -0.0018922053277492523, "yaw": 0.9885096549987793}, "local_position": {"x": null, "y": null, "z": null}, "status": {"flags": 135, "velocity_variance": 0.0, "pos_horiz_variance": 0.004356654826551676, "pos_vert_variance": 0.06759138405323029}}, "errors": ["PreArm: Hardware safety switch", "PreArm: Hardware safety switch", "PreArm: Hardware safety switch"]}
{"timestamp": "2026-01-24T15:39:38.904096Z", "telemetry": {"lat": 28.7532533, "lon": 77.1177975, "satellites": 6, "altitude_gps_m": 223.989990234375, "groundspeed_mps": 0.01413035299628973}, "flight": {"mode": "STABILIZE", "armed": false}, "ekf": {"attitude": {"roll": 0.015428111888468266, "pitch": -0.0018922053277492523, "yaw": 0.9885096549987793}, "local_position": {"x": null, "y": null, "z": null}, "status": {"flags": 135, "velocity_variance": 0.0, "pos_horiz_variance": 0.004356654826551676, "pos_vert_variance": 0.06759138405323029}}, "errors": ["PreArm: Hardware safety switch", "PreArm: Hardware safety switch", "PreArm: Hardware safety switch"]}
