{"timestamp": "2026-01-23T12:07:57.175764Z", "telemetry": {"lat": 0.0, "lon": 0.0, "satellites": 0, "altitude_gps_m": 0.4399999976158142, "groundspeed_mps": 0.015517610125243664}, "flight": {"mode": "STABILIZE", "armed": false}, "ekf": {"attitude": {"roll": 0.00776197575032711, "pitch": -0.006277129054069519, "yaw": -2.0838632583618164}, "local_position": {"x": null, "y": null, "z": null}, "status": {"flags": 135, "velocity_variance": 0.0, "pos_horiz_variance": 0.0033681963104754686, "pos_vert_variance": 0.055314332246780396}}, "errors": []}
{"timestamp": "2026-01-23T12:07:58.225740Z", "telemetry": {"lat": 0.0, "lon": 0.0, "satellites": 0, "altitude_gps_m": 0.4399999976158142, "groundspeed_mps": 0.018396085128188133}, "flight": {"mode": "STABILIZE", "armed": false}, "ekf": {"attitude": {"roll": 0.0077032847329974174, "pitch": -0.006368383765220642, "yaw": -2.0841822624206543}, "local_position": {"x": null, "y": null, "z": null}, "status": {"flags": 135, "velocity_variance": 0.0, "pos_horiz_variance": 0.003916396759450436, "pos_vert_variance": 0.09323368966579437}}, "errors": []}
{"timestamp": "2026-01-23T12:07:59.275514Z", "telemetry": {"lat": 0.0, "lon": 0.0, "satellites": 0, "altitude_gps_m": 0.4399999976158142, "groundspeed_mps": 0.023347491398453712}, "flight": {"mode": "STABILIZE", "armed": false}, "ekf": {"attitude": {"roll": 0.007620994932949543, "pitch": -0.006465069949626923, "yaw": -2.084488868713379}, "local_position": {"x": null, "y": null, "z": null}, "status": {"flags": 135, "velocity_variance": 0.0, "pos_horiz_variance": 0.004654448479413986, "pos_vert_variance": 0.045481327921152115}}, "errors": []}
{"timestamp": "2026-01-23T12:08:00.323310Z", "telemetry": {"lat": 0.0, "lon": 0.0, "satellites": 0, "altitude_gps_m": 0.4399999976158142, "groundspeed_mps": 0.021891523152589798}, "flight": {"mode": "STABILIZE", "armed": false}, "ekf": {"attitude": {"roll": 0.007631359621882439, "pitch": -0.006438460201025009, "yaw": -2.084761619567871}, "local_position": {"x": null, "y": null, "z": null}, "status": {"flags": 135, "velocity_variance": 0.0, "pos_horiz_variance": 0.0053414758294820786, "pos_vert_variance": 0.08654231578111649}}, "errors": []}
{"timestamp": "2026-01-23T12:08:01.323084Z", "telemetry": {"lat": 0.0, "lon": 0.0, "satellites": 0, "altitude_gps_m": 0.4399999976158142, "groundspeed_mps": 0.018657216802239418}, "flight": {"mode": "STABILIZE", "armed": false}, "ekf": {"attitude": {"roll": 0.007699497975409031, "pitch": -0.006223555654287338, "yaw": -2.0850820541381836}, "local_position": {"x": null, "y": null, "z": null}, "status": {"flags": 135, "velocity_variance": 0.0, "pos_horiz_variance": 0.004908757749944925, "pos_vert_variance": 0.003314436413347721}}, "errors": []}
{"timestamp": "2026-01-23T12:08:02.323318Z", "telemetry": {"lat": 0.0, "lon": 0.0, "satellites": 0, "altitude_gps_m": 0.4399999976158142, "groundspeed_mps": 0.013327852822840214}, "flight": {"mode": "STABILIZE", "armed": false}, "ekf": {"attitude": {"roll": 0.007693860679864883, "pitch": -0.006106611341238022, "yaw": -2.0854761600494385}, "local_position": {"x": null, "y": null, "z": null}, "status": {"flags": 135, "velocity_variance": 0.0, "pos_horiz_variance": 0.004191522020846605, "pos_vert_variance": 0.03237812593579292}}, "errors": []}
{"timestamp": "2026-01-23T12:08:03.322949Z", "telemetry": {"lat": 0.0, "lon": 0.0, "satellites": 0, "altitude_gps_m": 0.4399999976158142, "groundspeed_mps": 0.010917006060481071}, "flight": {"mode": "STABILIZE", "armed": false}, "ekf": {"attitude": {"roll": 0.007423869334161282, "pitch": -0.006106451153755188, "yaw": -2.0856807231903076}, "local_position": {"x": null, "y": null, "z": null}, "status": {"flags": 135, "velocity_variance": 0.0, "pos_horiz_variance": 0.003563500475138426, "pos_vert_variance": 0.04269707575440407}}, "errors": []}
{"timestamp": "2026-01-23T12:08:04.323021Z", "telemetry": {"lat": 0.0, "lon": 0.0, "satellites": 0, "altitude_gps_m": 0.4399999976158142, "groundspeed_mps": 0.012352559715509415}, "flight": {"mode": "STABILIZE", "armed": false}, "ekf": {"attitude": {"roll": 0.007426541298627853, "pitch": -0.0059750862419605255, "yaw": -2.0858848094940186}, "local_position": {"x": null, "y": null, "z": null}, "status": {"flags": 135, "velocity_variance": 0.0, "pos_horiz_variance": 0.0030632468406111, "pos_vert_variance": 0.023832298815250397}}, "errors": []}
{"timestamp": "2026-01-23T12:08:05.323395Z", "telemetry": {"lat": 0.0, "lon": 0.0, "satellites": 0, "altitude_gps_m": 0.4399999976158142, "groundspeed_mps": 0.016777291893959045}, "flight": {"mode": "STABILIZE", "armed": false}, "ekf": {"attitude": {"roll": 0.007343265227973461, "pitch": -0.006187994033098221, "yaw": -2.0861072540283203}, "local_position": {"x": null, "y": null, "z": null}, "status": {"flags": 135, "velocity_variance": 0.0, "pos_horiz_variance": 0.003941700793802738, "pos_vert_variance": 0.014373637735843658}}, "errors": []}
{"timestamp": "2026-01-23T12:08:06.322788Z", "telemetry": {"lat": 0.0, "lon": 0.0, "satellites": 0, "altitude_gps_m": 0.4399999976158142, "groundspeed_mps": 0.015657830983400345}, "flight": {"mode": "STABILIZE", "armed": false}, "ekf": {"attitude": {"roll": 0.0074360789731144905, "pitch": -0.006234645843505859, "yaw": -2.08616304397583}, "local_position": {"x": null, "y": null, "z": null}, "status": {"flags": 135, "velocity_variance": 0.0, "pos_horiz_variance": 0.003865965874865651, "pos_vert_variance": 0.002824260853230953}}, "errors": []}
{"timestamp": "2026-01-23T12:08:07.323093Z", "telemetry": {"lat": 0.0, "lon": 0.0, "satellites": 0, "altitude_gps_m": 0.4399999976158142, "groundspeed_mps": 0.01646243780851364}, "flight": {"mode": "STABILIZE", "armed": false}, "ekf": {"attitude": {"roll": 0.0075041763484478, "pitch": -0.006232749670743942, "yaw": -2.086212635040283}, "local_position": {"x": null, "y": null, "z": null}, "status": {"flags": 135, "velocity_variance": 0.0, "pos_horiz_variance": 0.003420857712626457, "pos_vert_variance": 0.07166950404644012}}, "errors": []}
{"timestamp": "2026-01-23T12:08:08.323293Z", "telemetry": {"lat": 0.0, "lon": 0.0, "satellites": 0, "altitude_gps_m": 0.4399999976158142, "groundspeed_mps": 0.017120705917477608}, "flight": {"mode": "STABILIZE", "armed": false}, "ekf": {"attitude": {"roll": 0.007520335726439953, "pitch": -0.006313733756542206, "yaw": -2.0862603187561035}, "local_position": {"x": null, "y": null, "z": null}, "status": {"flags": 135, "velocity_variance": 0.0, "pos_horiz_variance": 0.0042237648740410805, "pos_vert_variance": 0.0663977712392807}}, "errors": []}
{"timestamp": "2026-01-23T12:08:09.322836Z", "telemetry": {"lat": 0.0, "lon": 0.0, "satellites": 0, "altitude_gps_m": 0.4399999976158142, "groundspeed_mps": 0.020221956074237823}, "flight": {"mode": "STABILIZE", "armed": false}, "ekf": {"attitude": {"roll": 0.007501853629946709, "pitch": -0.006502699106931686, "yaw": -2.086315155029297}, "local_position": {"x": null, "y": null, "z": null}, "status": {"flags": 135, "velocity_variance": 0.0, "pos_horiz_variance": 0.004628208465874195, "pos_vert_variance": 0.040224913507699966}}, "errors": ["PreArm: Hardware safety switch"]}
{"timestamp": "2026-01-23T12:08:10.323333Z", "telemetry": {"lat": 0.0, "lon": 0.0, "satellites": 0, "altitude_gps_m": 0.4399999976158142, "groundspeed_mps": 0.02179042249917984}, "flight": {"mode": "STABILIZE", "armed": false}, "ekf": {"attitude": {"roll": 0.007580102421343327, "pitch": -0.0065668001770973206, "yaw": -2.0865468978881836}, "local_position": {"x": null, "y": null, "z": null}, "status": {"flags": 135, "velocity_variance": 0.0, "pos_horiz_variance": 0.004641637206077576, "pos_vert_variance": 0.05837258696556091}}, "errors": ["PreArm: Hardware safety switch"]}
{"timestamp": "2026-01-23T12:08:11.322731Z", "telemetry": {"lat": 0.0, "lon": 0.0, "satellites": 0, "altitude_gps_m": 0.4399999976158142, "groundspeed_mps": 0.024621739983558655}, "flight": {"mode": "STABILIZE", "armed": false}, "ekf": {"attitude": {"roll": 0.007630904205143452, "pitch": -0.006671395152807236, "yaw": -2.0867886543273926}, "local_position": {"x": null, "y": null, "z": null}, "status": {"flags": 135, "velocity_variance": 0.0, "pos_horiz_variance": 0.005061353091150522, "pos_vert_variance": 0.008562852628529072}}, "errors": ["PreArm: Hardware safety switch"]}
{"timestamp": "2026-01-23T12:08:12.323332Z", "telemetry": {"lat": 0.0, "lon": 0.0, "satellites": 0, "altitude_gps_m": 0.4399999976158142, "groundspeed_mps": 0.029727894812822342}, "flight": {"mode": "STABILIZE", "armed": false}, "ekf": {"attitude": {"roll": 0.007588312029838562, "pitch": -0.006686348468065262, "yaw": -2.0869498252868652}, "local_position": {"x": null, "y": null, "z": null}, "status": {"flags": 135, "velocity_variance": 0.0, "pos_horiz_variance": 0.005918128881603479, "pos_vert_variance": 0.042225174605846405}}, "errors": ["PreArm: Hardware safety switch"]}
{"timestamp": "2026-01-23T12:08:13.323292Z", "telemetry": {"lat": 0.0, "lon": 0.0, "satellites": 0, "altitude_gps_m": 0.4399999976158142, "groundspeed_mps": 0.03065323457121849}, "flight": {"mode": "STABILIZE", "armed": false}, "ekf": {"attitude": {"roll": 0.007430947385728359, "pitch": -0.006658934056758881, "yaw": -2.087162971496582}, "local_position": {"x": null, "y": null, "z": null}, "status": {"flags": 135, "velocity_variance": 0.0, "pos_horiz_variance": 0.006763868033885956, "pos_vert_variance": 0.09022921323776245}}, "errors": ["PreArm: Hardware safety switch"]}
{"timestamp": "2026-01-23T12:08:14.323032Z", "telemetry": {"lat": 0.0, "lon": 0.0, "satellites": 0, "altitude_gps_m": 0.4399999976158142, "groundspeed_mps": 0.02874021790921688}, "flight": {"mode": "STABILIZE", "armed": false}, "ekf": {"attitude": {"roll": 0.007476801052689552, "pitch": -0.00666891410946846, "yaw": -2.087221622467041}, "local_position": {"x": null, "y": null, "z": null}, "status": {"flags": 135, "velocity_variance": 0.0, "pos_horiz_variance": 0.006914508994668722, "pos_vert_variance": 0.015416376292705536}}, "errors": ["PreArm: Hardware safety switch"]}
{"timestamp": "2026-01-23T12:08:15.322685Z", "telemetry": {"lat": 0.0, "lon": 0.0, "satellites": 0, "altitude_gps_m": 0.4399999976158142, "groundspeed_mps": 0.02584378980100155}, "flight": {"mode": "STABILIZE", "armed": false}, "ekf": {"attitude": {"roll": 0.007568812929093838, "pitch": -0.0066274553537368774, "yaw": -2.0873122215270996}, "local_position": {"x": null, "y": null, "z": null}, "status": {"flags": 135, "velocity_variance": 0.0, "pos_horiz_variance": 0.006667652167379856, "pos_vert_variance": 0.06266016513109207}}, "errors": ["PreArm: Hardware safety switch"]}
{"timestamp": "2026-01-23T12:08:16.322862Z", "telemetry": {"lat": 0.0, "lon": 0.0, "satellites": 0, "altitude_gps_m": 0.4399999976158142, "groundspeed_mps": 0.025955088436603546}, "flight": {"mode": "STABILIZE", "armed": false}, "ekf": {"attitude": {"roll": 0.007523408159613609, "pitch": -0.006533488631248474, "yaw": -2.0874133110046387}, "local_position": {"x": null, "y": null, "z": null}, "status": {"flags": 135, "velocity_variance": 0.0, "pos_horiz_variance": 0.0063521103002130985, "pos_vert_variance": 0.03502234071493149}}, "errors": ["PreArm: Hardware safety switch"]}
{"timestamp": "2026-01-23T12:08:17.322548Z", "telemetry": {"lat": 0.0, "lon": 0.0, "satellites": 0, "altitude_gps_m": 0.4399999976158142, "groundspeed_mps": 0.02564283274114132}, "flight": {"mode": "STABILIZE", "armed": false}, "ekf": {"attitude": {"roll": 0.007465970702469349, "pitch": -0.006407454609870911, "yaw": -2.08770751953125}, "local_position": {"x": null, "y": null, "z": null}, "status": {"flags": 135, "velocity_variance": 0.0, "pos_horiz_variance": 0.006726832129061222, "pos_vert_variance": 0.03981156274676323}}, "errors": ["PreArm: Hardware safety switch"]}
{"timestamp": "2026-01-23T12:08:18.322500Z", "telemetry": {"lat": 0.0, "lon": 0.0, "satellites": 0, "altitude_gps_m": 0.4399999976158142, "groundspeed_mps": 0.02309272438287735}, "flight": {"mode": "STABILIZE", "armed": false}, "ekf": {"attitude": {"roll": 0.007511291652917862, "pitch": -0.00627870112657547, "yaw": -2.0877625942230225}, "local_position": {"x": null, "y": null, "z": null}, "status": {"flags": 135, "velocity_variance": 0.0, "pos_horiz_variance": 0.006376432720571756, "pos_vert_variance": 0.03354472294449806}}, "errors": ["PreArm: Hardware safety switch"]}
{"timestamp": "2026-01-23T12:08:19.322580Z", "telemetry": {"lat": 0.0, "lon": 0.0, "satellites": 0, "altitude_gps_m": 0.4399999976158142, "groundspeed_mps": 0.02135414443910122}, "flight": {"mode": "STABILIZE", "armed": false}, "ekf": {"attitude": {"roll": 0.007563579827547073, "pitch": -0.006192386150360107, "yaw": -2.087892532348633}, "local_position": {"x": null, "y": null, "z": null}, "status": {"flags": 135, "velocity_variance": 0.0, "pos_horiz_variance": 0.006055922247469425, "pos_vert_variance": 0.00541265495121479}}, "errors": ["PreArm: Hardware safety switch"]}
{"timestamp": "2026-01-23T12:08:20.323261Z", "telemetry": {"lat": 0.0, "lon": 0.0, "satellites": 0, "altitude_gps_m": 0.4399999976158142, "groundspeed_mps": 0.019124330952763557}, "flight": {"mode": "STABILIZE", "armed": false}, "ekf": {"attitude": {"roll": 0.007513775490224361, "pitch": -0.006136685609817505, "yaw": -2.0881309509277344}, "local_position": {"x": null, "y": null, "z": null}, "status": {"flags": 135, "velocity_variance": 0.0, "pos_horiz_variance": 0.005451046861708164, "pos_vert_variance": 0.028832878917455673}}, "errors": ["PreArm: Hardware safety switch"]}
{"timestamp": "2026-01-23T12:08:21.323004Z", "telemetry": {"lat": 0.0, "lon": 0.0, "satellites": 0, "altitude_gps_m": 0.4399999976158142, "groundspeed_mps": 0.015455486252903938}, "flight": {"mode": "STABILIZE", "armed": false}, "ekf": {"attitude": {"roll": 0.007675721310079098, "pitch": -0.00609191507101059, "yaw": -2.0881519317626953}, "local_position": {"x": null, "y": null, "z": null}, "status": {"flags": 135, "velocity_variance": 0.0, "pos_horiz_variance": 0.004271014593541622, "pos_vert_variance": 0.03033379279077053}}, "errors": ["PreArm: Hardware safety switch"]}
{"timestamp": "2026-01-23T12:08:22.323028Z", "telemetry": {"lat": 0.0, "lon": 0.0, "satellites": 0, "altitude_gps_m": 0.4399999976158142, "groundspeed_mps": 0.01641082763671875}, "flight": {"mode": "STABILIZE", "armed": false}, "ekf": {"attitude": {"roll": 0.007719145156443119, "pitch": -0.006192151457071304, "yaw": -2.0882949829101562}, "local_position": {"x": null, "y": null, "z": null}, "status": {"flags": 135, "velocity_variance": 0.0, "pos_horiz_variance": 0.004123635124415159, "pos_vert_variance": 0.05798875540494919}}, "errors": ["PreArm: Hardware safety switch"]}
{"timestamp": "2026-01-23T12:08:23.323029Z", "telemetry": {"lat": 0.0, "lon": 0.0, "satellites": 0, "altitude_gps_m": 0.4399999976158142, "groundspeed_mps": 0.016687581315636635}, "flight": {"mode": "STABILIZE", "armed": false}, "ekf": {"attitude": {"roll": 0.007683232426643372, "pitch": -0.006116054952144623, "yaw": -2.088435173034668}, "local_position": {"x": null, "y": null, "z": null}, "status": {"flags": 135, "velocity_variance": 0.0, "pos_horiz_variance": 0.0045142341405153275, "pos_vert_variance": 0.04019361361861229}}, "errors": ["PreArm: Hardware safety switch"]}
{"timestamp": "2026-01-23T12:08:24.323253Z", "telemetry": {"lat": 0.0, "lon": 0.0, "satellites": 0, "altitude_gps_m": 0.4399999976158142, "groundspeed_mps": 0.011835523881018162}, "flight": {"mode": "STABILIZE", "armed": false}, "ekf": {"attitude": {"roll": 0.007604232057929039, "pitch": -0.00593142956495285, "yaw": -2.0884957313537598}, "local_position": {"x": null, "y": null, "z": null}, "status": {"flags": 135, "velocity_variance": 0.0, "pos_horiz_variance": 0.0036477195098996162, "pos_vert_variance": 0.031075067818164825}}, "errors": ["PreArm: Hardware safety switch"]}
{"timestamp": "2026-01-23T12:08:25.323145Z", "telemetry": {"lat": 0.0, "lon": 0.0, "satellites": 0, "altitude_gps_m": 0.4399999976158142, "groundspeed_mps": 0.010792109183967113}, "flight": {"mode": "STABILIZE", "armed": false}, "ekf": {"attitude": {"roll": 0.007415018975734711, "pitch": -0.005857124924659729, "yaw": -2.0886783599853516}, "local_position": {"x": null, "y": null, "z": null}, "status": {"flags": 135, "velocity_variance": 0.0, "pos_horiz_variance": 0.003255067393183708, "pos_vert_variance": 0.004303766414523125}}, "errors": ["PreArm: Hardware safety switch"]}
{"timestamp": "2026-01-23T12:08:26.322431Z", "telemetry": {"lat": 0.0, "lon": 0.0, "satellites": 0, "altitude_gps_m": 0.4399999976158142, "groundspeed_mps": 0.009947726503014565}, "flight": {"mode": "STABILIZE", "armed": false}, "ekf": {"attitude": {"roll": 0.007404250092804432, "pitch": -0.005883213132619858, "yaw": -2.0886611938476562}, "local_position": {"x": null, "y": null, "z": null}, "status": {"flags": 135, "velocity_variance": 0.0, "pos_horiz_variance": 0.003144652582705021, "pos_vert_variance": 0.030706273391842842}}, "errors": ["PreArm: Hardware safety switch"]}
{"timestamp": "2026-01-23T12:08:27.322748Z", "telemetry": {"lat": 0.0, "lon": 0.0, "satellites": 0, "altitude_gps_m": 0.4399999976158142, "groundspeed_mps": 0.009922533296048641}, "flight": {"mode": "STABILIZE", "armed": false}, "ekf": {"attitude": {"roll": 0.007529710419476032, "pitch": -0.005916416645050049, "yaw": -2.0889596939086914}, "local_position": {"x": null, "y": null, "z": null}, "status": {"flags": 135, "velocity_variance": 0.0, "pos_horiz_variance": 0.0022262325510382652, "pos_vert_variance": 0.014251548796892166}}, "errors": ["PreArm: Hardware safety switch"]}
{"timestamp": "2026-01-23T12:08:28.322587Z", "telemetry": {"lat": 0.0, "lon": 0.0, "satellites": 0, "altitude_gps_m": 0.4399999976158142, "groundspeed_mps": 0.01257285475730896}, "flight": {"mode": "STABILIZE", "armed": false}, "ekf": {"attitude": {"roll": 0.007389494217932224, "pitch": -0.005829930305480957, "yaw": -2.0891997814178467}, "local_position": {"x": null, "y": null, "z": null}, "status": {"flags": 135, "velocity_variance": 0.0, "pos_horiz_variance": 0.00245163356885314, "pos_vert_variance": 0.01949305459856987}}, "errors": ["PreArm: Hardware safety switch"]}
{"timestamp": "2026-01-23T12:08:29.323279Z", "telemetry": {"lat": 0.0, "lon": 0.0, "satellites": 0, "altitude_gps_m": 0.4399999976158142, "groundspeed_mps": 0.013865959830582142}, "flight": {"mode": "STABILIZE", "armed": false}, "ekf": {"attitude": {"roll": 0.0073668332770466805, "pitch": -0.005897533148527145, "yaw": -2.089387893676758}, "local_position": {"x": null, "y": null, "z": null}, "status": {"flags": 135, "velocity_variance": 0.0, "pos_horiz_variance": 0.003152403747662902, "pos_vert_variance": 0.016690539196133614}}, "errors": ["PreArm: Hardware safety switch"]}
{"timestamp": "2026-01-23T12:08:30.322444Z", "telemetry": {"lat": 0.0, "lon": 0.0, "satellites": 0, "altitude_gps_m": 0.4399999976158142, "groundspeed_mps": 0.01247501652687788}, "flight": {"mode": "STABILIZE", "armed": false}, "ekf": {"attitude": {"roll": 0.007377910427749157, "pitch": -0.005754020065069199, "yaw": -2.089423179626465}, "local_position": {"x": null, "y": null, "z": null}, "status": {"flags": 135, "velocity_variance": 0.0, "pos_horiz_variance": 0.0030567829962819815, "pos_vert_variance": 0.06870684027671814}}, "errors": ["PreArm: Hardware safety switch"]}
{"timestamp": "2026-01-23T12:08:31.323429Z", "telemetry": {"lat": 0.0, "lon": 0.0, "satellites": 0, "altitude_gps_m": 0.4399999976158142, "groundspeed_mps": 0.011264587752521038}, "flight": {"mode": "STABILIZE", "armed": false}, "ekf": {"attitude": {"roll": 0.00733844842761755, "pitch": -0.005656484514474869, "yaw": -2.0893988609313965}, "local_position": {"x": null, "y": null, "z": null}, "status": {"flags": 135, "velocity_variance": 0.0, "pos_horiz_variance": 0.003073730506002903, "pos_vert_variance": 0.04725188389420509}}, "errors": ["PreArm: Hardware safety switch"]}
{"timestamp": "2026-01-23T12:08:32.322775Z", "telemetry": {"lat": 0.0, "lon": 0.0, "satellites": 0, "altitude_gps_m": 0.4399999976158142, "groundspeed_mps": 0.009921393357217312}, "flight": {"mode": "STABILIZE", "armed": false}, "ekf": {"attitude": {"roll": 0.0072184279561042786, "pitch": -0.005589142441749573, "yaw": -2.08949613571167}, "local_position": {"x": null, "y": null, "z": null}, "status": {"flags": 135, "velocity_variance": 0.0, "pos_horiz_variance": 0.0024310494773089886, "pos_vert_variance": 0.09294015914201736}}, "errors": ["PreArm: Hardware safety switch"]}
{"timestamp": "2026-01-23T12:08:33.322939Z", "telemetry": {"lat": 0.0, "lon": 0.0, "satellites": 0, "altitude_gps_m": 0.4399999976158142, "groundspeed_mps": 0.009943820536136627}, "flight": {"mode": "STABILIZE", "armed": false}, "ekf": {"attitude": {"roll": 0.007082276977598667, "pitch": -0.005600795149803162, "yaw": -2.0894360542297363}, "local_position": {"x": null, "y": null, "z": null}, "status": {"flags": 135, "velocity_variance": 0.0, "pos_horiz_variance": 0.002599286613985896, "pos_vert_variance": 0.06936696171760559}}, "errors": ["PreArm: Hardware safety switch"]}
{"timestamp": "2026-01-23T12:08:34.323186Z", "telemetry": {"lat": 0.0, "lon": 0.0, "satellites": 0, "altitude_gps_m": 0.4399999976158142, "groundspeed_mps": 0.015051031485199928}, "flight": {"mode": "STABILIZE", "armed": false}, "ekf": {"attitude": {"roll": 0.006896844133734703, "pitch": -0.005551692098379135, "yaw": -2.0893263816833496}, "local_position": {"x": null, "y": null, "z": null}, "status": {"flags": 135, "velocity_variance": 0.0, "pos_horiz_variance": 0.0029410843271762133, "pos_vert_variance": 0.014920627698302269}}, "errors": ["PreArm: Hardware safety switch"]}
{"timestamp": "2026-01-23T12:08:35.323361Z", "telemetry": {"lat": 0.0, "lon": 0.0, "satellites": 0, "altitude_gps_m": 0.4399999976158142, "groundspeed_mps": 0.01622956246137619}, "flight": {"mode": "STABILIZE", "armed": false}, "ekf": {"attitude": {"roll": 0.006708577275276184, "pitch": -0.00535467267036438, "yaw": -2.0892014503479004}, "local_position": {"x": null, "y": null, "z": null}, "status": {"flags": 135, "velocity_variance": 0.0, "pos_horiz_variance": 0.0035070041194558144, "pos_vert_variance": 0.031050393357872963}}, "errors": ["PreArm: Hardware safety switch"]}
{"timestamp": "2026-01-23T12:08:36.323335Z", "telemetry": {"lat": 0.0, "lon": 0.0, "satellites": 0, "altitude_gps_m": 0.4399999976158142, "groundspeed_mps": 0.017127418890595436}, "flight": {"mode": "STABILIZE", "armed": false}, "ekf": {"attitude": {"roll": 0.006645035929977894, "pitch": -0.005327429622411728, "yaw": -2.0893683433532715}, "local_position": {"x": null, "y": null, "z": null}, "status": {"flags": 135, "velocity_variance": 0.0, "pos_horiz_variance": 0.003639218397438526, "pos_vert_variance": 0.04103716090321541}}, "errors": ["PreArm: Hardware safety switch"]}
{"timestamp": "2026-01-23T12:08:37.322700Z", "telemetry": {"lat": 0.0, "lon": 0.0, "satellites": 0, "altitude_gps_m": 0.4399999976158142, "groundspeed_mps": 0.018250126391649246}, "flight": {"mode": "STABILIZE", "armed": false}, "ekf": {"attitude": {"roll": 0.006661976687610149, "pitch": -0.005317676812410355, "yaw": -2.0894179344177246}, "local_position": {"x": null, "y": null, "z": null}, "status": {"flags": 135, "velocity_variance": 0.0, "pos_horiz_variance": 0.0035510791931301355, "pos_vert_variance": 0.058118004351854324}}, "errors": ["PreArm: Hardware safety switch"]}
{"timestamp": "2026-01-23T12:08:38.322487Z", "telemetry": {"lat": 0.0, "lon": 0.0, "satellites": 0, "altitude_gps_m": 0.4399999976158142, "groundspeed_mps": 0.019867049530148506}, "flight": {"mode": "STABILIZE", "armed": false}, "ekf": {"attitude": {"roll": 0.006771155633032322, "pitch": -0.005396008491516113, "yaw": -2.0893445014953613}, "local_position": {"x": null, "y": null, "z": null}, "status": {"flags": 135, "velocity_variance": 0.0, "pos_horiz_variance": 0.004254372324794531, "pos_vert_variance": 0.020183103159070015}}, "errors": ["PreArm: Hardware safety switch"]}
{"timestamp": "2026-01-23T12:08:39.322568Z", "telemetry": {"lat": 0.0, "lon": 0.0, "satellites": 0, "altitude_gps_m": 0.4399999976158142, "groundspeed_mps": 0.01850060373544693}, "flight": {"mode": "STABILIZE", "armed": false}, "ekf": {"attitude": {"roll": 0.006767398677766323, "pitch": -0.005488459020853043, "yaw": -2.0892937183380127}, "local_position": {"x": null, "y": null, "z": null}, "status": {"flags": 135, "velocity_variance": 0.0, "pos_horiz_variance": 0.00452733738347888, "pos_vert_variance": 0.05191665515303612}}, "errors": ["PreArm: Hardware safety switch"]}
{"timestamp": "2026-01-23T12:08:40.323064Z", "telemetry": {"lat": 0.0, "lon": 0.0, "satellites": 0, "altitude_gps_m": 0.4399999976158142, "groundspeed_mps": 0.01586003229022026}, "flight": {"mode": "STABILIZE", "armed": false}, "ekf": {"attitude": {"roll": 0.006852438673377037, "pitch": -0.00560896098613739, "yaw": -2.0891971588134766}, "local_position": {"x": null, "y": null, "z": null}, "status": {"flags": 135, "velocity_variance": 0.0, "pos_horiz_variance": 0.004008593037724495, "pos_vert_variance": 0.0035321800969541073}}, "errors": ["PreArm: Hardware safety switch", "PreArm: Hardware safety switch"]}
{"timestamp": "2026-01-23T12:08:41.323466Z", "telemetry": {"lat": 0.0, "lon": 0.0, "satellites": 0, "altitude_gps_m": 0.4399999976158142, "groundspeed_mps": 0.0155919399112463}, "flight": {"mode": "STABILIZE", "armed": false}, "ekf": {"attitude": {"roll": 0.007019086740911007, "pitch": -0.005672920495271683, "yaw": -2.089069366455078}, "local_position": {"x": null, "y": null, "z": null}, "status": {"flags": 135, "velocity_variance": 0.0, "pos_horiz_variance": 0.003361782990396023, "pos_vert_variance": 0.04508471116423607}}, "errors": ["PreArm: Hardware safety switch", "PreArm: Hardware safety switch"]}
{"timestamp": "2026-01-23T12:08:42.322564Z", "telemetry": {"lat": 0.0, "lon": 0.0, "satellites": 0, "altitude_gps_m": 0.4399999976158142, "groundspeed_mps": 0.018138336017727852}, "flight": {"mode": "STABILIZE", "armed": false}, "ekf": {"attitude": {"roll": 0.007050305604934692, "pitch": -0.005897995084524155, "yaw": -2.089369297027588}, "local_position": {"x": null, "y": null, "z": null}, "status": {"flags": 135, "velocity_variance": 0.0, "pos_horiz_variance": 0.003914215136319399, "pos_vert_variance": 0.0010008033132180572}}, "errors": ["PreArm: Hardware safety switch", "PreArm: Hardware safety switch"]}
{"timestamp": "2026-01-23T12:08:43.322885Z", "telemetry": {"lat": 0.0, "lon": 0.0, "satellites": 0, "altitude_gps_m": 0.4399999976158142, "groundspeed_mps": 0.019632786512374878}, "flight": {"mode": "STABILIZE", "armed": false}, "ekf": {"attitude": {"roll": 0.007253044284880161, "pitch": -0.006048288196325302, "yaw": -2.089460611343384}, "local_position": {"x": null, "y": null, "z": null}, "status": {"flags": 135, "velocity_variance": 0.0, "pos_horiz_variance": 0.0045036375522613525, "pos_vert_variance": 0.07952287048101425}}, "errors": ["PreArm: Hardware safety switch", "PreArm: Hardware safety switch"]}
{"timestamp": "2026-01-23T12:08:44.322648Z", "telemetry": {"lat": 0.0, "lon": 0.0, "satellites": 0, "altitude_gps_m": 0.4399999976158142, "groundspeed_mps": 0.01619075983762741}, "flight": {"mode": "STABILIZE", "armed": false}, "ekf": {"attitude": {"roll": 0.007404527626931667, "pitch": -0.005899813026189804, "yaw": -2.0894060134887695}, "local_position": {"x": null, "y": null, "z": null}, "status": {"flags": 135, "velocity_variance": 0.0, "pos_horiz_variance": 0.003653603373095393, "pos_vert_variance": 0.01807180419564247}}, "errors": ["PreArm: Hardware safety switch", "PreArm: Hardware safety switch"]}
{"timestamp": "2026-01-23T12:08:45.323133Z", "telemetry": {"lat": 0.0, "lon": 0.0, "satellites": 0, "altitude_gps_m": 0.4399999976158142, "groundspeed_mps": 0.01649271883070469}, "flight": {"mode": "STABILIZE", "armed": false}, "ekf": {"attitude": {"roll": 0.007355189882218838, "pitch": -0.006038740277290344, "yaw": -2.089498519897461}, "local_position": {"x": null, "y": null, "z": null}, "status": {"flags": 135, "velocity_variance": 0.0, "pos_horiz_variance": 0.003769299015402794, "pos_vert_variance": 0.015489386394619942}}, "errors": ["PreArm: Hardware safety switch", "PreArm: Hardware safety switch"]}
{"timestamp": "2026-01-23T12:08:46.323457Z", "telemetry": {"lat": 0.0, "lon": 0.0, "satellites": 0, "altitude_gps_m": 0.4399999976158142, "groundspeed_mps": 0.019116738811135292}, "flight": {"mode": "STABILIZE", "armed": false}, "ekf": {"attitude": {"roll": 0.00739213265478611, "pitch": -0.00614909827709198, "yaw": -2.089503288269043}, "local_position": {"x": null, "y": null, "z": null}, "status": {"flags": 135, "velocity_variance": 0.0, "pos_horiz_variance": 0.004167228005826473, "pos_vert_variance": 0.01775716245174408}}, "errors": ["PreArm: Hardware safety switch", "PreArm: Hardware safety switch"]}
{"timestamp": "2026-01-23T12:08:47.323073Z", "telemetry": {"lat": 0.0, "lon": 0.0, "satellites": 0, "altitude_gps_m": 0.4399999976158142, "groundspeed_mps": 0.02092081308364868}, "flight": {"mode": "STABILIZE", "armed": false}, "ekf": {"attitude": {"roll": 0.007228131406009197, "pitch": -0.0060873813927173615, "yaw": -2.089421510696411}, "local_position": {"x": null, "y": null, "z": null}, "status": {"flags": 135, "velocity_variance": 0.0, "pos_horiz_variance": 0.004600635264068842, "pos_vert_variance": 0.05675681680440903}}, "errors": ["PreArm: Hardware safety switch", "PreArm: Hardware safety switch"]}
{"timestamp": "2026-01-23T12:08:48.323117Z", "telemetry": {"lat": 0.0, "lon": 0.0, "satellites": 0, "altitude_gps_m": 0.4399999976158142, "groundspeed_mps": 0.019054649397730827}, "flight": {"mode": "STABILIZE", "armed": false}, "ekf": {"attitude": {"roll": 0.007219718769192696, "pitch": -0.006077554076910019, "yaw": -2.089378833770752}, "local_position": {"x": null, "y": null, "z": null}, "status": {"flags": 135, "velocity_variance": 0.0, "pos_horiz_variance": 0.004786842968314886, "pos_vert_variance": 0.09331022202968597}}, "errors": ["PreArm: Hardware safety switch", "PreArm: Hardware safety switch"]}
{"timestamp": "2026-01-23T12:08:49.322634Z", "telemetry": {"lat": 0.0, "lon": 0.0, "satellites": 0, "altitude_gps_m": 0.4399999976158142, "groundspeed_mps": 0.01682065986096859}, "flight": {"mode": "STABILIZE", "armed": false}, "ekf": {"attitude": {"roll": 0.007386765442788601, "pitch": -0.006026759743690491, "yaw": -2.089299201965332}, "local_position": {"x": null, "y": null, "z": null}, "status": {"flags": 135, "velocity_variance": 0.0, "pos_horiz_variance": 0.004567329306155443, "pos_vert_variance": 0.009074185974895954}}, "errors": ["PreArm: Hardware safety switch", "PreArm: Hardware safety switch"]}
{"timestamp": "2026-01-23T12:08:50.323440Z", "telemetry": {"lat": 0.0, "lon": 0.0, "satellites": 0, "altitude_gps_m": 0.4399999976158142, "groundspeed_mps": 0.01659458875656128}, "flight": {"mode": "STABILIZE", "armed": false}, "ekf": {"attitude": {"roll": 0.0074094319716095924, "pitch": -0.006013989448547363, "yaw": -2.0892696380615234}, "local_position": {"x": null, "y": null, "z": null}, "status": {"flags": 135, "velocity_variance": 0.0, "pos_horiz_variance": 0.004480038303881884, "pos_vert_variance": 0.04315304756164551}}, "errors": ["PreArm: Hardware safety switch", "PreArm: Hardware safety switch"]}
{"timestamp": "2026-01-23T12:08:51.323191Z", "telemetry": {"lat": 0.0, "lon": 0.0, "satellites": 0, "altitude_gps_m": 0.4399999976158142, "groundspeed_mps": 0.01539392676204443}, "flight": {"mode": "STABILIZE", "armed": false}, "ekf": {"attitude": {"roll": 0.007388663478195667, "pitch": -0.006075095385313034, "yaw": -2.0892326831817627}, "local_position": {"x": null, "y": null, "z": null}, "status": {"flags": 135, "velocity_variance": 0.0, "pos_horiz_variance": 0.0038688289932906628, "pos_vert_variance": 0.11012158542871475}}, "errors": ["PreArm: Hardware safety switch", "PreArm: Hardware safety switch"]}
{"timestamp": "2026-01-23T12:08:52.322927Z", "telemetry": {"lat": 0.0, "lon": 0.0, "satellites": 0, "altitude_gps_m": 0.4399999976158142, "groundspeed_mps": 0.01592022366821766}, "flight": {"mode": "STABILIZE", "armed": false}, "ekf": {"attitude": {"roll": 0.007453524507582188, "pitch": -0.0060855187475681305, "yaw": -2.089397430419922}, "local_position": {"x": null, "y": null, "z": null}, "status": {"flags": 135, "velocity_variance": 0.0, "pos_horiz_variance": 0.003891158150509, "pos_vert_variance": 0.0720023512840271}}, "errors": ["PreArm: Hardware safety switch", "PreArm: Hardware safety switch"]}
{"timestamp": "2026-01-23T12:08:53.324623Z", "telemetry": {"lat": 0.0, "lon": 0.0, "satellites": 0, "altitude_gps_m": 0.4399999976158142, "groundspeed_mps": 0.015015676617622375}, "flight": {"mode": "STABILIZE", "armed": false}, "ekf": {"attitude": {"roll": 0.007549923844635487, "pitch": -0.0061238594353199005, "yaw": -2.0893778800964355}, "local_position": {"x": null, "y": null, "z": null}, "status": {"flags": 135, "velocity_variance": 0.0, "pos_horiz_variance": 0.0038942161481827497, "pos_vert_variance": 0.07218753546476364}}, "errors": ["PreArm: Hardware safety switch", "PreArm: Hardware safety switch"]}
{"timestamp": "2026-01-23T12:08:54.322809Z", "telemetry": {"lat": 0.0, "lon": 0.0, "satellites": 0, "altitude_gps_m": 0.4399999976158142, "groundspeed_mps": 0.017803460359573364}, "flight": {"mode": "STABILIZE", "armed": false}, "ekf": {"attitude": {"roll": 0.007631825283169746, "pitch": -0.006160777062177658, "yaw": -2.089451313018799}, "local_position": {"x": null, "y": null, "z": null}, "status": {"flags": 135, "velocity_variance": 0.0, "pos_horiz_variance": 0.0037357753608375788, "pos_vert_variance": 0.010843180119991302}}, "errors": ["PreArm: Hardware safety switch", "PreArm: Hardware safety switch"]}
{"timestamp": "2026-01-23T12:08:55.322684Z", "telemetry": {"lat": 0.0, "lon": 0.0, "satellites": 0, "altitude_gps_m": 0.4399999976158142, "groundspeed_mps": 0.01830385997891426}, "flight": {"mode": "STABILIZE", "armed": false}, "ekf": {"attitude": {"roll": 0.007781061343848705, "pitch": -0.006231293082237244, "yaw": -2.0897700786590576}, "local_position": {"x": null, "y": null, "z": null}, "status": {"flags": 135, "velocity_variance": 0.0, "pos_horiz_variance": 0.004189156461507082, "pos_vert_variance": 0.04317786172032356}}, "errors": ["PreArm: Hardware safety switch", "PreArm: Hardware safety switch"]}
{"timestamp": "2026-01-23T12:08:56.323281Z", "telemetry": {"lat": 0.0, "lon": 0.0, "satellites": 0, "altitude_gps_m": 0.4399999976158142, "groundspeed_mps": 0.020457228645682335}, "flight": {"mode": "STABILIZE", "armed": false}, "ekf": {"attitude": {"roll": 0.007784487679600716, "pitch": -0.006224010139703751, "yaw": -2.090017795562744}, "local_position": {"x": null, "y": null, "z": null}, "status": {"flags": 135, "velocity_variance": 0.0, "pos_horiz_variance": 0.004529979079961777, "pos_vert_variance": 0.037204671651124954}}, "errors": ["PreArm: Hardware safety switch", "PreArm: Hardware safety switch"]}
{"timestamp": "2026-01-23T12:08:57.322541Z", "telemetry": {"lat": 0.0, "lon": 0.0, "satellites": 0, "altitude_gps_m": 0.4399999976158142, "groundspeed_mps": 0.018817808479070663}, "flight": {"mode": "STABILIZE", "armed": false}, "ekf": {"attitude": {"roll": 0.007740468718111515, "pitch": -0.006174657493829727, "yaw": -2.0902609825134277}, "local_position": {"x": null, "y": null, "z": null}, "status": {"flags": 135, "velocity_variance": 0.0, "pos_horiz_variance": 0.004751342814415693, "pos_vert_variance": 0.08450611680746078}}, "errors": ["PreArm: Hardware safety switch", "PreArm: Hardware safety switch"]}
{"timestamp": "2026-01-23T12:08:58.322859Z", "telemetry": {"lat": 0.0, "lon": 0.0, "satellites": 0, "altitude_gps_m": 0.4399999976158142, "groundspeed_mps": 0.016267020255327225}, "flight": {"mode": "STABILIZE", "armed": false}, "ekf": {"attitude": {"roll": 0.007902339100837708, "pitch": -0.0060907937586307526, "yaw": -2.090400218963623}, "local_position": {"x": null, "y": null, "z": null}, "status": {"flags": 135, "velocity_variance": 0.0, "pos_horiz_variance": 0.004269820638000965, "pos_vert_variance": 0.08775943517684937}}, "errors": ["PreArm: Hardware safety switch", "PreArm: Hardware safety switch"]}
{"timestamp": "2026-01-23T12:08:59.323118Z", "telemetry": {"lat": 0.0, "lon": 0.0, "satellites": 0, "altitude_gps_m": 0.4399999976158142, "groundspeed_mps": 0.015946868807077408}, "flight": {"mode": "STABILIZE", "armed": false}, "ekf": {"attitude": {"roll": 0.007800064980983734, "pitch": -0.006263706833124161, "yaw": -2.0904486179351807}, "local_position": {"x": null, "y": null, "z": null}, "status": {"flags": 135, "velocity_variance": 0.0, "pos_horiz_variance": 0.00400247797369957, "pos_vert_variance": 0.0720994621515274}}, "errors": ["PreArm: Hardware safety switch", "PreArm: Hardware safety switch"]}
{"timestamp": "2026-01-23T12:09:00.322740Z", "telemetry": {"lat": 0.0, "lon": 0.0, "satellites": 0, "altitude_gps_m": 0.4399999976158142, "groundspeed_mps": 0.01468909066170454}, "flight": {"mode": "STABILIZE", "armed": false}, "ekf": {"attitude": {"roll": 0.00779582466930151, "pitch": -0.00627768412232399, "yaw": -2.0905067920684814}, "local_position": {"x": null, "y": null, "z": null}, "status": {"flags": 135, "velocity_variance": 0.0, "pos_horiz_variance": 0.003857806557789445, "pos_vert_variance": 0.014811032451689243}}, "errors": ["PreArm: Hardware safety switch", "PreArm: Hardware safety switch"]}
{"timestamp": "2026-01-23T12:09:01.322475Z", "telemetry": {"lat": 0.0, "lon": 0.0, "satellites": 0, "altitude_gps_m": 0.4399999976158142, "groundspeed_mps": 0.018763164058327675}, "flight": {"mode": "STABILIZE", "armed": false}, "ekf": {"attitude": {"roll": 0.0076600974425673485, "pitch": -0.006486382335424423, "yaw": -2.0905280113220215}, "local_position": {"x": null, "y": null, "z": null}, "status": {"flags": 135, "velocity_variance": 0.0, "pos_horiz_variance": 0.003980507608503103, "pos_vert_variance": 0.0050829011015594006}}, "errors": ["PreArm: Hardware safety switch", "PreArm: Hardware safety switch"]}
{"timestamp": "2026-01-23T12:09:02.322918Z", "telemetry": {"lat": 0.0, "lon": 0.0, "satellites": 0, "altitude_gps_m": 0.4399999976158142, "groundspeed_mps": 0.024269554764032364}, "flight": {"mode": "STABILIZE", "armed": false}, "ekf": {"attitude": {"roll": 0.007586035877466202, "pitch": -0.006528876721858978, "yaw": -2.0904297828674316}, "local_position": {"x": null, "y": null, "z": null}, "status": {"flags": 135, "velocity_variance": 0.0, "pos_horiz_variance": 0.004850548692047596, "pos_vert_variance": 0.017691807821393013}}, "errors": ["PreArm: Hardware safety switch", "PreArm: Hardware safety switch"]}
{"timestamp": "2026-01-23T12:09:03.322649Z", "telemetry": {"lat": 0.0, "lon": 0.0, "satellites": 0, "altitude_gps_m": 0.4399999976158142, "groundspeed_mps": 0.02546629123389721}, "flight": {"mode": "STABILIZE", "armed": false}, "ekf": {"attitude": {"roll": 0.007540225051343441, "pitch": -0.006375752389431, "yaw": -2.0906386375427246}, "local_position": {"x": null, "y": null, "z": null}, "status": {"flags": 135, "velocity_variance": 0.0, "pos_horiz_variance": 0.005435764789581299, "pos_vert_variance": 0.0019253386417403817}}, "errors": ["PreArm: Hardware safety switch", "PreArm: Hardware safety switch"]}
{"timestamp": "2026-01-23T12:09:04.323049Z", "telemetry": {"lat": 0.0, "lon": 0.0, "satellites": 0, "altitude_gps_m": 0.4399999976158142, "groundspeed_mps": 0.024385899305343628}, "flight": {"mode": "STABILIZE", "armed": false}, "ekf": {"attitude": {"roll": 0.0075510116294026375, "pitch": -0.006296753883361816, "yaw": -2.0907740592956543}, "local_position": {"x": null, "y": null, "z": null}, "status": {"flags": 135, "velocity_variance": 0.0, "pos_horiz_variance": 0.005808800924569368, "pos_vert_variance": 0.007357745431363583}}, "errors": ["PreArm: Hardware safety switch", "PreArm: Hardware safety switch"]}
{"timestamp": "2026-01-23T12:09:05.322976Z", "telemetry": {"lat": 0.0, "lon": 0.0, "satellites": 0, "altitude_gps_m": 0.4399999976158142, "groundspeed_mps": 0.02465159073472023}, "flight": {"mode": "STABILIZE", "armed": false}, "ekf": {"attitude": {"roll": 0.007560175843536854, "pitch": -0.006292570382356644, "yaw": -2.0908799171447754}, "local_position": {"x": null, "y": null, "z": null}, "status": {"flags": 135, "velocity_variance": 0.0, "pos_horiz_variance": 0.006350367330014706, "pos_vert_variance": 0.03499608114361763}}, "errors": ["PreArm: Hardware safety switch", "PreArm: Hardware safety switch"]}
{"timestamp": "2026-01-23T12:09:06.322402Z", "telemetry": {"lat": 0.0, "lon": 0.0, "satellites": 0, "altitude_gps_m": 0.4399999976158142, "groundspeed_mps": 0.02017374522984028}, "flight": {"mode": "STABILIZE", "armed": false}, "ekf": {"attitude": {"roll": 0.007552327588200569, "pitch": -0.006201125681400299, "yaw": -2.090864419937134}, "local_position": {"x": null, "y": null, "z": null}, "status": {"flags": 135, "velocity_variance": 0.0, "pos_horiz_variance": 0.005836328957229853, "pos_vert_variance": 0.06558758020401001}}, "errors": ["PreArm: Hardware safety switch", "PreArm: Hardware safety switch"]}
{"timestamp": "2026-01-23T12:09:07.322955Z", "telemetry": {"lat": 0.0, "lon": 0.0, "satellites": 0, "altitude_gps_m": 0.4399999976158142, "groundspeed_mps": 0.020429853349924088}, "flight": {"mode": "STABILIZE", "armed": false}, "ekf": {"attitude": {"roll": 0.0074524302035570145, "pitch": -0.006246946752071381, "yaw": -2.090877056121826}, "local_position": {"x": null, "y": null, "z": null}, "status": {"flags": 135, "velocity_variance": 0.0, "pos_horiz_variance": 0.005322474520653486, "pos_vert_variance": 0.01863144524395466}}, "errors": ["PreArm: Hardware safety switch", "PreArm: Hardware safety switch"]}
{"timestamp": "2026-01-23T12:09:08.322995Z", "telemetry": {"lat": 0.0, "lon": 0.0, "satellites": 0, "altitude_gps_m": 0.4399999976158142, "groundspeed_mps": 0.0176919586956501}, "flight": {"mode": "STABILIZE", "armed": false}, "ekf": {"attitude": {"roll": 0.0075400834903120995, "pitch": -0.006202254444360733, "yaw": -2.090968132019043}, "local_position": {"x": null, "y": null, "z": null}, "status": {"flags": 135, "velocity_variance": 0.0, "pos_horiz_variance": 0.004803000018000603, "pos_vert_variance": 0.0761866495013237}}, "errors": ["PreArm: Hardware safety switch", "PreArm: Hardware safety switch"]}
{"timestamp": "2026-01-23T12:09:09.322640Z", "telemetry": {"lat": 0.0, "lon": 0.0, "satellites": 0, "altitude_gps_m": 0.4399999976158142, "groundspeed_mps": 0.019971178844571114}, "flight": {"mode": "STABILIZE", "armed": false}, "ekf": {"attitude": {"roll": 0.0073972344398498535, "pitch": -0.00637470930814743, "yaw": -2.091200828552246}, "local_position": {"x": null, "y": null, "z": null}, "status": {"flags": 135, "velocity_variance": 0.0, "pos_horiz_variance": 0.00487991189584136, "pos_vert_variance": 0.0033013857901096344}}, "errors": ["PreArm: Hardware safety switch", "PreArm: Hardware safety switch"]}
{"timestamp": "2026-01-23T12:09:10.322779Z", "telemetry": {"lat": 0.0, "lon": 0.0, "satellites": 0, "altitude_gps_m": 0.4399999976158142, "groundspeed_mps": 0.022930221632122993}, "flight": {"mode": "STABILIZE", "armed": false}, "ekf": {"attitude": {"roll": 0.007552948780357838, "pitch": -0.00639738142490387, "yaw": -2.0912344455718994}, "local_position": {"x": null, "y": null, "z": null}, "status": {"flags": 135, "velocity_variance": 0.0, "pos_horiz_variance": 0.005228753667324781, "pos_vert_variance": 0.05637062340974808}}, "errors": ["PreArm: Hardware safety switch", "PreArm: Hardware safety switch"]}
{"timestamp": "2026-01-23T12:09:11.323373Z", "telemetry": {"lat": 0.0, "lon": 0.0, "satellites": 0, "altitude_gps_m": 0.4399999976158142, "groundspeed_mps": 0.023637929931282997}, "flight": {"mode": "STABILIZE", "armed": false}, "ekf": {"attitude": {"roll": 0.007752244360744953, "pitch": -0.0064674727618694305, "yaw": -2.0914132595062256}, "local_position": {"x": null, "y": null, "z": null}, "status": {"flags": 135, "velocity_variance": 0.0, "pos_horiz_variance": 0.005289984401315451, "pos_vert_variance": 0.01901891641318798}}, "errors": ["PreArm: Hardware safety switch", "PreArm: Hardware safety switch", "PreArm: Hardware safety switch"]}
{"timestamp": "2026-01-23T12:09:12.322904Z", "telemetry": {"lat": 0.0, "lon": 0.0, "satellites": 0, "altitude_gps_m": 0.4399999976158142, "groundspeed_mps": 0.021661804988980293}, "flight": {"mode": "STABILIZE", "armed": false}, "ekf": {"attitude": {"roll": 0.007852206006646156, "pitch": -0.0064210183918476105, "yaw": -2.0916225910186768}, "local_position": {"x": null, "y": null, "z": null}, "status": {"flags": 135, "velocity_variance": 0.0, "pos_horiz_variance": 0.005530710332095623, "pos_vert_variance": 0.07397816330194473}}, "errors": ["PreArm: Hardware safety switch", "PreArm: Hardware safety switch", "PreArm: Hardware safety switch"]}
{"timestamp": "2026-01-23T12:09:13.322383Z", "telemetry": {"lat": 0.0, "lon": 0.0, "satellites": 0, "altitude_gps_m": 0.4399999976158142, "groundspeed_mps": 0.02186768874526024}, "flight": {"mode": "STABILIZE", "armed": false}, "ekf": {"attitude": {"roll": 0.007952558808028698, "pitch": -0.006260935217142105, "yaw": -2.091653347015381}, "local_position": {"x": null, "y": null, "z": null}, "status": {"flags": 135, "velocity_variance": 0.0, "pos_horiz_variance": 0.005265894811600447, "pos_vert_variance": 0.09096843749284744}}, "errors": ["PreArm: Hardware safety switch", "PreArm: Hardware safety switch", "PreArm: Hardware safety switch"]}
{"timestamp": "2026-01-23T12:09:14.322596Z", "telemetry": {"lat": 0.0, "lon": 0.0, "satellites": 0, "altitude_gps_m": 0.4399999976158142, "groundspeed_mps": 0.020534344017505646}, "flight": {"mode": "STABILIZE", "armed": false}, "ekf": {"attitude": {"roll": 0.007884528487920761, "pitch": -0.0062688179314136505, "yaw": -2.0915937423706055}, "local_position": {"x": null, "y": null, "z": null}, "status": {"flags": 135, "velocity_variance": 0.0, "pos_horiz_variance": 0.005397355183959007, "pos_vert_variance": 0.004275056999176741}}, "errors": ["PreArm: Hardware safety switch", "PreArm: Hardware safety switch", "PreArm: Hardware safety switch"]}
{"timestamp": "2026-01-23T12:09:15.322648Z", "telemetry": {"lat": 0.0, "lon": 0.0, "satellites": 0, "altitude_gps_m": 0.4399999976158142, "groundspeed_mps": 0.017137235030531883}, "flight": {"mode": "STABILIZE", "armed": false}, "ekf": {"attitude": {"roll": 0.00782390870153904, "pitch": -0.006259750574827194, "yaw": -2.0915653705596924}, "local_position": {"x": null, "y": null, "z": null}, "status": {"flags": 135, "velocity_variance": 0.0, "pos_horiz_variance": 0.004935615696012974, "pos_vert_variance": 0.08069238066673279}}, "errors": ["PreArm: Hardware safety switch", "PreArm: Hardware safety switch", "PreArm: Hardware safety switch"]}
{"timestamp": "2026-01-23T12:09:16.323106Z", "telemetry": {"lat": 0.0, "lon": 0.0, "satellites": 0, "altitude_gps_m": 0.4399999976158142, "groundspeed_mps": 0.015775341540575027}, "flight": {"mode": "STABILIZE", "armed": false}, "ekf": {"attitude": {"roll": 0.00785632524639368, "pitch": -0.006156228482723236, "yaw": -2.091529607772827}, "local_position": {"x": null, "y": null, "z": null}, "status": {"flags": 135, "velocity_variance": 0.0, "pos_horiz_variance": 0.004409716930240393, "pos_vert_variance": 0.05752256140112877}}, "errors": ["PreArm: Hardware safety switch", "PreArm: Hardware safety switch", "PreArm: Hardware safety switch"]}
{"timestamp": "2026-01-23T12:09:17.322991Z", "telemetry": {"lat": 0.0, "lon": 0.0, "satellites": 0, "altitude_gps_m": 0.4399999976158142, "groundspeed_mps": 0.013840395025908947}, "flight": {"mode": "STABILIZE", "armed": false}, "ekf": {"attitude": {"roll": 0.008024158887565136, "pitch": -0.0060628801584243774, "yaw": -2.091657876968384}, "local_position": {"x": null, "y": null, "z": null}, "status": {"flags": 135, "velocity_variance": 0.0, "pos_horiz_variance": 0.003744854126125574, "pos_vert_variance": 0.059292811900377274}}, "errors": ["PreArm: Hardware safety switch", "PreArm: Hardware safety switch", "PreArm: Hardware safety switch"]}
{"timestamp": "2026-01-23T12:09:18.323413Z", "telemetry": {"lat": 0.0, "lon": 0.0, "satellites": 0, "altitude_gps_m": 0.4399999976158142, "groundspeed_mps": 0.01601707749068737}, "flight": {"mode": "STABILIZE", "armed": false}, "ekf": {"attitude": {"roll": 0.007896349765360355, "pitch": -0.006272498518228531, "yaw": -2.0916049480438232}, "local_position": {"x": null, "y": null, "z": null}, "status": {"flags": 135, "velocity_variance": 0.0, "pos_horiz_variance": 0.003583695972338319, "pos_vert_variance": 0.020584408193826675}}, "errors": ["PreArm: Hardware safety switch", "PreArm: Hardware safety switch", "PreArm: Hardware safety switch"]}
{"timestamp": "2026-01-23T12:09:19.323290Z", "telemetry": {"lat": 0.0, "lon": 0.0, "satellites": 0, "altitude_gps_m": 0.4399999976158142, "groundspeed_mps": 0.01793692447245121}, "flight": {"mode": "STABILIZE", "armed": false}, "ekf": {"attitude": {"roll": 0.007854774594306946, "pitch": -0.006391875445842743, "yaw": -2.0915873050689697}, "local_position": {"x": null, "y": null, "z": null}, "status": {"flags": 135, "velocity_variance": 0.0, "pos_horiz_variance": 0.003870957298204303, "pos_vert_variance": 0.08260542154312134}}, "errors": ["PreArm: Hardware safety switch", "PreArm: Hardware safety switch", "PreArm: Hardware safety switch"]}
{"timestamp": "2026-01-23T12:09:20.322612Z", "telemetry": {"lat": 0.0, "lon": 0.0, "satellites": 0, "altitude_gps_m": 0.4399999976158142, "groundspeed_mps": 0.02146969921886921}, "flight": {"mode": "STABILIZE", "armed": false}, "ekf": {"attitude": {"roll": 0.007914043962955475, "pitch": -0.006440397351980209, "yaw": -2.091489315032959}, "local_position": {"x": null, "y": null, "z": null}, "status": {"flags": 135, "velocity_variance": 0.0, "pos_horiz_variance": 0.004741908051073551, "pos_vert_variance": 0.03446783125400543}}, "errors": ["PreArm: Hardware safety switch", "PreArm: Hardware safety switch", "PreArm: Hardware safety switch"]}
{"timestamp": "2026-01-23T12:09:21.323336Z", "telemetry": {"lat": 0.0, "lon": 0.0, "satellites": 0, "altitude_gps_m": 0.4399999976158142, "groundspeed_mps": 0.02317046746611595}, "flight": {"mode": "STABILIZE", "armed": false}, "ekf": {"attitude": {"roll": 0.007810917682945728, "pitch": -0.006407424807548523, "yaw": -2.0914955139160156}, "local_position": {"x": null, "y": null, "z": null}, "status": {"flags": 135, "velocity_variance": 0.0, "pos_horiz_variance": 0.00525597482919693, "pos_vert_variance": 0.022253492847085}}, "errors": ["PreArm: Hardware safety switch", "PreArm: Hardware safety switch", "PreArm: Hardware safety switch"]}
{"timestamp": "2026-01-23T12:09:22.323139Z", "telemetry": {"lat": 0.0, "lon": 0.0, "satellites": 0, "altitude_gps_m": 0.4399999976158142, "groundspeed_mps": 0.021493088454008102}, "flight": {"mode": "STABILIZE", "armed": false}, "ekf": {"attitude": {"roll": 0.0077867452055215836, "pitch": -0.006159938871860504, "yaw": -2.091409683227539}, "local_position": {"x": null, "y": null, "z": null}, "status": {"flags": 135, "velocity_variance": 0.0, "pos_horiz_variance": 0.0053637269884347916, "pos_vert_variance": 0.004790310747921467}}, "errors": ["PreArm: Hardware safety switch", "PreArm: Hardware safety switch", "PreArm: Hardware safety switch"]}
{"timestamp": "2026-01-23T12:09:23.323174Z", "telemetry": {"lat": 0.0, "lon": 0.0, "satellites": 0, "altitude_gps_m": 0.4399999976158142, "groundspeed_mps": 0.019305545836687088}, "flight": {"mode": "STABILIZE", "armed": false}, "ekf": {"attitude": {"roll": 0.007774290628731251, "pitch": -0.006122950464487076, "yaw": -2.0915627479553223}, "local_position": {"x": null, "y": null, "z": null}, "status": {"flags": 135, "velocity_variance": 0.0, "pos_horiz_variance": 0.005082802847027779, "pos_vert_variance": 0.06678535044193268}}, "errors": ["PreArm: Hardware safety switch", "PreArm: Hardware safety switch", "PreArm: Hardware safety switch"]}
{"timestamp": "2026-01-23T12:09:24.323195Z", "telemetry": {"lat": 0.0, "lon": 0.0, "satellites": 0, "altitude_gps_m": 0.4399999976158142, "groundspeed_mps": 0.01775207743048668}, "flight": {"mode": "STABILIZE", "armed": false}, "ekf": {"attitude": {"roll": 0.007782819680869579, "pitch": -0.006102621555328369, "yaw": -2.0915889739990234}, "local_position": {"x": null, "y": null, "z": null}, "status": {"flags": 135, "velocity_variance": 0.0, "pos_horiz_variance": 0.004825568292289972, "pos_vert_variance": 0.008751990273594856}}, "errors": ["PreArm: Hardware safety switch", "PreArm: Hardware safety switch", "PreArm: Hardware safety switch"]}
{"timestamp": "2026-01-23T12:09:25.323396Z", "telemetry": {"lat": 0.0, "lon": 0.0, "satellites": 0, "altitude_gps_m": 0.4399999976158142, "groundspeed_mps": 0.01850777678191662}, "flight": {"mode": "STABILIZE", "armed": false}, "ekf": {"attitude": {"roll": 0.007825067266821861, "pitch": -0.006045479327440262, "yaw": -2.091472625732422}, "local_position": {"x": null, "y": null, "z": null}, "status": {"flags": 135, "velocity_variance": 0.0, "pos_horiz_variance": 0.004529883619397879, "pos_vert_variance": 0.061726681888103485}}, "errors": ["PreArm: Hardware safety switch", "PreArm: Hardware safety switch", "PreArm: Hardware safety switch"]}
{"timestamp": "2026-01-23T12:09:26.323285Z", "telemetry": {"lat": 0.0, "lon": 0.0, "satellites": 0, "altitude_gps_m": 0.4399999976158142, "groundspeed_mps": 0.016348909586668015}, "flight": {"mode": "STABILIZE", "armed": false}, "ekf": {"attitude": {"roll": 0.007897775620222092, "pitch": -0.005841705948114395, "yaw": -2.0915274620056152}, "local_position": {"x": null, "y": null, "z": null}, "status": {"flags": 135, "velocity_variance": 0.0, "pos_horiz_variance": 0.004391070920974016, "pos_vert_variance": 0.0054511502385139465}}, "errors": ["PreArm: Hardware safety switch", "PreArm: Hardware safety switch", "PreArm: Hardware safety switch"]}
{"timestamp": "2026-01-23T12:09:27.322410Z", "telemetry": {"lat": 0.0, "lon": 0.0, "satellites": 0, "altitude_gps_m": 0.4399999976158142, "groundspeed_mps": 0.01660195179283619}, "flight": {"mode": "STABILIZE", "armed": false}, "ekf": {"attitude": {"roll": 0.007853858172893524, "pitch": -0.005760837346315384, "yaw": -2.0917415618896484}, "local_position": {"x": null, "y": null, "z": null}, "status": {"flags": 135, "velocity_variance": 0.0, "pos_horiz_variance": 0.004448844585567713, "pos_vert_variance": 0.07193679362535477}}, "errors": ["PreArm: Hardware safety switch", "PreArm: Hardware safety switch", "PreArm: Hardware safety switch"]}
{"timestamp": "2026-01-23T12:09:28.322523Z", "telemetry": {"lat": 0.0, "lon": 0.0, "satellites": 0, "altitude_gps_m": 0.4399999976158142, "groundspeed_mps": 0.0143504086881876}, "flight": {"mode": "STABILIZE", "armed": false}, "ekf": {"attitude": {"roll": 0.007855714298784733, "pitch": -0.005629144608974457, "yaw": -2.0915987491607666}, "local_position": {"x": null, "y": null, "z": null}, "status": {"flags": 135, "velocity_variance": 0.0, "pos_horiz_variance": 0.004105322994291782, "pos_vert_variance": 0.03688914328813553}}, "errors": ["PreArm: Hardware safety switch", "PreArm: Hardware safety switch", "PreArm: Hardware safety switch"]}
{"timestamp": "2026-01-23T12:09:29.322889Z", "telemetry": {"lat": 0.0, "lon": 0.0, "satellites": 0, "altitude_gps_m": 0.4399999976158142, "groundspeed_mps": 0.007099286187440157}, "flight": {"mode": "STABILIZE", "armed": false}, "ekf": {"attitude": {"roll": 0.00799985509365797, "pitch": -0.005498673766851425, "yaw": -2.0915870666503906}, "local_position": {"x": null, "y": null, "z": null}, "status": {"flags": 135, "velocity_variance": 0.0, "pos_horiz_variance": 0.002944336272776127, "pos_vert_variance": 0.08825692534446716}}, "errors": ["PreArm: Hardware safety switch", "PreArm: Hardware safety switch", "PreArm: Hardware safety switch"]}
{"timestamp": "2026-01-23T12:09:30.322634Z", "telemetry": {"lat": 0.0, "lon": 0.0, "satellites": 0, "altitude_gps_m": 0.4399999976158142, "groundspeed_mps": 0.009919235482811928}, "flight": {"mode": "STABILIZE", "armed": false}, "ekf": {"attitude": {"roll": 0.008049406111240387, "pitch": -0.005357429385185242, "yaw": -2.0915567874908447}, "local_position": {"x": null, "y": null, "z": null}, "status": {"flags": 135, "velocity_variance": 0.0, "pos_horiz_variance": 0.002430666470900178, "pos_vert_variance": 0.0352887287735939}}, "errors": ["PreArm: Hardware safety switch", "PreArm: Hardware safety switch", "PreArm: Hardware safety switch"]}
{"timestamp": "2026-01-23T12:09:31.322677Z", "telemetry": {"lat": 0.0, "lon": 0.0, "satellites": 0, "altitude_gps_m": 0.4399999976158142, "groundspeed_mps": 0.010795941576361656}, "flight": {"mode": "STABILIZE", "armed": false}, "ekf": {"attitude": {"roll": 0.007955320179462433, "pitch": -0.0053841061890125275, "yaw": -2.0915346145629883}, "local_position": {"x": null, "y": null, "z": null}, "status": {"flags": 135, "velocity_variance": 0.0, "pos_horiz_variance": 0.002606197027489543, "pos_vert_variance": 0.02716023661196232}}, "errors": ["PreArm: Hardware safety switch", "PreArm: Hardware safety switch", "PreArm: Hardware safety switch"]}
{"timestamp": "2026-01-23T12:09:32.323142Z", "telemetry": {"lat": 0.0, "lon": 0.0, "satellites": 0, "altitude_gps_m": 0.4399999976158142, "groundspeed_mps": 0.006432527210563421}, "flight": {"mode": "STABILIZE", "armed": false}, "ekf": {"attitude": {"roll": 0.007830016314983368, "pitch": -0.005549978464841843, "yaw": -2.0915398597717285}, "local_position": {"x": null, "y": null, "z": null}, "status": {"flags": 135, "velocity_variance": 0.0, "pos_horiz_variance": 0.002089819870889187, "pos_vert_variance": 0.01615733467042446}}, "errors": ["PreArm: Hardware safety switch", "PreArm: Hardware safety switch", "PreArm: Hardware safety switch"]}
{"timestamp": "2026-01-23T12:09:33.323241Z", "telemetry": {"lat": 0.0, "lon": 0.0, "satellites": 0, "altitude_gps_m": 0.4399999976158142, "groundspeed_mps": 0.006942897103726864}, "flight": {"mode": "STABILIZE", "armed": false}, "ekf": {"attitude": {"roll": 0.007710055448114872, "pitch": -0.005566157400608063, "yaw": -2.091313362121582}, "local_position": {"x": null, "y": null, "z": null}, "status": {"flags": 135, "velocity_variance": 0.0, "pos_horiz_variance": 0.0016537816263735294, "pos_vert_variance": 0.023503893986344337}}, "errors": ["PreArm: Hardware safety switch", "PreArm: Hardware safety switch", "PreArm: Hardware safety switch"]}
{"timestamp": "2026-01-23T12:09:34.322807Z", "telemetry": {"lat": 0.0, "lon": 0.0, "satellites": 0, "altitude_gps_m": 0.4399999976158142, "groundspeed_mps": 0.008771316148340702}, "flight": {"mode": "STABILIZE", "armed": false}, "ekf": {"attitude": {"roll": 0.00764571875333786, "pitch": -0.005566753447055817, "yaw": -2.0913681983947754}, "local_position": {"x": null, "y": null, "z": null}, "status": {"flags": 135, "velocity_variance": 0.0, "pos_horiz_variance": 0.0019598943181335926, "pos_vert_variance": 0.019791897386312485}}, "errors": ["PreArm: Hardware safety switch", "PreArm: Hardware safety switch", "PreArm: Hardware safety switch"]}
{"timestamp": "2026-01-23T12:09:35.322729Z", "telemetry": {"lat": 0.0, "lon": 0.0, "satellites": 0, "altitude_gps_m": 0.4399999976158142, "groundspeed_mps": 0.006889283191412687}, "flight": {"mode": "STABILIZE", "armed": false}, "ekf": {"attitude": {"roll": 0.00785810500383377, "pitch": -0.005527865141630173, "yaw": -2.091348648071289}, "local_position": {"x": null, "y": null, "z": null}, "status": {"flags": 135, "velocity_variance": 0.0, "pos_horiz_variance": 0.0016767688794061542, "pos_vert_variance": 0.03184687718749046}}, "errors": ["PreArm: Hardware safety switch", "PreArm: Hardware safety switch", "PreArm: Hardware safety switch"]}
