{"timestamp": "2026-01-24T15:24:09.768451Z", "telemetry": {"lat": 28.7532044, "lon": 77.1178047, "satellites": 7, "altitude_gps_m": 233.62998962402344, "groundspeed_mps": 0.013575264252722263}, "flight": {"mode": null, "armed": null}, "ekf": {"attitude": {"roll": 0.01786349155008793, "pitch": -0.00695425271987915, "yaw": 0.9146813750267029}, "local_position": {"x": null, "y": null, "z": null}, "status": {"flags": null, "velocity_variance": null, "pos_horiz_variance": null, "pos_vert_variance": null}}, "errors": []}
{"timestamp": "2026-01-24T15:24:10.844334Z", "telemetry": {"lat": 28.7532026, "lon": 77.1178039, "satellites": 7, "altitude_gps_m": 232.58999633789062, "groundspeed_mps": 0.014225705526769161}, "flight": {"mode": "STABILIZE", "armed": false}, "ekf": {"attitude": {"roll": 0.017823265865445137, "pitch": -0.00693502277135849, "yaw": 0.9146106243133545}, "local_position": {"x": null, "y": null, "z": null}, "status": {"flags": 135, "velocity_variance": 0.0, "pos_horiz_variance": 0.003970518242567778, "pos_vert_variance": 0.039895907044410706}}, "errors": []}
{"timestamp": "2026-01-24T15:24:11.886839Z", "telemetry": {"lat": 28.7532015, "lon": 77.1178068, "satellites": 8, "altitude_gps_m": 229.9199981689453, "groundspeed_mps": 0.015901902690529823}, "flight": {"mode": "STABILIZE", "armed": false}, "ekf": {"attitude": {"roll": 0.01789107918739319, "pitch": -0.006930295377969742, "yaw": 0.9144624471664429}, "local_position": {"x": null, "y": null, "z": null}, "status": {"flags": 135, "velocity_variance": 0.0, "pos_horiz_variance": 0.004040558822453022, "pos_vert_variance": 0.06678441911935806}}, "errors": []}
{"timestamp": "2026-01-24T15:24:12.887357Z", "telemetry": {"lat": 28.7532013, "lon": 77.1178122, "satellites": 9, "altitude_gps_m": 225.17999267578125, "groundspeed_mps": 0.0170080978423357}, "flight": {"mode": "STABILIZE", "armed": false}, "ekf": {"attitude": {"roll": 0.017777474597096443, "pitch": -0.006889864802360535, "yaw": 0.9145586490631104}, "local_position": {"x": null, "y": null, "z": null}, "status": {"flags": 135, "velocity_variance": 0.0, "pos_horiz_variance": 0.004453856498003006, "pos_vert_variance": 0.009237878955900669}}, "errors": []}
{"timestamp": "2026-01-24T15:24:13.885210Z", "telemetry": {"lat": 28.753196, "lon": 77.1178056, "satellites": 10, "altitude_gps_m": 223.33999633789062, "groundspeed_mps": 0.018214000388979912}, "flight": {"mode": "STABILIZE", "armed": false}, "ekf": {"attitude": {"roll": 0.017858652397990227, "pitch": -0.006925720721483231, "yaw": 0.9144799113273621}, "local_position": {"x": null, "y": null, "z": null}, "status": {"flags": 135, "velocity_variance": 0.0, "pos_horiz_variance": 0.004768449813127518, "pos_vert_variance": 0.04488951712846756}}, "errors": []}
{"timestamp": "2026-01-24T15:24:14.923342Z", "telemetry": {"lat": 28.7531998, "lon": 77.1178046, "satellites": 10, "altitude_gps_m": 222.61000061035156, "groundspeed_mps": 0.01727103441953659}, "flight": {"mode": "STABILIZE", "armed": false}, "ekf": {"attitude": {"roll": 0.017831139266490936, "pitch": -0.0069734156131744385, "yaw": 0.9144566655158997}, "local_position": {"x": null, "y": null, "z": null}, "status": {"flags": 135, "velocity_variance": 0.0, "pos_horiz_variance": 0.004875603597611189, "pos_vert_variance": 0.013719061389565468}}, "errors": []}
{"timestamp": "2026-01-24T15:24:15.923286Z", "telemetry": {"lat": 28.7532053, "lon": 77.1178048, "satellites": 10, "altitude_gps_m": 220.63999938964844, "groundspeed_mps": 0.01782974787056446}, "flight": {"mode": "STABILIZE", "armed": false}, "ekf": {"attitude": {"roll": 0.017860695719718933, "pitch": -0.007038239389657974, "yaw": 0.9144852757453918}, "local_position": {"x": null, "y": null, "z": null}, "status": {"flags": 135, "velocity_variance": 0.0, "pos_horiz_variance": 0.004764598328620195, "pos_vert_variance": 0.04563378915190697}}, "errors": []}
{"timestamp": "2026-01-24T15:24:16.885154Z", "telemetry": {"lat": 28.7532055, "lon": 77.1178043, "satellites": 9, "altitude_gps_m": 219.54998779296875, "groundspeed_mps": 0.017738737165927887}, "flight": {"mode": "STABILIZE", "armed": false}, "ekf": {"attitude": {"roll": 0.017860040068626404, "pitch": -0.007095113396644592, "yaw": 0.9145735502243042}, "local_position": {"x": null, "y": null, "z": null}, "status": {"flags": 135, "velocity_variance": 0.0, "pos_horiz_variance": 0.004828839562833309, "pos_vert_variance": 0.014854038134217262}}, "errors": ["PreArm: Hardware safety switch"]}
{"timestamp": "2026-01-24T15:24:17.922811Z", "telemetry": {"lat": 28.7532036, "lon": 77.1178018, "satellites": 9, "altitude_gps_m": 217.83999633789062, "groundspeed_mps": 0.019238820299506187}, "flight": {"mode": "STABILIZE", "armed": false}, "ekf": {"attitude": {"roll": 0.017926989123225212, "pitch": -0.007049437612295151, "yaw": 0.9146652817726135}, "local_position": {"x": null, "y": null, "z": null}, "status": {"flags": 135, "velocity_variance": 0.0, "pos_horiz_variance": 0.005165398586541414, "pos_vert_variance": 0.02550371177494526}}, "errors": ["PreArm: Hardware safety switch"]}
{"timestamp": "2026-01-24T15:24:18.922696Z", "telemetry": {"lat": 28.7532044, "lon": 77.1178025, "satellites": 9, "altitude_gps_m": 217.0399932861328, "groundspeed_mps": 0.020288659259676933}, "flight": {"mode": "STABILIZE", "armed": false}, "ekf": {"attitude": {"roll": 0.017949819564819336, "pitch": -0.0069857873022556305, "yaw": 0.914603590965271}, "local_position": {"x": null, "y": null, "z": null}, "status": {"flags": 135, "velocity_variance": 0.0, "pos_horiz_variance": 0.005401913076639175, "pos_vert_variance": 0.018388891592621803}}, "errors": ["PreArm: Hardware safety switch"]}
{"timestamp": "2026-01-24T15:24:19.922439Z", "telemetry": {"lat": 28.7532025, "lon": 77.1178041, "satellites": 9, "altitude_gps_m": 217.239990234375, "groundspeed_mps": 0.021656259894371033}, "flight": {"mode": "STABILIZE", "armed": false}, "ekf": {"attitude": {"roll": 0.01778869330883026, "pitch": -0.006989199668169022, "yaw": 0.9145714044570923}, "local_position": {"x": null, "y": null, "z": null}, "status": {"flags": 135, "velocity_variance": 0.0, "pos_horiz_variance": 0.005702592432498932, "pos_vert_variance": 0.04412294179201126}}, "errors": ["PreArm: Hardware safety switch"]}
{"timestamp": "2026-01-24T15:24:20.922140Z", "telemetry": {"lat": 28.7532027, "lon": 77.1178059, "satellites": 9, "altitude_gps_m": 216.05999755859375, "groundspeed_mps": 0.019528407603502274}, "flight": {"mode": "STABILIZE", "armed": false}, "ekf": {"attitude": {"roll": 0.01768025942146778, "pitch": -0.0071148015558719635, "yaw": 0.9145487546920776}, "local_position": {"x": null, "y": null, "z": null}, "status": {"flags": 135, "velocity_variance": 0.0, "pos_horiz_variance": 0.00618670554831624, "pos_vert_variance": 0.03955783322453499}}, "errors": ["PreArm: Hardware safety switch"]}
{"timestamp": "2026-01-24T15:24:21.922666Z", "telemetry": {"lat": 28.7532071, "lon": 77.1178052, "satellites": 10, "altitude_gps_m": 217.6199951171875, "groundspeed_mps": 0.0097555136308074}, "flight": {"mode": "STABILIZE", "armed": false}, "ekf": {"attitude": {"roll": 0.01406745333224535, "pitch": -0.008724678307771683, "yaw": 0.9153254628181458}, "local_position": {"x": null, "y": null, "z": null}, "status": {"flags": 135, "velocity_variance": 0.0, "pos_horiz_variance": 0.005396812688559294, "pos_vert_variance": 0.0038513431791216135}}, "errors": ["PreArm: Hardware safety switch"]}
{"timestamp": "2026-01-24T15:24:22.921928Z", "telemetry": {"lat": 28.7532119, "lon": 77.1178044, "satellites": 10, "altitude_gps_m": 219.76998901367188, "groundspeed_mps": 0.02348821610212326}, "flight": {"mode": "STABILIZE", "armed": false}, "ekf": {"attitude": {"roll": 0.012241029180586338, "pitch": -0.006441034376621246, "yaw": 0.9144803285598755}, "local_position": {"x": null, "y": null, "z": null}, "status": {"flags": 135, "velocity_variance": 0.0, "pos_horiz_variance": 0.004713285248726606, "pos_vert_variance": 0.016177810728549957}}, "errors": ["PreArm: Hardware safety switch"]}
{"timestamp": "2026-01-24T15:24:23.921567Z", "telemetry": {"lat": 28.7532178, "lon": 77.1178036, "satellites": 10, "altitude_gps_m": 221.94000244140625, "groundspeed_mps": 0.018490293994545937}, "flight": {"mode": "STABILIZE", "armed": false}, "ekf": {"attitude": {"roll": 0.012170763686299324, "pitch": -0.006460726261138916, "yaw": 0.9143390655517578}, "local_position": {"x": null, "y": null, "z": null}, "status": {"flags": 135, "velocity_variance": 0.0, "pos_horiz_variance": 0.005071394145488739, "pos_vert_variance": 0.0016108214622363448}}, "errors": ["PreArm: Hardware safety switch"]}
{"timestamp": "2026-01-24T15:24:24.922455Z", "telemetry": {"lat": 28.7532196, "lon": 77.1178036, "satellites": 10, "altitude_gps_m": 224.3699951171875, "groundspeed_mps": 0.02031000144779682}, "flight": {"mode": "STABILIZE", "armed": false}, "ekf": {"attitude": {"roll": 0.012313988991081715, "pitch": -0.006671462208032608, "yaw": 0.9143539071083069}, "local_position": {"x": null, "y": null, "z": null}, "status": {"flags": 135, "velocity_variance": 0.0, "pos_horiz_variance": 0.005425012670457363, "pos_vert_variance": 0.06726930290460587}}, "errors": ["PreArm: Hardware safety switch"]}
{"timestamp": "2026-01-24T15:24:25.921262Z", "telemetry": {"lat": 28.753222, "lon": 77.1178033, "satellites": 10, "altitude_gps_m": 226.30999755859375, "groundspeed_mps": 0.023557564243674278}, "flight": {"mode": "STABILIZE", "armed": false}, "ekf": {"attitude": {"roll": 0.012316190637648106, "pitch": -0.006742559373378754, "yaw": 0.9143564105033875}, "local_position": {"x": null, "y": null, "z": null}, "status": {"flags": 135, "velocity_variance": 0.0, "pos_horiz_variance": 0.005920888856053352, "pos_vert_variance": 0.0005723622743971646}}, "errors": ["PreArm: Hardware safety switch"]}
{"timestamp": "2026-01-24T15:24:26.920952Z", "telemetry": {"lat": 28.7532253, "lon": 77.1178018, "satellites": 9, "altitude_gps_m": 228.0699920654297, "groundspeed_mps": 0.02551906369626522}, "flight": {"mode": "STABILIZE", "armed": false}, "ekf": {"attitude": {"roll": 0.012326161377131939, "pitch": -0.006721578538417816, "yaw": 0.9143217206001282}, "local_position": {"x": null, "y": null, "z": null}, "status": {"flags": 135, "velocity_variance": 0.0, "pos_horiz_variance": 0.00657729571685195, "pos_vert_variance": 0.006605170667171478}}, "errors": ["PreArm: Hardware safety switch"]}
{"timestamp": "2026-01-24T15:24:27.921789Z", "telemetry": {"lat": 28.7532265, "lon": 77.1178009, "satellites": 9, "altitude_gps_m": 229.3199920654297, "groundspeed_mps": 0.024523738771677017}, "flight": {"mode": "STABILIZE", "armed": false}, "ekf": {"attitude": {"roll": 0.01229532714933157, "pitch": -0.0068536922335624695, "yaw": 0.914137065410614}, "local_position": {"x": null, "y": null, "z": null}, "status": {"flags": 135, "velocity_variance": 0.0, "pos_horiz_variance": 0.006939745042473078, "pos_vert_variance": 0.05538957938551903}}, "errors": ["PreArm: Hardware safety switch"]}
{"timestamp": "2026-01-24T15:24:28.920649Z", "telemetry": {"lat": 28.7532286, "lon": 77.1177987, "satellites": 9, "altitude_gps_m": 230.67999267578125, "groundspeed_mps": 0.030987046658992767}, "flight": {"mode": "STABILIZE", "armed": false}, "ekf": {"attitude": {"roll": 0.016777819022536278, "pitch": -0.006098028272390366, "yaw": 0.9142025113105774}, "local_position": {"x": null, "y": null, "z": null}, "status": {"flags": 135, "velocity_variance": 0.0, "pos_horiz_variance": 0.007337179034948349, "pos_vert_variance": 0.01439188327640295}}, "errors": ["PreArm: Hardware safety switch"]}
{"timestamp": "2026-01-24T15:24:29.921544Z", "telemetry": {"lat": 28.7532318, "lon": 77.1177996, "satellites": 9, "altitude_gps_m": 231.6699981689453, "groundspeed_mps": 0.029769498854875565}, "flight": {"mode": "STABILIZE", "armed": false}, "ekf": {"attitude": {"roll": 0.017509816214442253, "pitch": -0.006910186260938644, "yaw": 0.914271891117096}, "local_position": {"x": null, "y": null, "z": null}, "status": {"flags": 135, "velocity_variance": 0.0, "pos_horiz_variance": 0.006905366200953722, "pos_vert_variance": 0.07303261756896973}}, "errors": ["PreArm: Hardware safety switch"]}
{"timestamp": "2026-01-24T15:24:30.920329Z", "telemetry": {"lat": 28.7532332, "lon": 77.1177957, "satellites": 9, "altitude_gps_m": 232.22000122070312, "groundspeed_mps": 0.021505555137991905}, "flight": {"mode": "STABILIZE", "armed": false}, "ekf": {"attitude": {"roll": 0.017669130116701126, "pitch": -0.007170971482992172, "yaw": 0.9141986966133118}, "local_position": {"x": null, "y": null, "z": null}, "status": {"flags": 135, "velocity_variance": 0.0, "pos_horiz_variance": 0.006573002319782972, "pos_vert_variance": 0.014113057404756546}}, "errors": ["PreArm: Hardware safety switch"]}
{"timestamp": "2026-01-24T15:24:31.921210Z", "telemetry": {"lat": 28.7532309, "lon": 77.1177954, "satellites": 9, "altitude_gps_m": 232.3199920654297, "groundspeed_mps": 0.02073497511446476}, "flight": {"mode": "ALT_HOLD", "armed": false}, "ekf": {"attitude": {"roll": 0.017594700679183006, "pitch": -0.007117684930562973, "yaw": 0.9142214059829712}, "local_position": {"x": null, "y": null, "z": null}, "status": {"flags": 135, "velocity_variance": 0.0, "pos_horiz_variance": 0.006459187250584364, "pos_vert_variance": 0.07235731929540634}}, "errors": ["PreArm: Hardware safety switch"]}
{"timestamp": "2026-01-24T15:24:32.883268Z", "telemetry": {"lat": 28.7532302, "lon": 77.1177952, "satellites": 9, "altitude_gps_m": 231.989990234375, "groundspeed_mps": 0.018423564732074738}, "flight": {"mode": "ALT_HOLD", "armed": false}, "ekf": {"attitude": {"roll": 0.017492325976490974, "pitch": -0.0070918165147304535, "yaw": 0.9143595695495605}, "local_position": {"x": null, "y": null, "z": null}, "status": {"flags": 135, "velocity_variance": 0.0, "pos_horiz_variance": 0.005823658779263496, "pos_vert_variance": 0.019427232444286346}}, "errors": ["PreArm: Hardware safety switch"]}
{"timestamp": "2026-01-24T15:24:33.919894Z", "telemetry": {"lat": 28.7532306, "lon": 77.1177958, "satellites": 8, "altitude_gps_m": 233.38999938964844, "groundspeed_mps": 0.01964866928756237}, "flight": {"mode": "STABILIZE", "armed": false}, "ekf": {"attitude": {"roll": 0.01743452623486519, "pitch": -0.0071791186928749084, "yaw": 0.914328932762146}, "local_position": {"x": null, "y": null, "z": null}, "status": {"flags": 135, "velocity_variance": 0.0, "pos_horiz_variance": 0.005590665154159069, "pos_vert_variance": 0.06368153542280197}}, "errors": ["PreArm: Hardware safety switch"]}
{"timestamp": "2026-01-24T15:24:34.919295Z", "telemetry": {"lat": 28.7532323, "lon": 77.1177979, "satellites": 8, "altitude_gps_m": 235.45999145507812, "groundspeed_mps": 0.020597683265805244}, "flight": {"mode": "STABILIZE", "armed": false}, "ekf": {"attitude": {"roll": 0.017412060871720314, "pitch": -0.0071934424340724945, "yaw": 0.9143849015235901}, "local_position": {"x": null, "y": null, "z": null}, "status": {"flags": 135, "velocity_variance": 0.0, "pos_horiz_variance": 0.005626589059829712, "pos_vert_variance": 0.011267654597759247}}, "errors": ["PreArm: Hardware safety switch"]}
{"timestamp": "2026-01-24T15:24:35.881562Z", "telemetry": {"lat": 28.7532318, "lon": 77.117799, "satellites": 8, "altitude_gps_m": 237.58999633789062, "groundspeed_mps": 0.022014189511537552}, "flight": {"mode": "STABILIZE", "armed": false}, "ekf": {"attitude": {"roll": 0.01743517629802227, "pitch": -0.007206447422504425, "yaw": 0.9143595099449158}, "local_position": {"x": null, "y": null, "z": null}, "status": {"flags": 135, "velocity_variance": 0.0, "pos_horiz_variance": 0.005815460812300444, "pos_vert_variance": 0.0024392602499574423}}, "errors": ["PreArm: Hardware safety switch"]}
{"timestamp": "2026-01-24T15:24:36.919306Z", "telemetry": {"lat": 28.7532292, "lon": 77.1177964, "satellites": 8, "altitude_gps_m": 238.489990234375, "groundspeed_mps": 0.027446018531918526}, "flight": {"mode": "STABILIZE", "armed": false}, "ekf": {"attitude": {"roll": 0.01558499876409769, "pitch": -0.007138635963201523, "yaw": 0.9144787192344666}, "local_position": {"x": null, "y": null, "z": null}, "status": {"flags": 135, "velocity_variance": 0.0, "pos_horiz_variance": 0.006019852589815855, "pos_vert_variance": 0.08912143111228943}}, "errors": ["PreArm: Hardware safety switch"]}
{"timestamp": "2026-01-24T15:24:37.881314Z", "telemetry": {"lat": 28.7532302, "lon": 77.1177964, "satellites": 8, "altitude_gps_m": 238.70999145507812, "groundspeed_mps": 0.02170124463737011}, "flight": {"mode": "STABILIZE", "armed": false}, "ekf": {"attitude": {"roll": 0.01284053549170494, "pitch": -0.006588149815797806, "yaw": 0.914350688457489}, "local_position": {"x": null, "y": null, "z": null}, "status": {"flags": 135, "velocity_variance": 0.0, "pos_horiz_variance": 0.006624752189964056, "pos_vert_variance": 0.07628388702869415}}, "errors": ["PreArm: Hardware safety switch"]}
{"timestamp": "2026-01-24T15:24:38.918796Z", "telemetry": {"lat": 28.7532302, "lon": 77.1177964, "satellites": 8, "altitude_gps_m": 238.70999145507812, "groundspeed_mps": 0.02170124463737011}, "flight": {"mode": "STABILIZE", "armed": false}, "ekf": {"attitude": {"roll": 0.01284053549170494, "pitch": -0.006588149815797806, "yaw": 0.914350688457489}, "local_position": {"x": null, "y": null, "z": null}, "status": {"flags": 135, "velocity_variance": 0.0, "pos_horiz_variance": 0.006624752189964056, "pos_vert_variance": 0.07628388702869415}}, "errors": ["PreArm: Hardware safety switch"]}
{"timestamp": "2026-01-24T15:24:39.918347Z", "telemetry": {"lat": 28.7532302, "lon": 77.1177964, "satellites": 8, "altitude_gps_m": 238.70999145507812, "groundspeed_mps": 0.02170124463737011}, "flight": {"mode": "STABILIZE", "armed": false}, "ekf": {"attitude": {"roll": 0.01284053549170494, "pitch": -0.006588149815797806, "yaw": 0.914350688457489}, "local_position": {"x": null, "y": null, "z": null}, "status": {"flags": 135, "velocity_variance": 0.0, "pos_horiz_variance": 0.006624752189964056, "pos_vert_variance": 0.07628388702869415}}, "errors": ["PreArm: Hardware safety switch"]}
{"timestamp": "2026-01-24T15:24:40.918497Z", "telemetry": {"lat": 28.7532302, "lon": 77.1177964, "satellites": 8, "altitude_gps_m": 238.70999145507812, "groundspeed_mps": 0.02170124463737011}, "flight": {"mode": "STABILIZE", "armed": false}, "ekf": {"attitude": {"roll": 0.01284053549170494, "pitch": -0.006588149815797806, "yaw": 0.914350688457489}, "local_position": {"x": null, "y": null, "z": null}, "status": {"flags": 135, "velocity_variance": 0.0, "pos_horiz_variance": 0.006624752189964056, "pos_vert_variance": 0.07628388702869415}}, "errors": ["PreArm: Hardware safety switch"]}
{"timestamp": "2026-01-24T15:24:41.918176Z", "telemetry": {"lat": 28.7532302, "lon": 77.1177964, "satellites": 8, "altitude_gps_m": 238.70999145507812, "groundspeed_mps": 0.02170124463737011}, "flight": {"mode": "STABILIZE", "armed": false}, "ekf": {"attitude": {"roll": 0.01284053549170494, "pitch": -0.006588149815797806, "yaw": 0.914350688457489}, "local_position": {"x": null, "y": null, "z": null}, "status": {"flags": 135, "velocity_variance": 0.0, "pos_horiz_variance": 0.006624752189964056, "pos_vert_variance": 0.07628388702869415}}, "errors": ["PreArm: Hardware safety switch"]}
