{"timestamp": "2026-01-29T12:13:19.449470Z", "telemetry": {"lat": 0.0, "lon": 0.0, "satellites": 0, "altitude_gps_m": -0.10999999940395355, "groundspeed_mps": 0.0695815309882164}, "flight": {"mode": "STABILIZE", "armed": false}, "ekf": {"attitude": {"roll": -0.02447059564292431, "pitch": -0.020062271505594254, "yaw": -2.890575885772705}, "local_position": {"x": null, "y": null, "z": null}, "status": {"flags": 135, "velocity_variance": 0.0, "pos_horiz_variance": 0.01641957461833954, "pos_vert_variance": 0.04687877371907234}}, "errors": []}
{"timestamp": "2026-01-29T12:13:20.449449Z", "telemetry": {"lat": 0.0, "lon": 0.0, "satellites": 0, "altitude_gps_m": -0.10999999940395355, "groundspeed_mps": 0.06936085224151611}, "flight": {"mode": "STABILIZE", "armed": false}, "ekf": {"attitude": {"roll": -0.02441112883388996, "pitch": -0.01998399943113327, "yaw": -2.8905420303344727}, "local_position": {"x": null, "y": null, "z": null}, "status": {"flags": 135, "velocity_variance": 0.0, "pos_horiz_variance": 0.016810614615678787, "pos_vert_variance": 0.06571124494075775}}, "errors": []}
{"timestamp": "2026-01-29T12:13:21.449117Z", "telemetry": {"lat": 0.0, "lon": 0.0, "satellites": 0, "altitude_gps_m": -0.10999999940395355, "groundspeed_mps": 0.06634093821048737}, "flight": {"mode": "STABILIZE", "armed": false}, "ekf": {"attitude": {"roll": -0.024286076426506042, "pitch": -0.019900133833289146, "yaw": -2.8904178142547607}, "local_position": {"x": null, "y": null, "z": null}, "status": {"flags": 135, "velocity_variance": 0.0, "pos_horiz_variance": 0.01672075130045414, "pos_vert_variance": 0.034477442502975464}}, "errors": []}
{"timestamp": "2026-01-29T12:13:22.450991Z", "telemetry": {"lat": 0.0, "lon": 0.0, "satellites": 0, "altitude_gps_m": -0.10999999940395355, "groundspeed_mps": 0.06300566345453262}, "flight": {"mode": "STABILIZE", "armed": false}, "ekf": {"attitude": {"roll": -0.02414308860898018, "pitch": -0.019836517050862312, "yaw": -2.8904178142547607}, "local_position": {"x": null, "y": null, "z": null}, "status": {"flags": 135, "velocity_variance": 0.0, "pos_horiz_variance": 0.016058923676609993, "pos_vert_variance": 0.0846952423453331}}, "errors": []}
{"timestamp": "2026-01-29T12:13:23.449212Z", "telemetry": {"lat": 0.0, "lon": 0.0, "satellites": 0, "altitude_gps_m": -0.10999999940395355, "groundspeed_mps": 0.06139605864882469}, "flight": {"mode": "STABILIZE", "armed": false}, "ekf": {"attitude": {"roll": -0.02406095154583454, "pitch": -0.0193745456635952, "yaw": -2.8903656005859375}, "local_position": {"x": null, "y": null, "z": null}, "status": {"flags": 135, "velocity_variance": 0.0, "pos_horiz_variance": 0.015614286065101624, "pos_vert_variance": 0.0376141332089901}}, "errors": []}
{"timestamp": "2026-01-29T12:13:24.448839Z", "telemetry": {"lat": 0.0, "lon": 0.0, "satellites": 0, "altitude_gps_m": -0.10999999940395355, "groundspeed_mps": 0.06120593845844269}, "flight": {"mode": "STABILIZE", "armed": false}, "ekf": {"attitude": {"roll": -0.024170083925127983, "pitch": -0.019828874617815018, "yaw": -2.890141725540161}, "local_position": {"x": null, "y": null, "z": null}, "status": {"flags": 135, "velocity_variance": 0.0, "pos_horiz_variance": 0.01529752742499113, "pos_vert_variance": 0.025761635974049568}}, "errors": []}
{"timestamp": "2026-01-29T12:13:25.449229Z", "telemetry": {"lat": 0.0, "lon": 0.0, "satellites": 0, "altitude_gps_m": -0.10999999940395355, "groundspeed_mps": 0.06429673731327057}, "flight": {"mode": "STABILIZE", "armed": false}, "ekf": {"attitude": {"roll": -0.024234365671873093, "pitch": -0.01943240500986576, "yaw": -2.889827013015747}, "local_position": {"x": null, "y": null, "z": null}, "status": {"flags": 135, "velocity_variance": 0.0, "pos_horiz_variance": 0.015166739001870155, "pos_vert_variance": 0.0019698336254805326}}, "errors": []}
{"timestamp": "2026-01-29T12:13:26.449984Z", "telemetry": {"lat": 0.0, "lon": 0.0, "satellites": 0, "altitude_gps_m": -0.10999999940395355, "groundspeed_mps": 0.06238819658756256}, "flight": {"mode": "STABILIZE", "armed": false}, "ekf": {"attitude": {"roll": -0.02419360540807247, "pitch": -0.019824668765068054, "yaw": -2.8899998664855957}, "local_position": {"x": null, "y": null, "z": null}, "status": {"flags": 135, "velocity_variance": 0.0, "pos_horiz_variance": 0.01508684828877449, "pos_vert_variance": 0.044741224497556686}}, "errors": []}
{"timestamp": "2026-01-29T12:13:27.487361Z", "telemetry": {"lat": 0.0, "lon": 0.0, "satellites": 0, "altitude_gps_m": -0.10999999940395355, "groundspeed_mps": 0.06331097334623337}, "flight": {"mode": "STABILIZE", "armed": false}, "ekf": {"attitude": {"roll": -0.024326888844370842, "pitch": -0.01981199160218239, "yaw": -2.89005446434021}, "local_position": {"x": null, "y": null, "z": null}, "status": {"flags": 135, "velocity_variance": 0.0, "pos_horiz_variance": 0.015304097905755043, "pos_vert_variance": 0.029609955847263336}}, "errors": []}
{"timestamp": "2026-01-29T12:13:28.449817Z", "telemetry": {"lat": 0.0, "lon": 0.0, "satellites": 0, "altitude_gps_m": -0.10999999940395355, "groundspeed_mps": 0.06276032328605652}, "flight": {"mode": "STABILIZE", "armed": false}, "ekf": {"attitude": {"roll": -0.02415596693754196, "pitch": -0.01988813281059265, "yaw": -2.8900156021118164}, "local_position": {"x": null, "y": null, "z": null}, "status": {"flags": 135, "velocity_variance": 0.0, "pos_horiz_variance": 0.015364696271717548, "pos_vert_variance": 0.017919430509209633}}, "errors": []}
{"timestamp": "2026-01-29T12:13:29.448763Z", "telemetry": {"lat": 0.0, "lon": 0.0, "satellites": 0, "altitude_gps_m": -0.10999999940395355, "groundspeed_mps": 0.06471120566129684}, "flight": {"mode": "STABILIZE", "armed": false}, "ekf": {"attitude": {"roll": -0.023974068462848663, "pitch": -0.01990402303636074, "yaw": -2.890096426010132}, "local_position": {"x": null, "y": null, "z": null}, "status": {"flags": 135, "velocity_variance": 0.0, "pos_horiz_variance": 0.015414136461913586, "pos_vert_variance": 0.021473225206136703}}, "errors": []}
{"timestamp": "2026-01-29T12:13:30.449857Z", "telemetry": {"lat": 0.0, "lon": 0.0, "satellites": 0, "altitude_gps_m": -0.10999999940395355, "groundspeed_mps": 0.0667787715792656}, "flight": {"mode": "STABILIZE", "armed": false}, "ekf": {"attitude": {"roll": -0.023846503347158432, "pitch": -0.02011914923787117, "yaw": -2.890305995941162}, "local_position": {"x": null, "y": null, "z": null}, "status": {"flags": 135, "velocity_variance": 0.0, "pos_horiz_variance": 0.015612148679792881, "pos_vert_variance": 0.018028680235147476}}, "errors": []}
{"timestamp": "2026-01-29T12:13:31.448967Z", "telemetry": {"lat": 0.0, "lon": 0.0, "satellites": 0, "altitude_gps_m": -0.10999999940395355, "groundspeed_mps": 0.06724502891302109}, "flight": {"mode": "STABILIZE", "armed": false}, "ekf": {"attitude": {"roll": -0.023869000375270844, "pitch": -0.019933581352233887, "yaw": -2.890535831451416}, "local_position": {"x": null, "y": null, "z": null}, "status": {"flags": 135, "velocity_variance": 0.0, "pos_horiz_variance": 0.016044309362769127, "pos_vert_variance": 0.00563383474946022}}, "errors": ["PreArm: RC not found", "PreArm: Hardware safety switch", "PreArm: Compasses inconsistent"]}
{"timestamp": "2026-01-29T12:13:32.449303Z", "telemetry": {"lat": 0.0, "lon": 0.0, "satellites": 0, "altitude_gps_m": -0.10999999940395355, "groundspeed_mps": 0.06746623665094376}, "flight": {"mode": "STABILIZE", "armed": false}, "ekf": {"attitude": {"roll": -0.023958072066307068, "pitch": -0.019992725923657417, "yaw": -2.8907713890075684}, "local_position": {"x": null, "y": null, "z": null}, "status": {"flags": 135, "velocity_variance": 0.0, "pos_horiz_variance": 0.016259094700217247, "pos_vert_variance": 0.04284017160534859}}, "errors": ["PreArm: RC not found", "PreArm: Hardware safety switch", "PreArm: Compasses inconsistent"]}
{"timestamp": "2026-01-29T12:13:33.450226Z", "telemetry": {"lat": 0.0, "lon": 0.0, "satellites": 0, "altitude_gps_m": -0.10999999940395355, "groundspeed_mps": 0.0683756023645401}, "flight": {"mode": "STABILIZE", "armed": false}, "ekf": {"attitude": {"roll": -0.024235974997282028, "pitch": -0.02051490545272827, "yaw": -2.8907861709594727}, "local_position": {"x": null, "y": null, "z": null}, "status": {"flags": 135, "velocity_variance": 0.0, "pos_horiz_variance": 0.01645057275891304, "pos_vert_variance": 0.026098938658833504}}, "errors": ["PreArm: RC not found", "PreArm: Hardware safety switch", "PreArm: Compasses inconsistent"]}
{"timestamp": "2026-01-29T12:13:34.449635Z", "telemetry": {"lat": 0.0, "lon": 0.0, "satellites": 0, "altitude_gps_m": -0.10999999940395355, "groundspeed_mps": 0.06997304409742355}, "flight": {"mode": "STABILIZE", "armed": false}, "ekf": {"attitude": {"roll": -0.024000931531190872, "pitch": -0.019923394545912743, "yaw": -2.891017436981201}, "local_position": {"x": null, "y": null, "z": null}, "status": {"flags": 135, "velocity_variance": 0.0, "pos_horiz_variance": 0.016610408201813698, "pos_vert_variance": 0.04058171436190605}}, "errors": ["PreArm: RC not found", "PreArm: Hardware safety switch", "PreArm: Compasses inconsistent"]}
{"timestamp": "2026-01-29T12:13:35.448845Z", "telemetry": {"lat": 0.0, "lon": 0.0, "satellites": 0, "altitude_gps_m": -0.10999999940395355, "groundspeed_mps": 0.06809236854314804}, "flight": {"mode": "STABILIZE", "armed": false}, "ekf": {"attitude": {"roll": -0.024065133184194565, "pitch": -0.01982126757502556, "yaw": -2.891223192214966}, "local_position": {"x": null, "y": null, "z": null}, "status": {"flags": 135, "velocity_variance": 0.0, "pos_horiz_variance": 0.01670268177986145, "pos_vert_variance": 0.02466515824198723}}, "errors": ["PreArm: RC not found", "PreArm: Hardware safety switch", "PreArm: Compasses inconsistent"]}
{"timestamp": "2026-01-29T12:13:36.450066Z", "telemetry": {"lat": 0.0, "lon": 0.0, "satellites": 0, "altitude_gps_m": -0.10999999940395355, "groundspeed_mps": 0.06645283848047256}, "flight": {"mode": "STABILIZE", "armed": false}, "ekf": {"attitude": {"roll": -0.02435964159667492, "pitch": -0.019658582285046577, "yaw": -2.8913350105285645}, "local_position": {"x": null, "y": null, "z": null}, "status": {"flags": 135, "velocity_variance": 0.0, "pos_horiz_variance": 0.01653004251420498, "pos_vert_variance": 0.06375943869352341}}, "errors": ["PreArm: RC not found", "PreArm: Hardware safety switch", "PreArm: Compasses inconsistent"]}
{"timestamp": "2026-01-29T12:13:37.448593Z", "telemetry": {"lat": 0.0, "lon": 0.0, "satellites": 0, "altitude_gps_m": -0.10999999940395355, "groundspeed_mps": 0.06396624445915222}, "flight": {"mode": "STABILIZE", "armed": false}, "ekf": {"attitude": {"roll": -0.02442881092429161, "pitch": -0.019634872674942017, "yaw": -2.8916568756103516}, "local_position": {"x": null, "y": null, "z": null}, "status": {"flags": 135, "velocity_variance": 0.0, "pos_horiz_variance": 0.016003591939806938, "pos_vert_variance": 0.08340327441692352}}, "errors": ["PreArm: RC not found", "PreArm: Hardware safety switch", "PreArm: Compasses inconsistent"]}
{"timestamp": "2026-01-29T12:13:38.449476Z", "telemetry": {"lat": 0.0, "lon": 0.0, "satellites": 0, "altitude_gps_m": -0.10999999940395355, "groundspeed_mps": 0.06406832486391068}, "flight": {"mode": "STABILIZE", "armed": false}, "ekf": {"attitude": {"roll": -0.024546949192881584, "pitch": -0.019533785060048103, "yaw": -2.891888380050659}, "local_position": {"x": null, "y": null, "z": null}, "status": {"flags": 135, "velocity_variance": 0.0, "pos_horiz_variance": 0.015733005478978157, "pos_vert_variance": 0.008079210296273232}}, "errors": ["PreArm: RC not found", "PreArm: Hardware safety switch", "PreArm: Compasses inconsistent"]}
{"timestamp": "2026-01-29T12:13:39.448607Z", "telemetry": {"lat": 0.0, "lon": 0.0, "satellites": 0, "altitude_gps_m": -0.10999999940395355, "groundspeed_mps": 0.06391781568527222}, "flight": {"mode": "STABILIZE", "armed": false}, "ekf": {"attitude": {"roll": -0.024541184306144714, "pitch": -0.0193539559841156, "yaw": -2.8921046257019043}, "local_position": {"x": null, "y": null, "z": null}, "status": {"flags": 135, "velocity_variance": 0.0, "pos_horiz_variance": 0.015678372234106064, "pos_vert_variance": 0.0473448783159256}}, "errors": ["PreArm: RC not found", "PreArm: Hardware safety switch", "PreArm: Compasses inconsistent"]}
{"timestamp": "2026-01-29T12:13:40.449361Z", "telemetry": {"lat": 0.0, "lon": 0.0, "satellites": 0, "altitude_gps_m": -0.10999999940395355, "groundspeed_mps": 0.06339278072118759}, "flight": {"mode": "STABILIZE", "armed": false}, "ekf": {"attitude": {"roll": -0.02465423196554184, "pitch": -0.01944800280034542, "yaw": -2.892287015914917}, "local_position": {"x": null, "y": null, "z": null}, "status": {"flags": 135, "velocity_variance": 0.0, "pos_horiz_variance": 0.015512606129050255, "pos_vert_variance": 0.08407323807477951}}, "errors": ["PreArm: RC not found", "PreArm: Hardware safety switch", "PreArm: Compasses inconsistent"]}
{"timestamp": "2026-01-29T12:13:41.467006Z", "telemetry": {"lat": 0.0, "lon": 0.0, "satellites": 0, "altitude_gps_m": -0.10999999940395355, "groundspeed_mps": 0.061088766902685165}, "flight": {"mode": "STABILIZE", "armed": false}, "ekf": {"attitude": {"roll": -0.02471986599266529, "pitch": -0.019514601677656174, "yaw": -2.892549514770508}, "local_position": {"x": null, "y": null, "z": null}, "status": {"flags": 135, "velocity_variance": 0.0, "pos_horiz_variance": 0.015269087627530098, "pos_vert_variance": 0.047328609973192215}}, "errors": ["PreArm: RC not found", "PreArm: Hardware safety switch", "PreArm: Compasses inconsistent"]}
{"timestamp": "2026-01-29T12:13:42.449442Z", "telemetry": {"lat": 0.0, "lon": 0.0, "satellites": 0, "altitude_gps_m": -0.10999999940395355, "groundspeed_mps": 0.06067487969994545}, "flight": {"mode": "STABILIZE", "armed": false}, "ekf": {"attitude": {"roll": -0.024705328047275543, "pitch": -0.01935391314327717, "yaw": -2.8928844928741455}, "local_position": {"x": null, "y": null, "z": null}, "status": {"flags": 135, "velocity_variance": 0.0, "pos_horiz_variance": 0.015189499594271183, "pos_vert_variance": 0.03870617598295212}}, "errors": ["PreArm: RC not found", "PreArm: Hardware safety switch", "PreArm: Compasses inconsistent"]}
{"timestamp": "2026-01-29T12:13:43.448564Z", "telemetry": {"lat": 0.0, "lon": 0.0, "satellites": 0, "altitude_gps_m": -0.10999999940395355, "groundspeed_mps": 0.05955033376812935}, "flight": {"mode": "STABILIZE", "armed": false}, "ekf": {"attitude": {"roll": -0.024778440594673157, "pitch": -0.01932341791689396, "yaw": -2.893068552017212}, "local_position": {"x": null, "y": null, "z": null}, "status": {"flags": 135, "velocity_variance": 0.0, "pos_horiz_variance": 0.014938034117221832, "pos_vert_variance": 0.028045007959008217}}, "errors": ["PreArm: RC not found", "PreArm: Hardware safety switch", "PreArm: Compasses inconsistent"]}
{"timestamp": "2026-01-29T12:13:44.450555Z", "telemetry": {"lat": 0.0, "lon": 0.0, "satellites": 0, "altitude_gps_m": -0.10999999940395355, "groundspeed_mps": 0.05470975488424301}, "flight": {"mode": "STABILIZE", "armed": false}, "ekf": {"attitude": {"roll": -0.024567576125264168, "pitch": -0.019063390791416168, "yaw": -2.8933727741241455}, "local_position": {"x": null, "y": null, "z": null}, "status": {"flags": 135, "velocity_variance": 0.0, "pos_horiz_variance": 0.014492548070847988, "pos_vert_variance": 0.07619508355855942}}, "errors": ["PreArm: RC not found", "PreArm: Hardware safety switch", "PreArm: Compasses inconsistent"]}
{"timestamp": "2026-01-29T12:13:45.448573Z", "telemetry": {"lat": 0.0, "lon": 0.0, "satellites": 0, "altitude_gps_m": -0.10999999940395355, "groundspeed_mps": 0.056774038821458817}, "flight": {"mode": "STABILIZE", "armed": false}, "ekf": {"attitude": {"roll": -0.024625958874821663, "pitch": -0.019422918558120728, "yaw": -2.893566370010376}, "local_position": {"x": null, "y": null, "z": null}, "status": {"flags": 135, "velocity_variance": 0.0, "pos_horiz_variance": 0.014344830065965652, "pos_vert_variance": 0.019325923174619675}}, "errors": ["PreArm: RC not found", "PreArm: Hardware safety switch", "PreArm: Compasses inconsistent"]}
