{"timestamp": "2026-01-29T08:59:32.543267Z", "telemetry": {"lat": 0.0, "lon": 0.0, "satellites": 0, "altitude_gps_m": -0.07000000029802322, "groundspeed_mps": 0.09410636126995087}, "flight": {"mode": "STABILIZE", "armed": false}, "ekf": {"attitude": {"roll": -0.028537727892398834, "pitch": -0.029041750356554985, "yaw": -3.0286524295806885}, "local_position": {"x": null, "y": null, "z": null}, "status": {"flags": 135, "velocity_variance": 0.0, "pos_horiz_variance": 0.020261259749531746, "pos_vert_variance": 0.04167015105485916}}, "errors": []}
{"timestamp": "2026-01-29T08:59:33.582217Z", "telemetry": {"lat": 0.0, "lon": 0.0, "satellites": 0, "altitude_gps_m": -0.07000000029802322, "groundspeed_mps": 0.09991610050201416}, "flight": {"mode": "STABILIZE", "armed": false}, "ekf": {"attitude": {"roll": -0.0284280963242054, "pitch": -0.02932894229888916, "yaw": -3.0290634632110596}, "local_position": {"x": null, "y": null, "z": null}, "status": {"flags": 135, "velocity_variance": 0.0, "pos_horiz_variance": 0.021650215610861778, "pos_vert_variance": 0.01566353067755699}}, "errors": []}
{"timestamp": "2026-01-29T08:59:34.659047Z", "telemetry": {"lat": 0.0, "lon": 0.0, "satellites": 0, "altitude_gps_m": -0.07000000029802322, "groundspeed_mps": 0.10578654706478119}, "flight": {"mode": "STABILIZE", "armed": false}, "ekf": {"attitude": {"roll": -0.02838432602584362, "pitch": -0.029657430946826935, "yaw": -3.0293028354644775}, "local_position": {"x": null, "y": null, "z": null}, "status": {"flags": 135, "velocity_variance": 0.0, "pos_horiz_variance": 0.022898640483617783, "pos_vert_variance": 0.020025910809636116}}, "errors": []}
{"timestamp": "2026-01-29T08:59:35.697419Z", "telemetry": {"lat": 0.0, "lon": 0.0, "satellites": 0, "altitude_gps_m": -0.07000000029802322, "groundspeed_mps": 0.11233547329902649}, "flight": {"mode": "STABILIZE", "armed": false}, "ekf": {"attitude": {"roll": -0.02824750728905201, "pitch": -0.029840990900993347, "yaw": -3.0291244983673096}, "local_position": {"x": null, "y": null, "z": null}, "status": {"flags": 135, "velocity_variance": 0.0, "pos_horiz_variance": 0.02479633316397667, "pos_vert_variance": 0.002531475620344281}}, "errors": []}
{"timestamp": "2026-01-29T08:59:36.696408Z", "telemetry": {"lat": 0.0, "lon": 0.0, "satellites": 0, "altitude_gps_m": -0.07000000029802322, "groundspeed_mps": 0.1175839900970459}, "flight": {"mode": "STABILIZE", "armed": false}, "ekf": {"attitude": {"roll": -0.028208859264850616, "pitch": -0.030095800757408142, "yaw": -3.0287342071533203}, "local_position": {"x": null, "y": null, "z": null}, "status": {"flags": 135, "velocity_variance": 0.0, "pos_horiz_variance": 0.02623283676803112, "pos_vert_variance": 0.023357927799224854}}, "errors": []}
{"timestamp": "2026-01-29T08:59:37.695409Z", "telemetry": {"lat": 0.0, "lon": 0.0, "satellites": 0, "altitude_gps_m": -0.07000000029802322, "groundspeed_mps": 0.12107837200164795}, "flight": {"mode": "STABILIZE", "armed": false}, "ekf": {"attitude": {"roll": -0.028185049071907997, "pitch": -0.0303220022469759, "yaw": -3.0292985439300537}, "local_position": {"x": null, "y": null, "z": null}, "status": {"flags": 135, "velocity_variance": 0.0, "pos_horiz_variance": 0.027426714077591896, "pos_vert_variance": 0.0841282457113266}}, "errors": []}
{"timestamp": "2026-01-29T08:59:38.694366Z", "telemetry": {"lat": 0.0, "lon": 0.0, "satellites": 0, "altitude_gps_m": -0.07000000029802322, "groundspeed_mps": 0.12329050153493881}, "flight": {"mode": "STABILIZE", "armed": false}, "ekf": {"attitude": {"roll": -0.028295889496803284, "pitch": -0.030555324628949165, "yaw": -3.0292983055114746}, "local_position": {"x": null, "y": null, "z": null}, "status": {"flags": 135, "velocity_variance": 0.0, "pos_horiz_variance": 0.028377939015626907, "pos_vert_variance": 0.016104917973279953}}, "errors": []}
{"timestamp": "2026-01-29T08:59:39.694386Z", "telemetry": {"lat": 0.0, "lon": 0.0, "satellites": 0, "altitude_gps_m": -0.07000000029802322, "groundspeed_mps": 0.12753833830356598}, "flight": {"mode": "STABILIZE", "armed": false}, "ekf": {"attitude": {"roll": -0.028396092355251312, "pitch": -0.03064669482409954, "yaw": -3.02966570854187}, "local_position": {"x": null, "y": null, "z": null}, "status": {"flags": 135, "velocity_variance": 0.0, "pos_horiz_variance": 0.029297050088644028, "pos_vert_variance": 0.07630688697099686}}, "errors": []}
{"timestamp": "2026-01-29T08:59:40.694712Z", "telemetry": {"lat": 0.0, "lon": 0.0, "satellites": 0, "altitude_gps_m": -0.07000000029802322, "groundspeed_mps": 0.1301463544368744}, "flight": {"mode": "STABILIZE", "armed": false}, "ekf": {"attitude": {"roll": -0.028434816747903824, "pitch": -0.03074708580970764, "yaw": -3.029456377029419}, "local_position": {"x": null, "y": null, "z": null}, "status": {"flags": 135, "velocity_variance": 0.0, "pos_horiz_variance": 0.030336376279592514, "pos_vert_variance": 0.00339319440536201}}, "errors": []}
{"timestamp": "2026-01-29T08:59:41.694959Z", "telemetry": {"lat": 0.0, "lon": 0.0, "satellites": 0, "altitude_gps_m": -0.07000000029802322, "groundspeed_mps": 0.13607841730117798}, "flight": {"mode": "STABILIZE", "armed": false}, "ekf": {"attitude": {"roll": -0.028624799102544785, "pitch": -0.031037727370858192, "yaw": -3.02951717376709}, "local_position": {"x": null, "y": null, "z": null}, "status": {"flags": 135, "velocity_variance": 0.0, "pos_horiz_variance": 0.031423863023519516, "pos_vert_variance": 0.046863459050655365}}, "errors": []}
{"timestamp": "2026-01-29T08:59:42.696258Z", "telemetry": {"lat": 0.0, "lon": 0.0, "satellites": 0, "altitude_gps_m": -0.07000000029802322, "groundspeed_mps": 0.136189267039299}, "flight": {"mode": "STABILIZE", "armed": false}, "ekf": {"attitude": {"roll": -0.028549805283546448, "pitch": -0.031275421380996704, "yaw": -3.0292985439300537}, "local_position": {"x": null, "y": null, "z": null}, "status": {"flags": 135, "velocity_variance": 0.0, "pos_horiz_variance": 0.03224002197384834, "pos_vert_variance": 0.06464720517396927}}, "errors": []}
{"timestamp": "2026-01-29T08:59:43.695442Z", "telemetry": {"lat": 0.0, "lon": 0.0, "satellites": 0, "altitude_gps_m": -0.07000000029802322, "groundspeed_mps": 0.13820214569568634}, "flight": {"mode": "STABILIZE", "armed": false}, "ekf": {"attitude": {"roll": -0.02856750413775444, "pitch": -0.03156707435846329, "yaw": -3.0293595790863037}, "local_position": {"x": null, "y": null, "z": null}, "status": {"flags": 135, "velocity_variance": 0.0, "pos_horiz_variance": 0.032933007925748825, "pos_vert_variance": 0.11258966475725174}}, "errors": []}
{"timestamp": "2026-01-29T08:59:44.695616Z", "telemetry": {"lat": 0.0, "lon": 0.0, "satellites": 0, "altitude_gps_m": -0.07000000029802322, "groundspeed_mps": 0.14569289982318878}, "flight": {"mode": "STABILIZE", "armed": false}, "ekf": {"attitude": {"roll": -0.02840995229780674, "pitch": -0.032185230404138565, "yaw": -3.028623104095459}, "local_position": {"x": null, "y": null, "z": null}, "status": {"flags": 135, "velocity_variance": 0.0, "pos_horiz_variance": 0.03359995409846306, "pos_vert_variance": 0.07963264733552933}}, "errors": []}
{"timestamp": "2026-01-29T08:59:45.695772Z", "telemetry": {"lat": 0.0, "lon": 0.0, "satellites": 0, "altitude_gps_m": -0.07000000029802322, "groundspeed_mps": 0.147012397646904}, "flight": {"mode": "STABILIZE", "armed": false}, "ekf": {"attitude": {"roll": -0.028583094477653503, "pitch": -0.031979724764823914, "yaw": -3.0284032821655273}, "local_position": {"x": null, "y": null, "z": null}, "status": {"flags": 135, "velocity_variance": 0.0, "pos_horiz_variance": 0.0344281829893589, "pos_vert_variance": 0.05447027087211609}}, "errors": []}
{"timestamp": "2026-01-29T08:59:46.696026Z", "telemetry": {"lat": 0.0, "lon": 0.0, "satellites": 0, "altitude_gps_m": -0.07000000029802322, "groundspeed_mps": 0.1537124067544937}, "flight": {"mode": "STABILIZE", "armed": false}, "ekf": {"attitude": {"roll": -0.028728142380714417, "pitch": -0.031997691839933395, "yaw": -3.027827739715576}, "local_position": {"x": null, "y": null, "z": null}, "status": {"flags": 135, "velocity_variance": 0.0, "pos_horiz_variance": 0.03559313714504242, "pos_vert_variance": 0.007426355965435505}}, "errors": []}
{"timestamp": "2026-01-29T08:59:47.696156Z", "telemetry": {"lat": 0.0, "lon": 0.0, "satellites": 0, "altitude_gps_m": -0.07000000029802322, "groundspeed_mps": 0.15863347053527832}, "flight": {"mode": "STABILIZE", "armed": false}, "ekf": {"attitude": {"roll": -0.02836623229086399, "pitch": -0.03225897252559662, "yaw": -3.028076171875}, "local_position": {"x": null, "y": null, "z": null}, "status": {"flags": 135, "velocity_variance": 0.0, "pos_horiz_variance": 0.0370524525642395, "pos_vert_variance": 0.004099761135876179}}, "errors": []}
{"timestamp": "2026-01-29T08:59:48.696219Z", "telemetry": {"lat": 0.0, "lon": 0.0, "satellites": 0, "altitude_gps_m": -0.07000000029802322, "groundspeed_mps": 0.15946103632450104}, "flight": {"mode": "STABILIZE", "armed": false}, "ekf": {"attitude": {"roll": -0.028350286185741425, "pitch": -0.032326217740774155, "yaw": -3.0279860496520996}, "local_position": {"x": null, "y": null, "z": null}, "status": {"flags": 135, "velocity_variance": 0.0, "pos_horiz_variance": 0.03774946182966232, "pos_vert_variance": 0.03293418139219284}}, "errors": []}
{"timestamp": "2026-01-29T08:59:49.658959Z", "telemetry": {"lat": 0.0, "lon": 0.0, "satellites": 0, "altitude_gps_m": -0.07000000029802322, "groundspeed_mps": 0.1604914665222168}, "flight": {"mode": "STABILIZE", "armed": false}, "ekf": {"attitude": {"roll": -0.028324086219072342, "pitch": -0.03245740383863449, "yaw": -3.028355121612549}, "local_position": {"x": null, "y": null, "z": null}, "status": {"flags": 135, "velocity_variance": 0.0, "pos_horiz_variance": 0.03821161761879921, "pos_vert_variance": 0.0043997252359986305}}, "errors": []}
{"timestamp": "2026-01-29T08:59:50.658589Z", "telemetry": {"lat": 0.0, "lon": 0.0, "satellites": 0, "altitude_gps_m": -0.07000000029802322, "groundspeed_mps": 0.16632060706615448}, "flight": {"mode": "STABILIZE", "armed": false}, "ekf": {"attitude": {"roll": -0.028300117701292038, "pitch": -0.03254527971148491, "yaw": -3.0285096168518066}, "local_position": {"x": null, "y": null, "z": null}, "status": {"flags": 135, "velocity_variance": 0.0, "pos_horiz_variance": 0.03881736472249031, "pos_vert_variance": 0.07033479958772659}}, "errors": []}
{"timestamp": "2026-01-29T08:59:51.658198Z", "telemetry": {"lat": 0.0, "lon": 0.0, "satellites": 0, "altitude_gps_m": -0.07000000029802322, "groundspeed_mps": 0.16607706248760223}, "flight": {"mode": "STABILIZE", "armed": false}, "ekf": {"attitude": {"roll": -0.028225556015968323, "pitch": -0.032458700239658356, "yaw": -3.0285606384277344}, "local_position": {"x": null, "y": null, "z": null}, "status": {"flags": 135, "velocity_variance": 0.0, "pos_horiz_variance": 0.039750151336193085, "pos_vert_variance": 0.036870162934064865}}, "errors": []}
{"timestamp": "2026-01-29T08:59:52.658898Z", "telemetry": {"lat": 0.0, "lon": 0.0, "satellites": 0, "altitude_gps_m": -0.07000000029802322, "groundspeed_mps": 0.16613173484802246}, "flight": {"mode": "STABILIZE", "armed": false}, "ekf": {"attitude": {"roll": -0.028200458735227585, "pitch": -0.0323534719645977, "yaw": -3.0287086963653564}, "local_position": {"x": null, "y": null, "z": null}, "status": {"flags": 135, "velocity_variance": 0.0, "pos_horiz_variance": 0.04008732736110687, "pos_vert_variance": 0.08154727518558502}}, "errors": []}
{"timestamp": "2026-01-29T08:59:53.657901Z", "telemetry": {"lat": 0.0, "lon": 0.0, "satellites": 0, "altitude_gps_m": -0.07000000029802322, "groundspeed_mps": 0.16217637062072754}, "flight": {"mode": "STABILIZE", "armed": false}, "ekf": {"attitude": {"roll": -0.028026992455124855, "pitch": -0.03229683265089989, "yaw": -3.0288379192352295}, "local_position": {"x": null, "y": null, "z": null}, "status": {"flags": 135, "velocity_variance": 0.0, "pos_horiz_variance": 0.03996993601322174, "pos_vert_variance": 0.01871643029153347}}, "errors": []}
{"timestamp": "2026-01-29T08:59:54.657547Z", "telemetry": {"lat": 0.0, "lon": 0.0, "satellites": 0, "altitude_gps_m": -0.07000000029802322, "groundspeed_mps": 0.16056464612483978}, "flight": {"mode": "STABILIZE", "armed": false}, "ekf": {"attitude": {"roll": -0.02792081981897354, "pitch": -0.03232063353061676, "yaw": -3.028635263442993}, "local_position": {"x": null, "y": null, "z": null}, "status": {"flags": 135, "velocity_variance": 0.0, "pos_horiz_variance": 0.0394904650747776, "pos_vert_variance": 0.037595126777887344}}, "errors": []}
{"timestamp": "2026-01-29T08:59:55.657855Z", "telemetry": {"lat": 0.0, "lon": 0.0, "satellites": 0, "altitude_gps_m": -0.07000000029802322, "groundspeed_mps": 0.15851806104183197}, "flight": {"mode": "STABILIZE", "armed": false}, "ekf": {"attitude": {"roll": -0.027985617518424988, "pitch": -0.032335441559553146, "yaw": -3.02848219871521}, "local_position": {"x": null, "y": null, "z": null}, "status": {"flags": 135, "velocity_variance": 0.0, "pos_horiz_variance": 0.03913462907075882, "pos_vert_variance": 0.027448264881968498}}, "errors": []}
{"timestamp": "2026-01-29T08:59:56.658537Z", "telemetry": {"lat": 0.0, "lon": 0.0, "satellites": 0, "altitude_gps_m": -0.07000000029802322, "groundspeed_mps": 0.1546657681465149}, "flight": {"mode": "STABILIZE", "armed": false}, "ekf": {"attitude": {"roll": -0.028086671605706215, "pitch": -0.03221181035041809, "yaw": -3.028576612472534}, "local_position": {"x": null, "y": null, "z": null}, "status": {"flags": 135, "velocity_variance": 0.0, "pos_horiz_variance": 0.038326162844896317, "pos_vert_variance": 0.06308493763208389}}, "errors": []}
{"timestamp": "2026-01-29T08:59:57.657439Z", "telemetry": {"lat": 0.0, "lon": 0.0, "satellites": 0, "altitude_gps_m": -0.07000000029802322, "groundspeed_mps": 0.1569388061761856}, "flight": {"mode": "STABILIZE", "armed": false}, "ekf": {"attitude": {"roll": -0.02821432054042816, "pitch": -0.032215483486652374, "yaw": -3.0285286903381348}, "local_position": {"x": null, "y": null, "z": null}, "status": {"flags": 135, "velocity_variance": 0.0, "pos_horiz_variance": 0.03808140382170677, "pos_vert_variance": 0.009760066866874695}}, "errors": []}
{"timestamp": "2026-01-29T08:59:58.695417Z", "telemetry": {"lat": 0.0, "lon": 0.0, "satellites": 0, "altitude_gps_m": -0.07000000029802322, "groundspeed_mps": 0.15594390034675598}, "flight": {"mode": "STABILIZE", "armed": false}, "ekf": {"attitude": {"roll": -0.028297245502471924, "pitch": -0.032381851226091385, "yaw": -3.0287370681762695}, "local_position": {"x": null, "y": null, "z": null}, "status": {"flags": 135, "velocity_variance": 0.0, "pos_horiz_variance": 0.03820955008268356, "pos_vert_variance": 0.009048094041645527}}, "errors": []}
{"timestamp": "2026-01-29T08:59:59.695251Z", "telemetry": {"lat": 0.0, "lon": 0.0, "satellites": 0, "altitude_gps_m": -0.07000000029802322, "groundspeed_mps": 0.1630839705467224}, "flight": {"mode": "STABILIZE", "armed": false}, "ekf": {"attitude": {"roll": -0.028273828327655792, "pitch": -0.03240213543176651, "yaw": -3.0283780097961426}, "local_position": {"x": null, "y": null, "z": null}, "status": {"flags": 135, "velocity_variance": 0.0, "pos_horiz_variance": 0.03852488473057747, "pos_vert_variance": 0.024931132793426514}}, "errors": []}
{"timestamp": "2026-01-29T09:00:00.695134Z", "telemetry": {"lat": 0.0, "lon": 0.0, "satellites": 0, "altitude_gps_m": -0.07000000029802322, "groundspeed_mps": 0.16654275357723236}, "flight": {"mode": "STABILIZE", "armed": false}, "ekf": {"attitude": {"roll": -0.02831144817173481, "pitch": -0.03237944841384888, "yaw": -3.028118133544922}, "local_position": {"x": null, "y": null, "z": null}, "status": {"flags": 135, "velocity_variance": 0.0, "pos_horiz_variance": 0.039494067430496216, "pos_vert_variance": 0.03546327352523804}}, "errors": ["PreArm: RC not found", "PreArm: Hardware safety switch", "PreArm: Compasses inconsistent"]}
{"timestamp": "2026-01-29T09:00:01.694838Z", "telemetry": {"lat": 0.0, "lon": 0.0, "satellites": 0, "altitude_gps_m": -0.07000000029802322, "groundspeed_mps": 0.1665278673171997}, "flight": {"mode": "STABILIZE", "armed": false}, "ekf": {"attitude": {"roll": -0.028493134304881096, "pitch": -0.032216139137744904, "yaw": -3.027884006500244}, "local_position": {"x": null, "y": null, "z": null}, "status": {"flags": 135, "velocity_variance": 0.0, "pos_horiz_variance": 0.04027143865823746, "pos_vert_variance": 0.06819916516542435}}, "errors": ["PreArm: RC not found", "PreArm: Hardware safety switch", "PreArm: Compasses inconsistent"]}
{"timestamp": "2026-01-29T09:00:02.694398Z", "telemetry": {"lat": 0.0, "lon": 0.0, "satellites": 0, "altitude_gps_m": -0.07000000029802322, "groundspeed_mps": 0.16247041523456573}, "flight": {"mode": "STABILIZE", "armed": false}, "ekf": {"attitude": {"roll": -0.02833802066743374, "pitch": -0.03208829462528229, "yaw": -3.028182029724121}, "local_position": {"x": null, "y": null, "z": null}, "status": {"flags": 135, "velocity_variance": 0.0, "pos_horiz_variance": 0.04012925922870636, "pos_vert_variance": 0.002847509691491723}}, "errors": ["PreArm: RC not found", "PreArm: Hardware safety switch", "PreArm: Compasses inconsistent"]}
{"timestamp": "2026-01-29T09:00:03.694304Z", "telemetry": {"lat": 0.0, "lon": 0.0, "satellites": 0, "altitude_gps_m": -0.07000000029802322, "groundspeed_mps": 0.16208592057228088}, "flight": {"mode": "STABILIZE", "armed": false}, "ekf": {"attitude": {"roll": -0.028236864134669304, "pitch": -0.032100655138492584, "yaw": -3.028688907623291}, "local_position": {"x": null, "y": null, "z": null}, "status": {"flags": 135, "velocity_variance": 0.0, "pos_horiz_variance": 0.039735130965709686, "pos_vert_variance": 0.002012259792536497}}, "errors": ["PreArm: RC not found", "PreArm: Hardware safety switch", "PreArm: Compasses inconsistent"]}
{"timestamp": "2026-01-29T09:00:04.694087Z", "telemetry": {"lat": 0.0, "lon": 0.0, "satellites": 0, "altitude_gps_m": -0.07000000029802322, "groundspeed_mps": 0.16159598529338837}, "flight": {"mode": "STABILIZE", "armed": false}, "ekf": {"attitude": {"roll": -0.028074607253074646, "pitch": -0.0321512371301651, "yaw": -3.028862714767456}, "local_position": {"x": null, "y": null, "z": null}, "status": {"flags": 135, "velocity_variance": 0.0, "pos_horiz_variance": 0.03958597779273987, "pos_vert_variance": 0.026850536465644836}}, "errors": ["PreArm: RC not found", "PreArm: Hardware safety switch", "PreArm: Compasses inconsistent"]}
{"timestamp": "2026-01-29T09:00:05.693889Z", "telemetry": {"lat": 0.0, "lon": 0.0, "satellites": 0, "altitude_gps_m": -0.07000000029802322, "groundspeed_mps": 0.16195251047611237}, "flight": {"mode": "STABILIZE", "armed": false}, "ekf": {"attitude": {"roll": -0.027906261384487152, "pitch": -0.032054353505373, "yaw": -3.028784990310669}, "local_position": {"x": null, "y": null, "z": null}, "status": {"flags": 135, "velocity_variance": 0.0, "pos_horiz_variance": 0.03934359923005104, "pos_vert_variance": 0.05907047539949417}}, "errors": ["PreArm: RC not found", "PreArm: Hardware safety switch", "PreArm: Compasses inconsistent"]}
{"timestamp": "2026-01-29T09:00:06.693333Z", "telemetry": {"lat": 0.0, "lon": 0.0, "satellites": 0, "altitude_gps_m": -0.07000000029802322, "groundspeed_mps": 0.16116954386234283}, "flight": {"mode": "STABILIZE", "armed": false}, "ekf": {"attitude": {"roll": -0.027944469824433327, "pitch": -0.032022953033447266, "yaw": -3.028895854949951}, "local_position": {"x": null, "y": null, "z": null}, "status": {"flags": 135, "velocity_variance": 0.0, "pos_horiz_variance": 0.039388030767440796, "pos_vert_variance": 0.03388749063014984}}, "errors": ["PreArm: RC not found", "PreArm: Hardware safety switch", "PreArm: Compasses inconsistent"]}
{"timestamp": "2026-01-29T09:00:07.693248Z", "telemetry": {"lat": 0.0, "lon": 0.0, "satellites": 0, "altitude_gps_m": -0.07000000029802322, "groundspeed_mps": 0.15776121616363525}, "flight": {"mode": "STABILIZE", "armed": false}, "ekf": {"attitude": {"roll": -0.02808098867535591, "pitch": -0.03203808143734932, "yaw": -3.0285098552703857}, "local_position": {"x": null, "y": null, "z": null}, "status": {"flags": 135, "velocity_variance": 0.0, "pos_horiz_variance": 0.038963332772254944, "pos_vert_variance": 0.016026616096496582}}, "errors": ["PreArm: RC not found", "PreArm: Hardware safety switch", "PreArm: Compasses inconsistent"]}
{"timestamp": "2026-01-29T09:00:08.693007Z", "telemetry": {"lat": 0.0, "lon": 0.0, "satellites": 0, "altitude_gps_m": -0.07000000029802322, "groundspeed_mps": 0.1569700390100479}, "flight": {"mode": "STABILIZE", "armed": false}, "ekf": {"attitude": {"roll": -0.028012733906507492, "pitch": -0.03204809129238129, "yaw": -3.0283358097076416}, "local_position": {"x": null, "y": null, "z": null}, "status": {"flags": 135, "velocity_variance": 0.0, "pos_horiz_variance": 0.03860859200358391, "pos_vert_variance": 0.0647740587592125}}, "errors": ["PreArm: RC not found", "PreArm: Hardware safety switch", "PreArm: Compasses inconsistent"]}
{"timestamp": "2026-01-29T09:00:09.692796Z", "telemetry": {"lat": 0.0, "lon": 0.0, "satellites": 0, "altitude_gps_m": -0.07000000029802322, "groundspeed_mps": 0.15750880539417267}, "flight": {"mode": "STABILIZE", "armed": false}, "ekf": {"attitude": {"roll": -0.028206422924995422, "pitch": -0.0321640819311142, "yaw": -3.0283288955688477}, "local_position": {"x": null, "y": null, "z": null}, "status": {"flags": 135, "velocity_variance": 0.0, "pos_horiz_variance": 0.038474224507808685, "pos_vert_variance": 0.019904835149645805}}, "errors": ["PreArm: RC not found", "PreArm: Hardware safety switch", "PreArm: Compasses inconsistent"]}
{"timestamp": "2026-01-29T09:00:10.692425Z", "telemetry": {"lat": 0.0, "lon": 0.0, "satellites": 0, "altitude_gps_m": -0.07000000029802322, "groundspeed_mps": 0.16195274889469147}, "flight": {"mode": "STABILIZE", "armed": false}, "ekf": {"attitude": {"roll": -0.028230883181095123, "pitch": -0.032216962426900864, "yaw": -3.028109073638916}, "local_position": {"x": null, "y": null, "z": null}, "status": {"flags": 135, "velocity_variance": 0.0, "pos_horiz_variance": 0.03863482177257538, "pos_vert_variance": 0.019350575283169746}}, "errors": ["PreArm: RC not found", "PreArm: Hardware safety switch", "PreArm: Compasses inconsistent"]}
{"timestamp": "2026-01-29T09:00:11.692110Z", "telemetry": {"lat": 0.0, "lon": 0.0, "satellites": 0, "altitude_gps_m": -0.07000000029802322, "groundspeed_mps": 0.1632159799337387}, "flight": {"mode": "STABILIZE", "armed": false}, "ekf": {"attitude": {"roll": -0.028201311826705933, "pitch": -0.032089874148368835, "yaw": -3.0280580520629883}, "local_position": {"x": null, "y": null, "z": null}, "status": {"flags": 135, "velocity_variance": 0.0, "pos_horiz_variance": 0.03931056335568428, "pos_vert_variance": 0.09600742906332016}}, "errors": ["PreArm: RC not found", "PreArm: Hardware safety switch", "PreArm: Compasses inconsistent"]}
{"timestamp": "2026-01-29T09:00:12.691937Z", "telemetry": {"lat": 0.0, "lon": 0.0, "satellites": 0, "altitude_gps_m": -0.07000000029802322, "groundspeed_mps": 0.16348764300346375}, "flight": {"mode": "STABILIZE", "armed": false}, "ekf": {"attitude": {"roll": -0.028113463893532753, "pitch": -0.03204232081770897, "yaw": -3.027987003326416}, "local_position": {"x": null, "y": null, "z": null}, "status": {"flags": 135, "velocity_variance": 0.0, "pos_horiz_variance": 0.0395667739212513, "pos_vert_variance": 0.08071509003639221}}, "errors": ["PreArm: RC not found", "PreArm: Hardware safety switch", "PreArm: Compasses inconsistent"]}
{"timestamp": "2026-01-29T09:00:13.691824Z", "telemetry": {"lat": 0.0, "lon": 0.0, "satellites": 0, "altitude_gps_m": -0.07000000029802322, "groundspeed_mps": 0.15897035598754883}, "flight": {"mode": "STABILIZE", "armed": false}, "ekf": {"attitude": {"roll": -0.027927642688155174, "pitch": -0.03208954632282257, "yaw": -3.027778148651123}, "local_position": {"x": null, "y": null, "z": null}, "status": {"flags": 135, "velocity_variance": 0.0, "pos_horiz_variance": 0.03926839306950569, "pos_vert_variance": 0.03782038018107414}}, "errors": ["PreArm: RC not found", "PreArm: Hardware safety switch", "PreArm: Compasses inconsistent"]}
{"timestamp": "2026-01-29T09:00:14.691311Z", "telemetry": {"lat": 0.0, "lon": 0.0, "satellites": 0, "altitude_gps_m": -0.07000000029802322, "groundspeed_mps": 0.1597192883491516}, "flight": {"mode": "STABILIZE", "armed": false}, "ekf": {"attitude": {"roll": -0.027783401310443878, "pitch": -0.032036226242780685, "yaw": -3.027865171432495}, "local_position": {"x": null, "y": null, "z": null}, "status": {"flags": 135, "velocity_variance": 0.0, "pos_horiz_variance": 0.03875994682312012, "pos_vert_variance": 0.06854970008134842}}, "errors": ["PreArm: RC not found", "PreArm: Hardware safety switch", "PreArm: Compasses inconsistent"]}
{"timestamp": "2026-01-29T09:00:15.692023Z", "telemetry": {"lat": 0.0, "lon": 0.0, "satellites": 0, "altitude_gps_m": -0.07000000029802322, "groundspeed_mps": 0.161656454205513}, "flight": {"mode": "STABILIZE", "armed": false}, "ekf": {"attitude": {"roll": -0.027612371370196342, "pitch": -0.03161783516407013, "yaw": -3.027724027633667}, "local_position": {"x": null, "y": null, "z": null}, "status": {"flags": 135, "velocity_variance": 0.0, "pos_horiz_variance": 0.03890655189752579, "pos_vert_variance": 0.003153466386720538}}, "errors": ["PreArm: RC not found", "PreArm: Hardware safety switch", "PreArm: Compasses inconsistent"]}
{"timestamp": "2026-01-29T09:00:16.690599Z", "telemetry": {"lat": 0.0, "lon": 0.0, "satellites": 0, "altitude_gps_m": -0.07000000029802322, "groundspeed_mps": 0.15919417142868042}, "flight": {"mode": "STABILIZE", "armed": false}, "ekf": {"attitude": {"roll": -0.027655959129333496, "pitch": -0.0319339856505394, "yaw": -3.0273277759552}, "local_position": {"x": null, "y": null, "z": null}, "status": {"flags": 135, "velocity_variance": 0.0, "pos_horiz_variance": 0.03878839313983917, "pos_vert_variance": 0.004389264155179262}}, "errors": ["PreArm: RC not found", "PreArm: Hardware safety switch", "PreArm: Compasses inconsistent"]}
{"timestamp": "2026-01-29T09:00:17.690153Z", "telemetry": {"lat": 0.0, "lon": 0.0, "satellites": 0, "altitude_gps_m": -0.07000000029802322, "groundspeed_mps": 0.15884287655353546}, "flight": {"mode": "STABILIZE", "armed": false}, "ekf": {"attitude": {"roll": -0.027667200192809105, "pitch": -0.03155633807182312, "yaw": -3.0271520614624023}, "local_position": {"x": null, "y": null, "z": null}, "status": {"flags": 135, "velocity_variance": 0.0, "pos_horiz_variance": 0.03863633796572685, "pos_vert_variance": 0.009413691237568855}}, "errors": ["PreArm: RC not found", "PreArm: Hardware safety switch", "PreArm: Compasses inconsistent"]}
{"timestamp": "2026-01-29T09:00:18.689947Z", "telemetry": {"lat": 0.0, "lon": 0.0, "satellites": 0, "altitude_gps_m": -0.07000000029802322, "groundspeed_mps": 0.15730150043964386}, "flight": {"mode": "STABILIZE", "armed": false}, "ekf": {"attitude": {"roll": -0.027743026614189148, "pitch": -0.03148195892572403, "yaw": -3.026914358139038}, "local_position": {"x": null, "y": null, "z": null}, "status": {"flags": 135, "velocity_variance": 0.0, "pos_horiz_variance": 0.03868751972913742, "pos_vert_variance": 0.010490724816918373}}, "errors": ["PreArm: RC not found", "PreArm: Hardware safety switch", "PreArm: Compasses inconsistent"]}
{"timestamp": "2026-01-29T09:00:19.689590Z", "telemetry": {"lat": 0.0, "lon": 0.0, "satellites": 0, "altitude_gps_m": -0.07000000029802322, "groundspeed_mps": 0.15437400341033936}, "flight": {"mode": "STABILIZE", "armed": false}, "ekf": {"attitude": {"roll": -0.027759110555052757, "pitch": -0.03140946850180626, "yaw": -3.026805877685547}, "local_position": {"x": null, "y": null, "z": null}, "status": {"flags": 135, "velocity_variance": 0.0, "pos_horiz_variance": 0.03831605985760689, "pos_vert_variance": 0.02965623140335083}}, "errors": ["PreArm: RC not found", "PreArm: Hardware safety switch", "PreArm: Compasses inconsistent"]}
{"timestamp": "2026-01-29T09:00:20.689181Z", "telemetry": {"lat": 0.0, "lon": 0.0, "satellites": 0, "altitude_gps_m": -0.07000000029802322, "groundspeed_mps": 0.1523573100566864}, "flight": {"mode": "STABILIZE", "armed": false}, "ekf": {"attitude": {"roll": -0.027840008959174156, "pitch": -0.03143538534641266, "yaw": -3.026907205581665}, "local_position": {"x": null, "y": null, "z": null}, "status": {"flags": 135, "velocity_variance": 0.0, "pos_horiz_variance": 0.037633463740348816, "pos_vert_variance": 0.010240426287055016}}, "errors": ["PreArm: RC not found", "PreArm: Hardware safety switch", "PreArm: Compasses inconsistent"]}
{"timestamp": "2026-01-29T09:00:21.689099Z", "telemetry": {"lat": 0.0, "lon": 0.0, "satellites": 0, "altitude_gps_m": -0.07000000029802322, "groundspeed_mps": 0.15267832577228546}, "flight": {"mode": "STABILIZE", "armed": false}, "ekf": {"attitude": {"roll": -0.02772488258779049, "pitch": -0.03147968649864197, "yaw": -3.0267300605773926}, "local_position": {"x": null, "y": null, "z": null}, "status": {"flags": 135, "velocity_variance": 0.0, "pos_horiz_variance": 0.03753296285867691, "pos_vert_variance": 0.05754214525222778}}, "errors": ["PreArm: RC not found", "PreArm: Hardware safety switch", "PreArm: Compasses inconsistent"]}
{"timestamp": "2026-01-29T09:00:22.689758Z", "telemetry": {"lat": 0.0, "lon": 0.0, "satellites": 0, "altitude_gps_m": -0.07000000029802322, "groundspeed_mps": 0.15096531808376312}, "flight": {"mode": "STABILIZE", "armed": false}, "ekf": {"attitude": {"roll": -0.027680186554789543, "pitch": -0.03144481033086777, "yaw": -3.0265560150146484}, "local_position": {"x": null, "y": null, "z": null}, "status": {"flags": 135, "velocity_variance": 0.0, "pos_horiz_variance": 0.03718734532594681, "pos_vert_variance": 0.05020032078027725}}, "errors": ["PreArm: RC not found", "PreArm: Hardware safety switch", "PreArm: Compasses inconsistent"]}
{"timestamp": "2026-01-29T09:00:23.688138Z", "telemetry": {"lat": 0.0, "lon": 0.0, "satellites": 0, "altitude_gps_m": -0.07000000029802322, "groundspeed_mps": 0.15182803571224213}, "flight": {"mode": "STABILIZE", "armed": false}, "ekf": {"attitude": {"roll": -0.02748814970254898, "pitch": -0.0314374715089798, "yaw": -3.0264148712158203}, "local_position": {"x": null, "y": null, "z": null}, "status": {"flags": 135, "velocity_variance": 0.0, "pos_horiz_variance": 0.036980364471673965, "pos_vert_variance": 0.07840566337108612}}, "errors": ["PreArm: RC not found", "PreArm: Hardware safety switch", "PreArm: Compasses inconsistent"]}
{"timestamp": "2026-01-29T09:00:24.688879Z", "telemetry": {"lat": 0.0, "lon": 0.0, "satellites": 0, "altitude_gps_m": -0.07000000029802322, "groundspeed_mps": 0.15250183641910553}, "flight": {"mode": "STABILIZE", "armed": false}, "ekf": {"attitude": {"roll": -0.027242131531238556, "pitch": -0.03139477223157883, "yaw": -3.0263752937316895}, "local_position": {"x": null, "y": null, "z": null}, "status": {"flags": 135, "velocity_variance": 0.0, "pos_horiz_variance": 0.037123311311006546, "pos_vert_variance": 0.047672368586063385}}, "errors": ["PreArm: RC not found", "PreArm: Hardware safety switch", "PreArm: Compasses inconsistent"]}
{"timestamp": "2026-01-29T09:00:25.688398Z", "telemetry": {"lat": 0.0, "lon": 0.0, "satellites": 0, "altitude_gps_m": -0.07000000029802322, "groundspeed_mps": 0.15025071799755096}, "flight": {"mode": "STABILIZE", "armed": false}, "ekf": {"attitude": {"roll": -0.027163958176970482, "pitch": -0.03130599856376648, "yaw": -3.026538848876953}, "local_position": {"x": null, "y": null, "z": null}, "status": {"flags": 135, "velocity_variance": 0.0, "pos_horiz_variance": 0.037065621465444565, "pos_vert_variance": 0.0470716655254364}}, "errors": ["PreArm: RC not found", "PreArm: Hardware safety switch", "PreArm: Compasses inconsistent"]}
{"timestamp": "2026-01-29T09:00:26.687957Z", "telemetry": {"lat": 0.0, "lon": 0.0, "satellites": 0, "altitude_gps_m": -0.07000000029802322, "groundspeed_mps": 0.15087200701236725}, "flight": {"mode": "STABILIZE", "armed": false}, "ekf": {"attitude": {"roll": -0.027137281373143196, "pitch": -0.03133689612150192, "yaw": -3.026683807373047}, "local_position": {"x": null, "y": null, "z": null}, "status": {"flags": 135, "velocity_variance": 0.0, "pos_horiz_variance": 0.036773692816495895, "pos_vert_variance": 0.05887690931558609}}, "errors": ["PreArm: RC not found", "PreArm: Hardware safety switch", "PreArm: Compasses inconsistent"]}
{"timestamp": "2026-01-29T09:00:27.687522Z", "telemetry": {"lat": 0.0, "lon": 0.0, "satellites": 0, "altitude_gps_m": -0.07000000029802322, "groundspeed_mps": 0.15112200379371643}, "flight": {"mode": "STABILIZE", "armed": false}, "ekf": {"attitude": {"roll": -0.027231961488723755, "pitch": -0.03128539025783539, "yaw": -3.026829957962036}, "local_position": {"x": null, "y": null, "z": null}, "status": {"flags": 135, "velocity_variance": 0.0, "pos_horiz_variance": 0.036867327988147736, "pos_vert_variance": 0.09832822531461716}}, "errors": ["PreArm: RC not found", "PreArm: Hardware safety switch", "PreArm: Compasses inconsistent"]}
{"timestamp": "2026-01-29T09:00:28.687262Z", "telemetry": {"lat": 0.0, "lon": 0.0, "satellites": 0, "altitude_gps_m": -0.07000000029802322, "groundspeed_mps": 0.1524244248867035}, "flight": {"mode": "STABILIZE", "armed": false}, "ekf": {"attitude": {"roll": -0.027331819757819176, "pitch": -0.03123873472213745, "yaw": -3.027078151702881}, "local_position": {"x": null, "y": null, "z": null}, "status": {"flags": 135, "velocity_variance": 0.0, "pos_horiz_variance": 0.036969248205423355, "pos_vert_variance": 0.011690478771924973}}, "errors": ["PreArm: RC not found", "PreArm: Hardware safety switch", "PreArm: Compasses inconsistent"]}
{"timestamp": "2026-01-29T09:00:29.687418Z", "telemetry": {"lat": 0.0, "lon": 0.0, "satellites": 0, "altitude_gps_m": -0.07000000029802322, "groundspeed_mps": 0.14946249127388}, "flight": {"mode": "STABILIZE", "armed": false}, "ekf": {"attitude": {"roll": -0.027385560795664787, "pitch": -0.03111054189503193, "yaw": -3.0270395278930664}, "local_position": {"x": null, "y": null, "z": null}, "status": {"flags": 135, "velocity_variance": 0.0, "pos_horiz_variance": 0.03695066273212433, "pos_vert_variance": 0.03683474659919739}}, "errors": ["PreArm: RC not found", "PreArm: Hardware safety switch", "PreArm: Compasses inconsistent"]}
{"timestamp": "2026-01-29T09:00:30.686463Z", "telemetry": {"lat": 0.0, "lon": 0.0, "satellites": 0, "altitude_gps_m": -0.07000000029802322, "groundspeed_mps": 0.14699283242225647}, "flight": {"mode": "STABILIZE", "armed": false}, "ekf": {"attitude": {"roll": -0.02763432078063488, "pitch": -0.031096886843442917, "yaw": -3.0270049571990967}, "local_position": {"x": null, "y": null, "z": null}, "status": {"flags": 135, "velocity_variance": 0.0, "pos_horiz_variance": 0.03651769831776619, "pos_vert_variance": 0.03139755502343178}}, "errors": ["PreArm: RC not found", "PreArm: Hardware safety switch", "PreArm: Compasses inconsistent"]}
{"timestamp": "2026-01-29T09:00:31.686747Z", "telemetry": {"lat": 0.0, "lon": 0.0, "satellites": 0, "altitude_gps_m": -0.07000000029802322, "groundspeed_mps": 0.14585447311401367}, "flight": {"mode": "STABILIZE", "armed": false}, "ekf": {"attitude": {"roll": -0.02783876284956932, "pitch": -0.031026266515254974, "yaw": -3.0268735885620117}, "local_position": {"x": null, "y": null, "z": null}, "status": {"flags": 135, "velocity_variance": 0.0, "pos_horiz_variance": 0.03613763675093651, "pos_vert_variance": 0.03616367280483246}}, "errors": ["PreArm: RC not found", "PreArm: Hardware safety switch", "PreArm: Compasses inconsistent", "PreArm: RC not found", "PreArm: Hardware safety switch", "PreArm: Compasses inconsistent"]}
{"timestamp": "2026-01-29T09:00:32.685772Z", "telemetry": {"lat": 0.0, "lon": 0.0, "satellites": 0, "altitude_gps_m": -0.07000000029802322, "groundspeed_mps": 0.14446967840194702}, "flight": {"mode": "STABILIZE", "armed": false}, "ekf": {"attitude": {"roll": -0.027810361236333847, "pitch": -0.031057482585310936, "yaw": -3.0267555713653564}, "local_position": {"x": null, "y": null, "z": null}, "status": {"flags": 135, "velocity_variance": 0.0, "pos_horiz_variance": 0.035729046911001205, "pos_vert_variance": 0.008500847034156322}}, "errors": ["PreArm: RC not found", "PreArm: Hardware safety switch", "PreArm: Compasses inconsistent", "PreArm: RC not found", "PreArm: Hardware safety switch", "PreArm: Compasses inconsistent"]}
{"timestamp": "2026-01-29T09:00:33.685890Z", "telemetry": {"lat": 0.0, "lon": 0.0, "satellites": 0, "altitude_gps_m": -0.07000000029802322, "groundspeed_mps": 0.14633765816688538}, "flight": {"mode": "STABILIZE", "armed": false}, "ekf": {"attitude": {"roll": -0.027635876089334488, "pitch": -0.031105751171708107, "yaw": -3.0265657901763916}, "local_position": {"x": null, "y": null, "z": null}, "status": {"flags": 135, "velocity_variance": 0.0, "pos_horiz_variance": 0.03544522076845169, "pos_vert_variance": 0.0467011034488678}}, "errors": ["PreArm: RC not found", "PreArm: Hardware safety switch", "PreArm: Compasses inconsistent", "PreArm: RC not found", "PreArm: Hardware safety switch", "PreArm: Compasses inconsistent"]}
{"timestamp": "2026-01-29T09:00:34.685978Z", "telemetry": {"lat": 0.0, "lon": 0.0, "satellites": 0, "altitude_gps_m": -0.07000000029802322, "groundspeed_mps": 0.1470290571451187}, "flight": {"mode": "STABILIZE", "armed": false}, "ekf": {"attitude": {"roll": -0.027598941698670387, "pitch": -0.03105127438902855, "yaw": -3.026475667953491}, "local_position": {"x": null, "y": null, "z": null}, "status": {"flags": 135, "velocity_variance": 0.0, "pos_horiz_variance": 0.035816483199596405, "pos_vert_variance": 0.0034576624166220427}}, "errors": ["PreArm: RC not found", "PreArm: Hardware safety switch", "PreArm: Compasses inconsistent", "PreArm: RC not found", "PreArm: Hardware safety switch", "PreArm: Compasses inconsistent"]}
{"timestamp": "2026-01-29T09:00:35.685063Z", "telemetry": {"lat": 0.0, "lon": 0.0, "satellites": 0, "altitude_gps_m": -0.07000000029802322, "groundspeed_mps": 0.1434868425130844}, "flight": {"mode": "STABILIZE", "armed": false}, "ekf": {"attitude": {"roll": -0.027378112077713013, "pitch": -0.030867282301187515, "yaw": -3.026550531387329}, "local_position": {"x": null, "y": null, "z": null}, "status": {"flags": 135, "velocity_variance": 0.0, "pos_horiz_variance": 0.03561071306467056, "pos_vert_variance": 0.09180878102779388}}, "errors": ["PreArm: RC not found", "PreArm: Hardware safety switch", "PreArm: Compasses inconsistent", "PreArm: RC not found", "PreArm: Hardware safety switch", "PreArm: Compasses inconsistent"]}
{"timestamp": "2026-01-29T09:00:36.724329Z", "telemetry": {"lat": 0.0, "lon": 0.0, "satellites": 0, "altitude_gps_m": -0.07000000029802322, "groundspeed_mps": 0.14016130566596985}, "flight": {"mode": "STABILIZE", "armed": false}, "ekf": {"attitude": {"roll": -0.027169834822416306, "pitch": -0.030592434108257294, "yaw": -3.026512861251831}, "local_position": {"x": null, "y": null, "z": null}, "status": {"flags": 135, "velocity_variance": 0.0, "pos_horiz_variance": 0.0352458693087101, "pos_vert_variance": 0.03552020713686943}}, "errors": ["PreArm: RC not found", "PreArm: Hardware safety switch", "PreArm: Compasses inconsistent", "PreArm: RC not found", "PreArm: Hardware safety switch", "PreArm: Compasses inconsistent"]}
{"timestamp": "2026-01-29T09:00:37.684235Z", "telemetry": {"lat": 0.0, "lon": 0.0, "satellites": 0, "altitude_gps_m": -0.07000000029802322, "groundspeed_mps": 0.13915370404720306}, "flight": {"mode": "STABILIZE", "armed": false}, "ekf": {"attitude": {"roll": -0.026971831917762756, "pitch": -0.030648095533251762, "yaw": -3.026510715484619}, "local_position": {"x": null, "y": null, "z": null}, "status": {"flags": 135, "velocity_variance": 0.0, "pos_horiz_variance": 0.03464318439364433, "pos_vert_variance": 0.0362304225564003}}, "errors": ["PreArm: RC not found", "PreArm: Hardware safety switch", "PreArm: Compasses inconsistent", "PreArm: RC not found", "PreArm: Hardware safety switch", "PreArm: Compasses inconsistent"]}
{"timestamp": "2026-01-29T09:00:38.723704Z", "telemetry": {"lat": 0.0, "lon": 0.0, "satellites": 0, "altitude_gps_m": -0.07000000029802322, "groundspeed_mps": 0.1355690062046051}, "flight": {"mode": "STABILIZE", "armed": false}, "ekf": {"attitude": {"roll": -0.0268828384578228, "pitch": -0.030469994992017746, "yaw": -3.0265297889709473}, "local_position": {"x": null, "y": null, "z": null}, "status": {"flags": 135, "velocity_variance": 0.0, "pos_horiz_variance": 0.03409235551953316, "pos_vert_variance": 0.02939070761203766}}, "errors": ["PreArm: RC not found", "PreArm: Hardware safety switch", "PreArm: Compasses inconsistent", "PreArm: RC not found", "PreArm: Hardware safety switch", "PreArm: Compasses inconsistent"]}
{"timestamp": "2026-01-29T09:00:39.683678Z", "telemetry": {"lat": 0.0, "lon": 0.0, "satellites": 0, "altitude_gps_m": -0.07000000029802322, "groundspeed_mps": 0.13296782970428467}, "flight": {"mode": "STABILIZE", "armed": false}, "ekf": {"attitude": {"roll": -0.026711512356996536, "pitch": -0.03048015385866165, "yaw": -3.026344060897827}, "local_position": {"x": null, "y": null, "z": null}, "status": {"flags": 135, "velocity_variance": 0.0, "pos_horiz_variance": 0.03346769139170647, "pos_vert_variance": 0.06452082842588425}}, "errors": ["PreArm: RC not found", "PreArm: Hardware safety switch", "PreArm: Compasses inconsistent", "PreArm: RC not found", "PreArm: Hardware safety switch", "PreArm: Compasses inconsistent"]}
{"timestamp": "2026-01-29T09:00:40.683549Z", "telemetry": {"lat": 0.0, "lon": 0.0, "satellites": 0, "altitude_gps_m": -0.07000000029802322, "groundspeed_mps": 0.1319236159324646}, "flight": {"mode": "STABILIZE", "armed": false}, "ekf": {"attitude": {"roll": -0.026649413630366325, "pitch": -0.03030652552843094, "yaw": -3.0263772010803223}, "local_position": {"x": null, "y": null, "z": null}, "status": {"flags": 135, "velocity_variance": 0.0, "pos_horiz_variance": 0.03279581293463707, "pos_vert_variance": 0.06994052976369858}}, "errors": ["PreArm: RC not found", "PreArm: Hardware safety switch", "PreArm: Compasses inconsistent", "PreArm: RC not found", "PreArm: Hardware safety switch", "PreArm: Compasses inconsistent"]}
{"timestamp": "2026-01-29T09:00:41.682986Z", "telemetry": {"lat": 0.0, "lon": 0.0, "satellites": 0, "altitude_gps_m": -0.07000000029802322, "groundspeed_mps": 0.13355611264705658}, "flight": {"mode": "STABILIZE", "armed": false}, "ekf": {"attitude": {"roll": -0.026709094643592834, "pitch": -0.030321523547172546, "yaw": -3.0261597633361816}, "local_position": {"x": null, "y": null, "z": null}, "status": {"flags": 135, "velocity_variance": 0.0, "pos_horiz_variance": 0.032524581998586655, "pos_vert_variance": 0.024653609842061996}}, "errors": ["PreArm: RC not found", "PreArm: Hardware safety switch", "PreArm: Compasses inconsistent", "PreArm: RC not found", "PreArm: Hardware safety switch", "PreArm: Compasses inconsistent"]}
{"timestamp": "2026-01-29T09:00:42.682475Z", "telemetry": {"lat": 0.0, "lon": 0.0, "satellites": 0, "altitude_gps_m": -0.07000000029802322, "groundspeed_mps": 0.13481765985488892}, "flight": {"mode": "STABILIZE", "armed": false}, "ekf": {"attitude": {"roll": -0.026785792782902718, "pitch": -0.030309751629829407, "yaw": -3.026211977005005}, "local_position": {"x": null, "y": null, "z": null}, "status": {"flags": 135, "velocity_variance": 0.0, "pos_horiz_variance": 0.032578494399785995, "pos_vert_variance": 0.06981998682022095}}, "errors": ["PreArm: RC not found", "PreArm: Hardware safety switch", "PreArm: Compasses inconsistent", "PreArm: RC not found", "PreArm: Hardware safety switch", "PreArm: Compasses inconsistent"]}
{"timestamp": "2026-01-29T09:00:43.681901Z", "telemetry": {"lat": 0.0, "lon": 0.0, "satellites": 0, "altitude_gps_m": -0.07000000029802322, "groundspeed_mps": 0.13324858248233795}, "flight": {"mode": "STABILIZE", "armed": false}, "ekf": {"attitude": {"roll": -0.027009736746549606, "pitch": -0.03010237216949463, "yaw": -3.0263466835021973}, "local_position": {"x": null, "y": null, "z": null}, "status": {"flags": 135, "velocity_variance": 0.0, "pos_horiz_variance": 0.03278038278222084, "pos_vert_variance": 0.021100925281643867}}, "errors": ["PreArm: RC not found", "PreArm: Hardware safety switch", "PreArm: Compasses inconsistent", "PreArm: RC not found", "PreArm: Hardware safety switch", "PreArm: Compasses inconsistent"]}
{"timestamp": "2026-01-29T09:00:44.677204Z", "telemetry": {"lat": 0.0, "lon": 0.0, "satellites": 0, "altitude_gps_m": -0.07000000029802322, "groundspeed_mps": 0.12948313355445862}, "flight": {"mode": "STABILIZE", "armed": false}, "ekf": {"attitude": {"roll": -0.02717619761824608, "pitch": -0.0299205519258976, "yaw": -3.0264055728912354}, "local_position": {"x": null, "y": null, "z": null}, "status": {"flags": 135, "velocity_variance": 0.0, "pos_horiz_variance": 0.03237973153591156, "pos_vert_variance": 0.032140038907527924}}, "errors": ["PreArm: RC not found", "PreArm: Hardware safety switch", "PreArm: Compasses inconsistent", "PreArm: RC not found", "PreArm: Hardware safety switch", "PreArm: Compasses inconsistent"]}
{"timestamp": "2026-01-29T09:00:45.707750Z", "telemetry": {"lat": 0.0, "lon": 0.0, "satellites": 0, "altitude_gps_m": -0.07000000029802322, "groundspeed_mps": 0.1290998011827469}, "flight": {"mode": "STABILIZE", "armed": false}, "ekf": {"attitude": {"roll": -0.027235884219408035, "pitch": -0.029858386144042015, "yaw": -3.0265538692474365}, "local_position": {"x": null, "y": null, "z": null}, "status": {"flags": 135, "velocity_variance": 0.0, "pos_horiz_variance": 0.03184928745031357, "pos_vert_variance": 0.0029982225969433784}}, "errors": ["PreArm: RC not found", "PreArm: Hardware safety switch", "PreArm: Compasses inconsistent", "PreArm: RC not found", "PreArm: Hardware safety switch", "PreArm: Compasses inconsistent"]}
{"timestamp": "2026-01-29T09:00:46.700999Z", "telemetry": {"lat": 0.0, "lon": 0.0, "satellites": 0, "altitude_gps_m": -0.07000000029802322, "groundspeed_mps": 0.12578915059566498}, "flight": {"mode": "STABILIZE", "armed": false}, "ekf": {"attitude": {"roll": -0.02730654738843441, "pitch": -0.029746584594249725, "yaw": -3.0264792442321777}, "local_position": {"x": null, "y": null, "z": null}, "status": {"flags": 135, "velocity_variance": 0.0, "pos_horiz_variance": 0.031398527324199677, "pos_vert_variance": 0.04215310886502266}}, "errors": ["PreArm: RC not found", "PreArm: Hardware safety switch", "PreArm: Compasses inconsistent", "PreArm: RC not found", "PreArm: Hardware safety switch", "PreArm: Compasses inconsistent"]}
{"timestamp": "2026-01-29T09:00:47.694384Z", "telemetry": {"lat": 0.0, "lon": 0.0, "satellites": 0, "altitude_gps_m": -0.07000000029802322, "groundspeed_mps": 0.12679512798786163}, "flight": {"mode": "STABILIZE", "armed": false}, "ekf": {"attitude": {"roll": -0.027518197894096375, "pitch": -0.02969195321202278, "yaw": -3.026496171951294}, "local_position": {"x": null, "y": null, "z": null}, "status": {"flags": 135, "velocity_variance": 0.0, "pos_horiz_variance": 0.030906345695257187, "pos_vert_variance": 0.022977609187364578}}, "errors": ["PreArm: RC not found", "PreArm: Hardware safety switch", "PreArm: Compasses inconsistent", "PreArm: RC not found", "PreArm: Hardware safety switch", "PreArm: Compasses inconsistent"]}
{"timestamp": "2026-01-29T09:00:48.688067Z", "telemetry": {"lat": 0.0, "lon": 0.0, "satellites": 0, "altitude_gps_m": -0.07000000029802322, "groundspeed_mps": 0.1288730353116989}, "flight": {"mode": "STABILIZE", "armed": false}, "ekf": {"attitude": {"roll": -0.027561217546463013, "pitch": -0.029747020453214645, "yaw": -3.026486396789551}, "local_position": {"x": null, "y": null, "z": null}, "status": {"flags": 135, "velocity_variance": 0.0, "pos_horiz_variance": 0.030986206606030464, "pos_vert_variance": 0.0042340741492807865}}, "errors": ["PreArm: RC not found", "PreArm: Hardware safety switch", "PreArm: Compasses inconsistent", "PreArm: RC not found", "PreArm: Hardware safety switch", "PreArm: Compasses inconsistent"]}
{"timestamp": "2026-01-29T09:00:49.683161Z", "telemetry": {"lat": 0.0, "lon": 0.0, "satellites": 0, "altitude_gps_m": -0.07000000029802322, "groundspeed_mps": 0.12865497171878815}, "flight": {"mode": "STABILIZE", "armed": false}, "ekf": {"attitude": {"roll": -0.0275568850338459, "pitch": -0.029683422297239304, "yaw": -3.0267527103424072}, "local_position": {"x": null, "y": null, "z": null}, "status": {"flags": 135, "velocity_variance": 0.0, "pos_horiz_variance": 0.031114868819713593, "pos_vert_variance": 0.03812805190682411}}, "errors": ["PreArm: RC not found", "PreArm: Hardware safety switch", "PreArm: Compasses inconsistent", "PreArm: RC not found", "PreArm: Hardware safety switch", "PreArm: Compasses inconsistent"]}
{"timestamp": "2026-01-29T09:00:50.678226Z", "telemetry": {"lat": 0.0, "lon": 0.0, "satellites": 0, "altitude_gps_m": -0.07000000029802322, "groundspeed_mps": 0.126581609249115}, "flight": {"mode": "STABILIZE", "armed": false}, "ekf": {"attitude": {"roll": -0.027531364932656288, "pitch": -0.029586315155029297, "yaw": -3.0269088745117188}, "local_position": {"x": null, "y": null, "z": null}, "status": {"flags": 135, "velocity_variance": 0.0, "pos_horiz_variance": 0.031112495809793472, "pos_vert_variance": 0.0020904107950627804}}, "errors": ["PreArm: RC not found", "PreArm: Hardware safety switch", "PreArm: Compasses inconsistent", "PreArm: RC not found", "PreArm: Hardware safety switch", "PreArm: Compasses inconsistent"]}
{"timestamp": "2026-01-29T09:00:51.673240Z", "telemetry": {"lat": 0.0, "lon": 0.0, "satellites": 0, "altitude_gps_m": -0.07000000029802322, "groundspeed_mps": 0.12409818172454834}, "flight": {"mode": "STABILIZE", "armed": false}, "ekf": {"attitude": {"roll": -0.02752707153558731, "pitch": -0.029343031346797943, "yaw": -3.027001142501831}, "local_position": {"x": null, "y": null, "z": null}, "status": {"flags": 135, "velocity_variance": 0.0, "pos_horiz_variance": 0.030906163156032562, "pos_vert_variance": 0.026495803147554398}}, "errors": ["PreArm: RC not found", "PreArm: Hardware safety switch", "PreArm: Compasses inconsistent", "PreArm: RC not found", "PreArm: Hardware safety switch", "PreArm: Compasses inconsistent"]}
{"timestamp": "2026-01-29T09:00:52.706481Z", "telemetry": {"lat": 0.0, "lon": 0.0, "satellites": 0, "altitude_gps_m": -0.07000000029802322, "groundspeed_mps": 0.11902531236410141}, "flight": {"mode": "STABILIZE", "armed": false}, "ekf": {"attitude": {"roll": -0.02738858386874199, "pitch": -0.02916008234024048, "yaw": -3.0268826484680176}, "local_position": {"x": null, "y": null, "z": null}, "status": {"flags": 135, "velocity_variance": 0.0, "pos_horiz_variance": 0.030257506296038628, "pos_vert_variance": 0.015288544818758965}}, "errors": ["PreArm: RC not found", "PreArm: Hardware safety switch", "PreArm: Compasses inconsistent", "PreArm: RC not found", "PreArm: Hardware safety switch", "PreArm: Compasses inconsistent"]}
{"timestamp": "2026-01-29T09:00:53.702089Z", "telemetry": {"lat": 0.0, "lon": 0.0, "satellites": 0, "altitude_gps_m": -0.07000000029802322, "groundspeed_mps": 0.11881427466869354}, "flight": {"mode": "STABILIZE", "armed": false}, "ekf": {"attitude": {"roll": -0.02733650431036949, "pitch": -0.029104124754667282, "yaw": -3.026834487915039}, "local_position": {"x": null, "y": null, "z": null}, "status": {"flags": 135, "velocity_variance": 0.0, "pos_horiz_variance": 0.02932104840874672, "pos_vert_variance": 0.052934013307094574}}, "errors": ["PreArm: RC not found", "PreArm: Hardware safety switch", "PreArm: Compasses inconsistent", "PreArm: RC not found", "PreArm: Hardware safety switch", "PreArm: Compasses inconsistent"]}
{"timestamp": "2026-01-29T09:00:54.699014Z", "telemetry": {"lat": 0.0, "lon": 0.0, "satellites": 0, "altitude_gps_m": -0.07000000029802322, "groundspeed_mps": 0.11503655463457108}, "flight": {"mode": "STABILIZE", "armed": false}, "ekf": {"attitude": {"roll": -0.027306029573082924, "pitch": -0.02916165068745613, "yaw": -3.0266988277435303}, "local_position": {"x": null, "y": null, "z": null}, "status": {"flags": 135, "velocity_variance": 0.0, "pos_horiz_variance": 0.029081428423523903, "pos_vert_variance": 0.00328783574514091}}, "errors": ["PreArm: RC not found", "PreArm: Hardware safety switch", "PreArm: Compasses inconsistent", "PreArm: RC not found", "PreArm: Hardware safety switch", "PreArm: Compasses inconsistent"]}
{"timestamp": "2026-01-29T09:00:55.713267Z", "telemetry": {"lat": 0.0, "lon": 0.0, "satellites": 0, "altitude_gps_m": -0.07000000029802322, "groundspeed_mps": 0.11326203495264053}, "flight": {"mode": "STABILIZE", "armed": false}, "ekf": {"attitude": {"roll": -0.02733120135962963, "pitch": -0.02917056903243065, "yaw": -3.0264899730682373}, "local_position": {"x": null, "y": null, "z": null}, "status": {"flags": 135, "velocity_variance": 0.0, "pos_horiz_variance": 0.028428444638848305, "pos_vert_variance": 0.0006984032224863768}}, "errors": ["PreArm: RC not found", "PreArm: Hardware safety switch", "PreArm: Compasses inconsistent", "PreArm: RC not found", "PreArm: Hardware safety switch", "PreArm: Compasses inconsistent"]}
{"timestamp": "2026-01-29T09:00:56.709846Z", "telemetry": {"lat": 0.0, "lon": 0.0, "satellites": 0, "altitude_gps_m": -0.07000000029802322, "groundspeed_mps": 0.11572318524122238}, "flight": {"mode": "STABILIZE", "armed": false}, "ekf": {"attitude": {"roll": -0.02730488032102585, "pitch": -0.02919253706932068, "yaw": -3.0265276432037354}, "local_position": {"x": null, "y": null, "z": null}, "status": {"flags": 135, "velocity_variance": 0.0, "pos_horiz_variance": 0.02798916958272457, "pos_vert_variance": 0.00019701493147294968}}, "errors": ["PreArm: RC not found", "PreArm: Hardware safety switch", "PreArm: Compasses inconsistent", "PreArm: RC not found", "PreArm: Hardware safety switch", "PreArm: Compasses inconsistent"]}
{"timestamp": "2026-01-29T09:00:57.706172Z", "telemetry": {"lat": 0.0, "lon": 0.0, "satellites": 0, "altitude_gps_m": -0.07000000029802322, "groundspeed_mps": 0.11556150764226913}, "flight": {"mode": "STABILIZE", "armed": false}, "ekf": {"attitude": {"roll": -0.027372686192393303, "pitch": -0.029229149222373962, "yaw": -3.0263073444366455}, "local_position": {"x": null, "y": null, "z": null}, "status": {"flags": 135, "velocity_variance": 0.0, "pos_horiz_variance": 0.02814406156539917, "pos_vert_variance": 0.021597225219011307}}, "errors": ["PreArm: RC not found", "PreArm: Hardware safety switch", "PreArm: Compasses inconsistent", "PreArm: RC not found", "PreArm: Hardware safety switch", "PreArm: Compasses inconsistent"]}
{"timestamp": "2026-01-29T09:00:58.702680Z", "telemetry": {"lat": 0.0, "lon": 0.0, "satellites": 0, "altitude_gps_m": -0.07000000029802322, "groundspeed_mps": 0.11676713824272156}, "flight": {"mode": "STABILIZE", "armed": false}, "ekf": {"attitude": {"roll": -0.027453424409031868, "pitch": -0.02914593368768692, "yaw": -3.026134967803955}, "local_position": {"x": null, "y": null, "z": null}, "status": {"flags": 135, "velocity_variance": 0.0, "pos_horiz_variance": 0.0285086240619421, "pos_vert_variance": 0.008670296519994736}}, "errors": ["PreArm: RC not found", "PreArm: Hardware safety switch", "PreArm: Compasses inconsistent", "PreArm: RC not found", "PreArm: Hardware safety switch", "PreArm: Compasses inconsistent"]}
{"timestamp": "2026-01-29T09:00:59.699391Z", "telemetry": {"lat": 0.0, "lon": 0.0, "satellites": 0, "altitude_gps_m": -0.07000000029802322, "groundspeed_mps": 0.1157408282160759}, "flight": {"mode": "STABILIZE", "armed": false}, "ekf": {"attitude": {"roll": -0.02767488919198513, "pitch": -0.02904370427131653, "yaw": -3.0260438919067383}, "local_position": {"x": null, "y": null, "z": null}, "status": {"flags": 135, "velocity_variance": 0.0, "pos_horiz_variance": 0.028384804725646973, "pos_vert_variance": 0.03894427418708801}}, "errors": ["PreArm: RC not found", "PreArm: Hardware safety switch", "PreArm: Compasses inconsistent", "PreArm: RC not found", "PreArm: Hardware safety switch", "PreArm: Compasses inconsistent"]}
{"timestamp": "2026-01-29T09:01:00.697311Z", "telemetry": {"lat": 0.0, "lon": 0.0, "satellites": 0, "altitude_gps_m": -0.07000000029802322, "groundspeed_mps": 0.11536611616611481}, "flight": {"mode": "STABILIZE", "armed": false}, "ekf": {"attitude": {"roll": -0.027752850204706192, "pitch": -0.02904653176665306, "yaw": -3.025967836380005}, "local_position": {"x": null, "y": null, "z": null}, "status": {"flags": 135, "velocity_variance": 0.0, "pos_horiz_variance": 0.028224721550941467, "pos_vert_variance": 0.018117986619472504}}, "errors": ["PreArm: RC not found", "PreArm: Hardware safety switch", "PreArm: Compasses inconsistent", "PreArm: RC not found", "PreArm: Hardware safety switch", "PreArm: Compasses inconsistent"]}
{"timestamp": "2026-01-29T09:01:01.693398Z", "telemetry": {"lat": 0.0, "lon": 0.0, "satellites": 0, "altitude_gps_m": -0.07000000029802322, "groundspeed_mps": 0.11475510895252228}, "flight": {"mode": "STABILIZE", "armed": false}, "ekf": {"attitude": {"roll": -0.027906294912099838, "pitch": -0.0290263332426548, "yaw": -3.0259504318237305}, "local_position": {"x": null, "y": null, "z": null}, "status": {"flags": 135, "velocity_variance": 0.0, "pos_horiz_variance": 0.028200000524520874, "pos_vert_variance": 0.045113854110240936}}, "errors": ["PreArm: RC not found", "PreArm: Hardware safety switch", "PreArm: Compasses inconsistent", "PreArm: RC not found", "PreArm: Hardware safety switch", "PreArm: Compasses inconsistent"]}
{"timestamp": "2026-01-29T09:01:02.690318Z", "telemetry": {"lat": 0.0, "lon": 0.0, "satellites": 0, "altitude_gps_m": -0.07000000029802322, "groundspeed_mps": 0.11349119246006012}, "flight": {"mode": "STABILIZE", "armed": false}, "ekf": {"attitude": {"roll": -0.02788541093468666, "pitch": -0.028949785977602005, "yaw": -3.025968313217163}, "local_position": {"x": null, "y": null, "z": null}, "status": {"flags": 135, "velocity_variance": 0.0, "pos_horiz_variance": 0.027897214516997337, "pos_vert_variance": 0.028075672686100006}}, "errors": ["PreArm: RC not found", "PreArm: Hardware safety switch", "PreArm: Compasses inconsistent", "PreArm: RC not found", "PreArm: Hardware safety switch", "PreArm: Compasses inconsistent", "PreArm: RC not found", "PreArm: Hardware safety switch", "PreArm: Compasses inconsistent"]}
{"timestamp": "2026-01-29T09:01:03.687962Z", "telemetry": {"lat": 0.0, "lon": 0.0, "satellites": 0, "altitude_gps_m": -0.07000000029802322, "groundspeed_mps": 0.1120866909623146}, "flight": {"mode": "STABILIZE", "armed": false}, "ekf": {"attitude": {"roll": -0.027895869687199593, "pitch": -0.028468918055295944, "yaw": -3.026052236557007}, "local_position": {"x": null, "y": null, "z": null}, "status": {"flags": 135, "velocity_variance": 0.0, "pos_horiz_variance": 0.027651436626911163, "pos_vert_variance": 0.06324516981840134}}, "errors": ["PreArm: RC not found", "PreArm: Hardware safety switch", "PreArm: Compasses inconsistent", "PreArm: RC not found", "PreArm: Hardware safety switch", "PreArm: Compasses inconsistent", "PreArm: RC not found", "PreArm: Hardware safety switch", "PreArm: Compasses inconsistent"]}
