{"timestamp": "2026-01-24T20:45:14.226173Z", "telemetry": {"lat": 28.7531527, "lon": 77.1178444, "satellites": 0, "altitude_gps_m": 0.7400000095367432, "groundspeed_mps": 0.03397249057888985}, "flight": {"mode": "STABILIZE", "armed": false}, "ekf": {"attitude": {"roll": 0.07514116913080215, "pitch": -0.06793145090341568, "yaw": -0.5436394810676575}, "local_position": {"x": null, "y": null, "z": null}, "status": {"flags": 135, "velocity_variance": 0.0, "pos_horiz_variance": 0.008077899925410748, "pos_vert_variance": 0.03558426722884178}}, "errors": []}
{"timestamp": "2026-01-24T20:45:15.186174Z", "telemetry": {"lat": 28.7531527, "lon": 77.1178444, "satellites": 0, "altitude_gps_m": 0.7400000095367432, "groundspeed_mps": 0.0312599316239357}, "flight": {"mode": "STABILIZE", "armed": false}, "ekf": {"attitude": {"roll": 0.07556089013814926, "pitch": -0.06787137687206268, "yaw": -0.5431139469146729}, "local_position": {"x": null, "y": null, "z": null}, "status": {"flags": 135, "velocity_variance": 0.0, "pos_horiz_variance": 0.008310537785291672, "pos_vert_variance": 0.11197292059659958}}, "errors": []}
{"timestamp": "2026-01-24T20:45:16.185925Z", "telemetry": {"lat": 28.7531527, "lon": 77.1178444, "satellites": 0, "altitude_gps_m": 0.7400000095367432, "groundspeed_mps": 0.04140430688858032}, "flight": {"mode": "STABILIZE", "armed": false}, "ekf": {"attitude": {"roll": 0.07508445531129837, "pitch": -0.06853026151657104, "yaw": -0.5430455207824707}, "local_position": {"x": null, "y": null, "z": null}, "status": {"flags": 135, "velocity_variance": 0.0, "pos_horiz_variance": 0.008947447873651981, "pos_vert_variance": 0.029545873403549194}}, "errors": []}
{"timestamp": "2026-01-24T20:45:17.185889Z", "telemetry": {"lat": 28.7531527, "lon": 77.1178444, "satellites": 0, "altitude_gps_m": 0.7400000095367432, "groundspeed_mps": 0.0416305772960186}, "flight": {"mode": "STABILIZE", "armed": false}, "ekf": {"attitude": {"roll": 0.07291987538337708, "pitch": -0.06848849356174469, "yaw": -0.5434778332710266}, "local_position": {"x": null, "y": null, "z": null}, "status": {"flags": 135, "velocity_variance": 0.0, "pos_horiz_variance": 0.009566509164869785, "pos_vert_variance": 0.007769992109388113}}, "errors": []}
{"timestamp": "2026-01-24T20:45:18.185808Z", "telemetry": {"lat": 28.7531527, "lon": 77.1178444, "satellites": 0, "altitude_gps_m": 0.7400000095367432, "groundspeed_mps": 0.04211800917983055}, "flight": {"mode": "STABILIZE", "armed": false}, "ekf": {"attitude": {"roll": 0.07311931997537613, "pitch": -0.06844353675842285, "yaw": -0.5432652235031128}, "local_position": {"x": null, "y": null, "z": null}, "status": {"flags": 135, "velocity_variance": 0.0, "pos_horiz_variance": 0.009634355083107948, "pos_vert_variance": 0.04407712444663048}}, "errors": []}
{"timestamp": "2026-01-24T20:45:19.186123Z", "telemetry": {"lat": 28.7531527, "lon": 77.1178444, "satellites": 0, "altitude_gps_m": 0.7400000095367432, "groundspeed_mps": 0.04193772003054619}, "flight": {"mode": "STABILIZE", "armed": false}, "ekf": {"attitude": {"roll": 0.0732281506061554, "pitch": -0.06845876574516296, "yaw": -0.5430976748466492}, "local_position": {"x": null, "y": null, "z": null}, "status": {"flags": 135, "velocity_variance": 0.0, "pos_horiz_variance": 0.009977688081562519, "pos_vert_variance": 0.041708074510097504}}, "errors": []}
{"timestamp": "2026-01-24T20:45:20.185970Z", "telemetry": {"lat": 28.7531527, "lon": 77.1178444, "satellites": 0, "altitude_gps_m": 0.7400000095367432, "groundspeed_mps": 0.04264251887798309}, "flight": {"mode": "STABILIZE", "armed": false}, "ekf": {"attitude": {"roll": 0.07331141829490662, "pitch": -0.06855139881372452, "yaw": -0.5428630709648132}, "local_position": {"x": null, "y": null, "z": null}, "status": {"flags": 135, "velocity_variance": 0.0, "pos_horiz_variance": 0.010099311359226704, "pos_vert_variance": 0.09379170089960098}}, "errors": []}
{"timestamp": "2026-01-24T20:45:21.185811Z", "telemetry": {"lat": 28.7531527, "lon": 77.1178444, "satellites": 0, "altitude_gps_m": 0.7400000095367432, "groundspeed_mps": 0.04255813732743263}, "flight": {"mode": "STABILIZE", "armed": false}, "ekf": {"attitude": {"roll": 0.07338850200176239, "pitch": -0.06850734353065491, "yaw": -0.5426921248435974}, "local_position": {"x": null, "y": null, "z": null}, "status": {"flags": 135, "velocity_variance": 0.0, "pos_horiz_variance": 0.010186458006501198, "pos_vert_variance": 0.01852383278310299}}, "errors": []}
{"timestamp": "2026-01-24T20:45:22.186026Z", "telemetry": {"lat": 28.7531527, "lon": 77.1178444, "satellites": 0, "altitude_gps_m": 0.7400000095367432, "groundspeed_mps": 0.044253453612327576}, "flight": {"mode": "STABILIZE", "armed": false}, "ekf": {"attitude": {"roll": 0.0731581375002861, "pitch": -0.06856486946344376, "yaw": -0.5429325699806213}, "local_position": {"x": null, "y": null, "z": null}, "status": {"flags": 135, "velocity_variance": 0.0, "pos_horiz_variance": 0.010127685032784939, "pos_vert_variance": 0.012353791855275631}}, "errors": []}
{"timestamp": "2026-01-24T20:45:23.186124Z", "telemetry": {"lat": 28.7531527, "lon": 77.1178444, "satellites": 0, "altitude_gps_m": 0.7400000095367432, "groundspeed_mps": 0.04792370647192001}, "flight": {"mode": "STABILIZE", "armed": false}, "ekf": {"attitude": {"roll": 0.07309070974588394, "pitch": -0.06866272538900375, "yaw": -0.5429743528366089}, "local_position": {"x": null, "y": null, "z": null}, "status": {"flags": 135, "velocity_variance": 0.0, "pos_horiz_variance": 0.010555844753980637, "pos_vert_variance": 0.1256466805934906}}, "errors": []}
{"timestamp": "2026-01-24T20:45:24.186094Z", "telemetry": {"lat": 28.7531527, "lon": 77.1178444, "satellites": 0, "altitude_gps_m": 0.7400000095367432, "groundspeed_mps": 0.04874725639820099}, "flight": {"mode": "STABILIZE", "armed": false}, "ekf": {"attitude": {"roll": 0.07306797802448273, "pitch": -0.06870299577713013, "yaw": -0.5428211688995361}, "local_position": {"x": null, "y": null, "z": null}, "status": {"flags": 135, "velocity_variance": 0.0, "pos_horiz_variance": 0.011152937076985836, "pos_vert_variance": 0.04715828225016594}}, "errors": ["PreArm: Hardware safety switch"]}
{"timestamp": "2026-01-24T20:45:25.186206Z", "telemetry": {"lat": 28.7531527, "lon": 77.1178444, "satellites": 0, "altitude_gps_m": 0.7400000095367432, "groundspeed_mps": 0.05068603530526161}, "flight": {"mode": "STABILIZE", "armed": false}, "ekf": {"attitude": {"roll": 0.0730854868888855, "pitch": -0.06871183961629868, "yaw": -0.5428494215011597}, "local_position": {"x": null, "y": null, "z": null}, "status": {"flags": 135, "velocity_variance": 0.0, "pos_horiz_variance": 0.011620957404375076, "pos_vert_variance": 0.0132862264290452}}, "errors": ["PreArm: Hardware safety switch"]}
{"timestamp": "2026-01-24T20:45:26.186014Z", "telemetry": {"lat": 28.7531527, "lon": 77.1178444, "satellites": 0, "altitude_gps_m": 0.7400000095367432, "groundspeed_mps": 0.052420828491449356}, "flight": {"mode": "STABILIZE", "armed": false}, "ekf": {"attitude": {"roll": 0.07320646196603775, "pitch": -0.06868074089288712, "yaw": -0.5430083274841309}, "local_position": {"x": null, "y": null, "z": null}, "status": {"flags": 135, "velocity_variance": 0.0, "pos_horiz_variance": 0.01208587922155857, "pos_vert_variance": 0.011087054386734962}}, "errors": ["PreArm: Hardware safety switch"]}
{"timestamp": "2026-01-24T20:45:27.186108Z", "telemetry": {"lat": 28.7531527, "lon": 77.1178444, "satellites": 0, "altitude_gps_m": 0.7400000095367432, "groundspeed_mps": 0.04899551346898079}, "flight": {"mode": "STABILIZE", "armed": false}, "ekf": {"attitude": {"roll": 0.0732647106051445, "pitch": -0.06877521425485611, "yaw": -0.5429961681365967}, "local_position": {"x": null, "y": null, "z": null}, "status": {"flags": 135, "velocity_variance": 0.0, "pos_horiz_variance": 0.012275390326976776, "pos_vert_variance": 0.026777146384119987}}, "errors": ["PreArm: Hardware safety switch"]}
{"timestamp": "2026-01-24T20:45:28.186160Z", "telemetry": {"lat": 28.7531527, "lon": 77.1178444, "satellites": 0, "altitude_gps_m": 0.7400000095367432, "groundspeed_mps": 0.049216851592063904}, "flight": {"mode": "STABILIZE", "armed": false}, "ekf": {"attitude": {"roll": 0.07326628267765045, "pitch": -0.06880535930395126, "yaw": -0.542641282081604}, "local_position": {"x": null, "y": null, "z": null}, "status": {"flags": 135, "velocity_variance": 0.0, "pos_horiz_variance": 0.012003742158412933, "pos_vert_variance": 0.057063039392232895}}, "errors": ["PreArm: Hardware safety switch"]}
{"timestamp": "2026-01-24T20:45:29.185899Z", "telemetry": {"lat": 28.7531527, "lon": 77.1178444, "satellites": 0, "altitude_gps_m": 0.7400000095367432, "groundspeed_mps": 0.049216851592063904}, "flight": {"mode": "STABILIZE", "armed": false}, "ekf": {"attitude": {"roll": 0.07316330075263977, "pitch": -0.06884116679430008, "yaw": -0.5426123738288879}, "local_position": {"x": null, "y": null, "z": null}, "status": {"flags": 135, "velocity_variance": 0.0, "pos_horiz_variance": 0.012003742158412933, "pos_vert_variance": 0.057063039392232895}}, "errors": ["PreArm: Hardware safety switch"]}
{"timestamp": "2026-01-24T20:45:30.185768Z", "telemetry": {"lat": 28.7531527, "lon": 77.1178444, "satellites": 0, "altitude_gps_m": 0.7400000095367432, "groundspeed_mps": 0.05368323624134064}, "flight": {"mode": "STABILIZE", "armed": false}, "ekf": {"attitude": {"roll": 0.07302158325910568, "pitch": -0.06886163353919983, "yaw": -0.5424377918243408}, "local_position": {"x": null, "y": null, "z": null}, "status": {"flags": 135, "velocity_variance": 0.0, "pos_horiz_variance": 0.01224698405712843, "pos_vert_variance": 0.04204200208187103}}, "errors": ["PreArm: Hardware safety switch"]}
{"timestamp": "2026-01-24T20:45:31.185921Z", "telemetry": {"lat": 28.7531527, "lon": 77.1178444, "satellites": 0, "altitude_gps_m": 0.7400000095367432, "groundspeed_mps": 0.05413861945271492}, "flight": {"mode": "STABILIZE", "armed": false}, "ekf": {"attitude": {"roll": 0.07301865518093109, "pitch": -0.0686156302690506, "yaw": -0.5424544811248779}, "local_position": {"x": null, "y": null, "z": null}, "status": {"flags": 135, "velocity_variance": 0.0, "pos_horiz_variance": 0.012562465853989124, "pos_vert_variance": 0.08364371955394745}}, "errors": ["PreArm: Hardware safety switch"]}
{"timestamp": "2026-01-24T20:45:32.185782Z", "telemetry": {"lat": 28.7531527, "lon": 77.1178444, "satellites": 0, "altitude_gps_m": 0.7400000095367432, "groundspeed_mps": 0.051753073930740356}, "flight": {"mode": "STABILIZE", "armed": false}, "ekf": {"attitude": {"roll": 0.07299036532640457, "pitch": -0.068702332675457, "yaw": -0.5423561930656433}, "local_position": {"x": null, "y": null, "z": null}, "status": {"flags": 135, "velocity_variance": 0.0, "pos_horiz_variance": 0.012740262784063816, "pos_vert_variance": 0.054032646119594574}}, "errors": ["PreArm: Hardware safety switch"]}
{"timestamp": "2026-01-24T20:45:33.185763Z", "telemetry": {"lat": 28.7531527, "lon": 77.1178444, "satellites": 0, "altitude_gps_m": 0.7400000095367432, "groundspeed_mps": 0.04829489812254906}, "flight": {"mode": "STABILIZE", "armed": false}, "ekf": {"attitude": {"roll": 0.07317448407411575, "pitch": -0.06860993802547455, "yaw": -0.5421888828277588}, "local_position": {"x": null, "y": null, "z": null}, "status": {"flags": 135, "velocity_variance": 0.0, "pos_horiz_variance": 0.012892067432403564, "pos_vert_variance": 0.009543689899146557}}, "errors": ["PreArm: Hardware safety switch"]}
{"timestamp": "2026-01-24T20:45:34.185944Z", "telemetry": {"lat": 28.7531527, "lon": 77.1178444, "satellites": 0, "altitude_gps_m": 0.7400000095367432, "groundspeed_mps": 0.04829489812254906}, "flight": {"mode": "STABILIZE", "armed": false}, "ekf": {"attitude": {"roll": 0.07317448407411575, "pitch": -0.06860993802547455, "yaw": -0.5421888828277588}, "local_position": {"x": null, "y": null, "z": null}, "status": {"flags": 135, "velocity_variance": 0.0, "pos_horiz_variance": 0.01251902710646391, "pos_vert_variance": 0.010407681576907635}}, "errors": ["PreArm: Hardware safety switch"]}
{"timestamp": "2026-01-24T20:45:35.185974Z", "telemetry": {"lat": 28.7531527, "lon": 77.1178444, "satellites": 0, "altitude_gps_m": 0.7400000095367432, "groundspeed_mps": 0.04368472099304199}, "flight": {"mode": "STABILIZE", "armed": false}, "ekf": {"attitude": {"roll": 0.07361200451850891, "pitch": -0.06873903423547745, "yaw": -0.542279839515686}, "local_position": {"x": null, "y": null, "z": null}, "status": {"flags": 135, "velocity_variance": 0.0, "pos_horiz_variance": 0.01135877426713705, "pos_vert_variance": 0.08372226357460022}}, "errors": ["PreArm: Hardware safety switch"]}
{"timestamp": "2026-01-24T20:45:36.185972Z", "telemetry": {"lat": 28.7531527, "lon": 77.1178444, "satellites": 0, "altitude_gps_m": 0.7400000095367432, "groundspeed_mps": 0.04735663905739784}, "flight": {"mode": "STABILIZE", "armed": false}, "ekf": {"attitude": {"roll": 0.07378286868333817, "pitch": -0.06891502439975739, "yaw": -0.5423418283462524}, "local_position": {"x": null, "y": null, "z": null}, "status": {"flags": 135, "velocity_variance": 0.0, "pos_horiz_variance": 0.011249682866036892, "pos_vert_variance": 0.12384214997291565}}, "errors": ["PreArm: Hardware safety switch"]}
{"timestamp": "2026-01-24T20:45:37.186151Z", "telemetry": {"lat": 28.7531527, "lon": 77.1178444, "satellites": 0, "altitude_gps_m": 0.7400000095367432, "groundspeed_mps": 0.05118400231003761}, "flight": {"mode": "STABILIZE", "armed": false}, "ekf": {"attitude": {"roll": 0.07376251369714737, "pitch": -0.0691056177020073, "yaw": -0.5423687696456909}, "local_position": {"x": null, "y": null, "z": null}, "status": {"flags": 135, "velocity_variance": 0.0, "pos_horiz_variance": 0.011828127317130566, "pos_vert_variance": 0.06186492368578911}}, "errors": ["PreArm: Hardware safety switch"]}
{"timestamp": "2026-01-24T20:45:38.185805Z", "telemetry": {"lat": 28.7531527, "lon": 77.1178444, "satellites": 0, "altitude_gps_m": 0.7400000095367432, "groundspeed_mps": 0.0555666908621788}, "flight": {"mode": "STABILIZE", "armed": false}, "ekf": {"attitude": {"roll": 0.07365483790636063, "pitch": -0.06903025507926941, "yaw": -0.542329728603363}, "local_position": {"x": null, "y": null, "z": null}, "status": {"flags": 135, "velocity_variance": 0.0, "pos_horiz_variance": 0.012620467692613602, "pos_vert_variance": 0.03852268308401108}}, "errors": ["PreArm: Hardware safety switch"]}
{"timestamp": "2026-01-24T20:45:39.185647Z", "telemetry": {"lat": 28.7531527, "lon": 77.1178444, "satellites": 0, "altitude_gps_m": 0.7400000095367432, "groundspeed_mps": 0.05582670494914055}, "flight": {"mode": "STABILIZE", "armed": false}, "ekf": {"attitude": {"roll": 0.0735599473118782, "pitch": -0.06902170926332474, "yaw": -0.5423374176025391}, "local_position": {"x": null, "y": null, "z": null}, "status": {"flags": 135, "velocity_variance": 0.0, "pos_horiz_variance": 0.013225249014794827, "pos_vert_variance": 0.006057539489120245}}, "errors": ["PreArm: Hardware safety switch"]}
{"timestamp": "2026-01-24T20:45:40.185663Z", "telemetry": {"lat": 28.7531527, "lon": 77.1178444, "satellites": 0, "altitude_gps_m": 0.7400000095367432, "groundspeed_mps": 0.05372428894042969}, "flight": {"mode": "STABILIZE", "armed": false}, "ekf": {"attitude": {"roll": 0.07348711788654327, "pitch": -0.06903517246246338, "yaw": -0.5424227714538574}, "local_position": {"x": null, "y": null, "z": null}, "status": {"flags": 135, "velocity_variance": 0.0, "pos_horiz_variance": 0.013266169466078281, "pos_vert_variance": 0.02220463752746582}}, "errors": ["PreArm: Hardware safety switch"]}
{"timestamp": "2026-01-24T20:45:41.185760Z", "telemetry": {"lat": 28.7531527, "lon": 77.1178444, "satellites": 0, "altitude_gps_m": 0.7400000095367432, "groundspeed_mps": 0.05475739389657974}, "flight": {"mode": "STABILIZE", "armed": false}, "ekf": {"attitude": {"roll": 0.0734637975692749, "pitch": -0.06899906694889069, "yaw": -0.5421828627586365}, "local_position": {"x": null, "y": null, "z": null}, "status": {"flags": 135, "velocity_variance": 0.0, "pos_horiz_variance": 0.013172405771911144, "pos_vert_variance": 0.039247557520866394}}, "errors": ["PreArm: Hardware safety switch"]}
{"timestamp": "2026-01-24T20:45:42.185767Z", "telemetry": {"lat": 28.7531527, "lon": 77.1178444, "satellites": 0, "altitude_gps_m": 0.7400000095367432, "groundspeed_mps": 0.054957371205091476}, "flight": {"mode": "STABILIZE", "armed": false}, "ekf": {"attitude": {"roll": 0.0734703540802002, "pitch": -0.06897387653589249, "yaw": -0.5421479940414429}, "local_position": {"x": null, "y": null, "z": null}, "status": {"flags": 135, "velocity_variance": 0.0, "pos_horiz_variance": 0.013217662461102009, "pos_vert_variance": 0.07074014842510223}}, "errors": ["PreArm: Hardware safety switch"]}
{"timestamp": "2026-01-24T20:45:43.186051Z", "telemetry": {"lat": 28.7531527, "lon": 77.1178444, "satellites": 0, "altitude_gps_m": 0.7400000095367432, "groundspeed_mps": 0.05910684913396835}, "flight": {"mode": "STABILIZE", "armed": false}, "ekf": {"attitude": {"roll": 0.07356470823287964, "pitch": -0.0689355880022049, "yaw": -0.5422074794769287}, "local_position": {"x": null, "y": null, "z": null}, "status": {"flags": 135, "velocity_variance": 0.0, "pos_horiz_variance": 0.013527028262615204, "pos_vert_variance": 0.03314896672964096}}, "errors": ["PreArm: Hardware safety switch"]}
{"timestamp": "2026-01-24T20:45:44.185955Z", "telemetry": {"lat": 28.7531527, "lon": 77.1178444, "satellites": 0, "altitude_gps_m": 0.7400000095367432, "groundspeed_mps": 0.05924220010638237}, "flight": {"mode": "STABILIZE", "armed": false}, "ekf": {"attitude": {"roll": 0.07367770373821259, "pitch": -0.06891589611768723, "yaw": -0.5421594381332397}, "local_position": {"x": null, "y": null, "z": null}, "status": {"flags": 135, "velocity_variance": 0.0, "pos_horiz_variance": 0.014051027595996857, "pos_vert_variance": 0.0744018703699112}}, "errors": ["PreArm: Hardware safety switch"]}
{"timestamp": "2026-01-24T20:45:45.185761Z", "telemetry": {"lat": 28.7531527, "lon": 77.1178444, "satellites": 0, "altitude_gps_m": 0.7400000095367432, "groundspeed_mps": 0.058579105883836746}, "flight": {"mode": "STABILIZE", "armed": false}, "ekf": {"attitude": {"roll": 0.07378420978784561, "pitch": -0.06901612132787704, "yaw": -0.5421231985092163}, "local_position": {"x": null, "y": null, "z": null}, "status": {"flags": 135, "velocity_variance": 0.0, "pos_horiz_variance": 0.014198269695043564, "pos_vert_variance": 0.03954298794269562}}, "errors": ["PreArm: Hardware safety switch"]}
{"timestamp": "2026-01-24T20:45:46.185646Z", "telemetry": {"lat": 28.7531527, "lon": 77.1178444, "satellites": 0, "altitude_gps_m": 0.7400000095367432, "groundspeed_mps": 0.059547003358602524}, "flight": {"mode": "STABILIZE", "armed": false}, "ekf": {"attitude": {"roll": 0.07394233345985413, "pitch": -0.06899622082710266, "yaw": -0.5420693159103394}, "local_position": {"x": null, "y": null, "z": null}, "status": {"flags": 135, "velocity_variance": 0.0, "pos_horiz_variance": 0.014193780720233917, "pos_vert_variance": 0.15696880221366882}}, "errors": ["PreArm: Hardware safety switch"]}
{"timestamp": "2026-01-24T20:45:47.185916Z", "telemetry": {"lat": 28.7531527, "lon": 77.1178444, "satellites": 0, "altitude_gps_m": 0.7400000095367432, "groundspeed_mps": 0.05804738029837608}, "flight": {"mode": "STABILIZE", "armed": false}, "ekf": {"attitude": {"roll": 0.07385043054819107, "pitch": -0.0688953548669815, "yaw": -0.5418136119842529}, "local_position": {"x": null, "y": null, "z": null}, "status": {"flags": 135, "velocity_variance": 0.0, "pos_horiz_variance": 0.014257935807108879, "pos_vert_variance": 0.02781357802450657}}, "errors": ["PreArm: Hardware safety switch"]}
{"timestamp": "2026-01-24T20:45:48.185686Z", "telemetry": {"lat": 28.7531527, "lon": 77.1178444, "satellites": 0, "altitude_gps_m": 0.7400000095367432, "groundspeed_mps": 0.05775320529937744}, "flight": {"mode": "STABILIZE", "armed": false}, "ekf": {"attitude": {"roll": 0.07387758791446686, "pitch": -0.06887803971767426, "yaw": -0.5419555902481079}, "local_position": {"x": null, "y": null, "z": null}, "status": {"flags": 135, "velocity_variance": 0.0, "pos_horiz_variance": 0.014103168621659279, "pos_vert_variance": 0.010850771330296993}}, "errors": ["PreArm: Hardware safety switch"]}
{"timestamp": "2026-01-24T20:45:49.185792Z", "telemetry": {"lat": 28.7531527, "lon": 77.1178444, "satellites": 0, "altitude_gps_m": 0.7400000095367432, "groundspeed_mps": 0.05720290169119835}, "flight": {"mode": "STABILIZE", "armed": false}, "ekf": {"attitude": {"roll": 0.07384631037712097, "pitch": -0.06882642209529877, "yaw": -0.5419043898582458}, "local_position": {"x": null, "y": null, "z": null}, "status": {"flags": 135, "velocity_variance": 0.0, "pos_horiz_variance": 0.013972770422697067, "pos_vert_variance": 0.015511199831962585}}, "errors": ["PreArm: Hardware safety switch"]}
{"timestamp": "2026-01-24T20:45:50.225706Z", "telemetry": {"lat": 28.7531527, "lon": 77.1178444, "satellites": 0, "altitude_gps_m": 0.7400000095367432, "groundspeed_mps": 0.05722619593143463}, "flight": {"mode": "STABILIZE", "armed": false}, "ekf": {"attitude": {"roll": 0.07381892204284668, "pitch": -0.0690857395529747, "yaw": -0.5416167974472046}, "local_position": {"x": null, "y": null, "z": null}, "status": {"flags": 135, "velocity_variance": 0.0, "pos_horiz_variance": 0.013973296619951725, "pos_vert_variance": 0.019432002678513527}}, "errors": ["PreArm: Hardware safety switch"]}
{"timestamp": "2026-01-24T20:45:51.185847Z", "telemetry": {"lat": 28.7531527, "lon": 77.1178444, "satellites": 0, "altitude_gps_m": 0.7400000095367432, "groundspeed_mps": 0.05894041806459427}, "flight": {"mode": "STABILIZE", "armed": false}, "ekf": {"attitude": {"roll": 0.07379396259784698, "pitch": -0.06903421878814697, "yaw": -0.5415254235267639}, "local_position": {"x": null, "y": null, "z": null}, "status": {"flags": 135, "velocity_variance": 0.0, "pos_horiz_variance": 0.013944627717137337, "pos_vert_variance": 0.021732468158006668}}, "errors": ["PreArm: Hardware safety switch"]}
{"timestamp": "2026-01-24T20:45:52.185686Z", "telemetry": {"lat": 28.7531527, "lon": 77.1178444, "satellites": 0, "altitude_gps_m": 0.7400000095367432, "groundspeed_mps": 0.06030980870127678}, "flight": {"mode": "STABILIZE", "armed": false}, "ekf": {"attitude": {"roll": 0.07385814189910889, "pitch": -0.06897659599781036, "yaw": -0.5413661599159241}, "local_position": {"x": null, "y": null, "z": null}, "status": {"flags": 135, "velocity_variance": 0.0, "pos_horiz_variance": 0.014294658787548542, "pos_vert_variance": 0.04695659503340721}}, "errors": ["PreArm: Hardware safety switch"]}
{"timestamp": "2026-01-24T20:45:53.185804Z", "telemetry": {"lat": 28.7531527, "lon": 77.1178444, "satellites": 0, "altitude_gps_m": 0.7400000095367432, "groundspeed_mps": 0.06145501509308815}, "flight": {"mode": "STABILIZE", "armed": false}, "ekf": {"attitude": {"roll": 0.07387588918209076, "pitch": -0.06890751421451569, "yaw": -0.5412812829017639}, "local_position": {"x": null, "y": null, "z": null}, "status": {"flags": 135, "velocity_variance": 0.0, "pos_horiz_variance": 0.014668207615613937, "pos_vert_variance": 0.03312701731920242}}, "errors": ["PreArm: Hardware safety switch"]}
{"timestamp": "2026-01-24T20:45:54.185906Z", "telemetry": {"lat": 28.7531527, "lon": 77.1178444, "satellites": 0, "altitude_gps_m": 0.7400000095367432, "groundspeed_mps": 0.06296569854021072}, "flight": {"mode": "STABILIZE", "armed": false}, "ekf": {"attitude": {"roll": 0.07401902228593826, "pitch": -0.06883721053600311, "yaw": -0.5411396622657776}, "local_position": {"x": null, "y": null, "z": null}, "status": {"flags": 135, "velocity_variance": 0.0, "pos_horiz_variance": 0.014925806783139706, "pos_vert_variance": 0.00041688972851261497}}, "errors": ["PreArm: Hardware safety switch", "PreArm: Hardware safety switch"]}
{"timestamp": "2026-01-24T20:45:55.186199Z", "telemetry": {"lat": 28.7531527, "lon": 77.1178444, "satellites": 0, "altitude_gps_m": 0.7400000095367432, "groundspeed_mps": 0.057582788169384}, "flight": {"mode": "STABILIZE", "armed": false}, "ekf": {"attitude": {"roll": 0.07413484156131744, "pitch": -0.06898227334022522, "yaw": -0.5410433411598206}, "local_position": {"x": null, "y": null, "z": null}, "status": {"flags": 135, "velocity_variance": 0.0, "pos_horiz_variance": 0.014878349378705025, "pos_vert_variance": 0.03493224084377289}}, "errors": ["PreArm: Hardware safety switch", "PreArm: Hardware safety switch"]}
{"timestamp": "2026-01-24T20:45:56.185580Z", "telemetry": {"lat": 28.7531527, "lon": 77.1178444, "satellites": 0, "altitude_gps_m": 0.7400000095367432, "groundspeed_mps": 0.05953744053840637}, "flight": {"mode": "STABILIZE", "armed": false}, "ekf": {"attitude": {"roll": 0.07417626678943634, "pitch": -0.069080650806427, "yaw": -0.5410531163215637}, "local_position": {"x": null, "y": null, "z": null}, "status": {"flags": 135, "velocity_variance": 0.0, "pos_horiz_variance": 0.014543909579515457, "pos_vert_variance": 0.05804639682173729}}, "errors": ["PreArm: Hardware safety switch", "PreArm: Hardware safety switch"]}
{"timestamp": "2026-01-24T20:45:57.186070Z", "telemetry": {"lat": 28.7531527, "lon": 77.1178444, "satellites": 0, "altitude_gps_m": 0.7400000095367432, "groundspeed_mps": 0.06342631578445435}, "flight": {"mode": "STABILIZE", "armed": false}, "ekf": {"attitude": {"roll": 0.07412431389093399, "pitch": -0.06910565495491028, "yaw": -0.5411098599433899}, "local_position": {"x": null, "y": null, "z": null}, "status": {"flags": 135, "velocity_variance": 0.0, "pos_horiz_variance": 0.014740046113729477, "pos_vert_variance": 0.05030735209584236}}, "errors": ["PreArm: Hardware safety switch", "PreArm: Hardware safety switch"]}
{"timestamp": "2026-01-24T20:45:58.185656Z", "telemetry": {"lat": 28.7531527, "lon": 77.1178444, "satellites": 0, "altitude_gps_m": 0.7400000095367432, "groundspeed_mps": 0.06386861950159073}, "flight": {"mode": "STABILIZE", "armed": false}, "ekf": {"attitude": {"roll": 0.07405915856361389, "pitch": -0.06903684884309769, "yaw": -0.5412145853042603}, "local_position": {"x": null, "y": null, "z": null}, "status": {"flags": 135, "velocity_variance": 0.0, "pos_horiz_variance": 0.015149963088333607, "pos_vert_variance": 0.0033373429905623198}}, "errors": ["PreArm: Hardware safety switch", "PreArm: Hardware safety switch"]}
{"timestamp": "2026-01-24T20:45:59.185595Z", "telemetry": {"lat": 28.7531527, "lon": 77.1178444, "satellites": 0, "altitude_gps_m": 0.7400000095367432, "groundspeed_mps": 0.06482768803834915}, "flight": {"mode": "STABILIZE", "armed": false}, "ekf": {"attitude": {"roll": 0.07407385855913162, "pitch": -0.06909128278493881, "yaw": -0.5412104725837708}, "local_position": {"x": null, "y": null, "z": null}, "status": {"flags": 135, "velocity_variance": 0.0, "pos_horiz_variance": 0.015384944155812263, "pos_vert_variance": 0.028612956404685974}}, "errors": ["PreArm: Hardware safety switch", "PreArm: Hardware safety switch"]}
{"timestamp": "2026-01-24T20:46:00.185781Z", "telemetry": {"lat": 28.7531527, "lon": 77.1178444, "satellites": 0, "altitude_gps_m": 0.7400000095367432, "groundspeed_mps": 0.06464359909296036}, "flight": {"mode": "STABILIZE", "armed": false}, "ekf": {"attitude": {"roll": 0.07397419959306717, "pitch": -0.0692845806479454, "yaw": -0.5411428809165955}, "local_position": {"x": null, "y": null, "z": null}, "status": {"flags": 135, "velocity_variance": 0.0, "pos_horiz_variance": 0.015445029363036156, "pos_vert_variance": 0.04481165483593941}}, "errors": ["PreArm: Hardware safety switch", "PreArm: Hardware safety switch"]}
{"timestamp": "2026-01-24T20:46:01.185761Z", "telemetry": {"lat": 28.7531527, "lon": 77.1178444, "satellites": 0, "altitude_gps_m": 0.7400000095367432, "groundspeed_mps": 0.06722661852836609}, "flight": {"mode": "STABILIZE", "armed": false}, "ekf": {"attitude": {"roll": 0.07410748302936554, "pitch": -0.06926140189170837, "yaw": -0.5411789417266846}, "local_position": {"x": null, "y": null, "z": null}, "status": {"flags": 135, "velocity_variance": 0.0, "pos_horiz_variance": 0.015836915001273155, "pos_vert_variance": 0.00208736932836473}}, "errors": ["PreArm: Hardware safety switch", "PreArm: Hardware safety switch"]}
{"timestamp": "2026-01-24T20:46:02.185477Z", "telemetry": {"lat": 28.7531527, "lon": 77.1178444, "satellites": 0, "altitude_gps_m": 0.7400000095367432, "groundspeed_mps": 0.0662025734782219}, "flight": {"mode": "STABILIZE", "armed": false}, "ekf": {"attitude": {"roll": 0.07414670288562775, "pitch": -0.0691809132695198, "yaw": -0.5412296056747437}, "local_position": {"x": null, "y": null, "z": null}, "status": {"flags": 135, "velocity_variance": 0.0, "pos_horiz_variance": 0.016062654554843903, "pos_vert_variance": 0.09395519644021988}}, "errors": ["PreArm: Hardware safety switch", "PreArm: Hardware safety switch"]}
{"timestamp": "2026-01-24T20:46:03.185572Z", "telemetry": {"lat": 28.7531527, "lon": 77.1178444, "satellites": 0, "altitude_gps_m": 0.7400000095367432, "groundspeed_mps": 0.06462983787059784}, "flight": {"mode": "STABILIZE", "armed": false}, "ekf": {"attitude": {"roll": 0.07417890429496765, "pitch": -0.06912556290626526, "yaw": -0.5410057902336121}, "local_position": {"x": null, "y": null, "z": null}, "status": {"flags": 135, "velocity_variance": 0.0, "pos_horiz_variance": 0.0159036535769701, "pos_vert_variance": 0.0174071304500103}}, "errors": ["PreArm: Hardware safety switch", "PreArm: Hardware safety switch"]}
{"timestamp": "2026-01-24T20:46:04.185753Z", "telemetry": {"lat": 28.7531527, "lon": 77.1178444, "satellites": 0, "altitude_gps_m": 0.7400000095367432, "groundspeed_mps": 0.06417184323072433}, "flight": {"mode": "STABILIZE", "armed": false}, "ekf": {"attitude": {"roll": 0.07423604279756546, "pitch": -0.06900236010551453, "yaw": -0.5408466458320618}, "local_position": {"x": null, "y": null, "z": null}, "status": {"flags": 135, "velocity_variance": 0.0, "pos_horiz_variance": 0.01585172861814499, "pos_vert_variance": 0.057118818163871765}}, "errors": ["PreArm: Hardware safety switch", "PreArm: Hardware safety switch"]}
{"timestamp": "2026-01-24T20:46:05.185596Z", "telemetry": {"lat": 28.7531527, "lon": 77.1178444, "satellites": 0, "altitude_gps_m": 0.7400000095367432, "groundspeed_mps": 0.06270542740821838}, "flight": {"mode": "STABILIZE", "armed": false}, "ekf": {"attitude": {"roll": 0.0743502527475357, "pitch": -0.06907366961240768, "yaw": -0.5407180786132812}, "local_position": {"x": null, "y": null, "z": null}, "status": {"flags": 135, "velocity_variance": 0.0, "pos_horiz_variance": 0.015626905485987663, "pos_vert_variance": 0.05143021047115326}}, "errors": ["PreArm: Hardware safety switch", "PreArm: Hardware safety switch"]}
{"timestamp": "2026-01-24T20:46:06.186080Z", "telemetry": {"lat": 28.7531527, "lon": 77.1178444, "satellites": 0, "altitude_gps_m": 0.7400000095367432, "groundspeed_mps": 0.06323720514774323}, "flight": {"mode": "STABILIZE", "armed": false}, "ekf": {"attitude": {"roll": 0.07442399859428406, "pitch": -0.06914777308702469, "yaw": -0.5404654741287231}, "local_position": {"x": null, "y": null, "z": null}, "status": {"flags": 135, "velocity_variance": 0.0, "pos_horiz_variance": 0.015483932569622993, "pos_vert_variance": 0.012130617164075375}}, "errors": ["PreArm: Hardware safety switch", "PreArm: Hardware safety switch"]}
{"timestamp": "2026-01-24T20:46:07.185728Z", "telemetry": {"lat": 28.7531527, "lon": 77.1178444, "satellites": 0, "altitude_gps_m": 0.7400000095367432, "groundspeed_mps": 0.06221581995487213}, "flight": {"mode": "STABILIZE", "armed": false}, "ekf": {"attitude": {"roll": 0.0744856595993042, "pitch": -0.06909529864788055, "yaw": -0.5402842164039612}, "local_position": {"x": null, "y": null, "z": null}, "status": {"flags": 135, "velocity_variance": 0.0, "pos_horiz_variance": 0.01538964081555605, "pos_vert_variance": 0.03446667268872261}}, "errors": ["PreArm: Hardware safety switch", "PreArm: Hardware safety switch"]}
{"timestamp": "2026-01-24T20:46:08.185780Z", "telemetry": {"lat": 28.7531527, "lon": 77.1178444, "satellites": 0, "altitude_gps_m": 0.7400000095367432, "groundspeed_mps": 0.06404802948236465}, "flight": {"mode": "STABILIZE", "armed": false}, "ekf": {"attitude": {"roll": 0.07447860389947891, "pitch": -0.06906821578741074, "yaw": -0.5400731563568115}, "local_position": {"x": null, "y": null, "z": null}, "status": {"flags": 135, "velocity_variance": 0.0, "pos_horiz_variance": 0.01545400358736515, "pos_vert_variance": 0.003117642365396023}}, "errors": ["PreArm: Hardware safety switch", "PreArm: Hardware safety switch"]}
{"timestamp": "2026-01-24T20:46:09.185804Z", "telemetry": {"lat": 28.7531527, "lon": 77.1178444, "satellites": 0, "altitude_gps_m": 0.7400000095367432, "groundspeed_mps": 0.0626216009259224}, "flight": {"mode": "STABILIZE", "armed": false}, "ekf": {"attitude": {"roll": 0.07436627894639969, "pitch": -0.06911633908748627, "yaw": -0.5399299263954163}, "local_position": {"x": null, "y": null, "z": null}, "status": {"flags": 135, "velocity_variance": 0.0, "pos_horiz_variance": 0.015383395366370678, "pos_vert_variance": 0.024022331461310387}}, "errors": ["PreArm: Hardware safety switch", "PreArm: Hardware safety switch"]}
{"timestamp": "2026-01-24T20:46:10.173721Z", "telemetry": {"lat": 28.7531527, "lon": 77.1178444, "satellites": 0, "altitude_gps_m": 0.7400000095367432, "groundspeed_mps": 0.06283014267683029}, "flight": {"mode": "STABILIZE", "armed": false}, "ekf": {"attitude": {"roll": 0.07442397624254227, "pitch": -0.06922810524702072, "yaw": -0.5399279594421387}, "local_position": {"x": null, "y": null, "z": null}, "status": {"flags": 135, "velocity_variance": 0.0, "pos_horiz_variance": 0.015278778970241547, "pos_vert_variance": 0.0034586628898978233}}, "errors": ["PreArm: Hardware safety switch", "PreArm: Hardware safety switch"]}
{"timestamp": "2026-01-24T20:46:11.185725Z", "telemetry": {"lat": 28.7531527, "lon": 77.1178444, "satellites": 0, "altitude_gps_m": 0.7400000095367432, "groundspeed_mps": 0.0643521174788475}, "flight": {"mode": "STABILIZE", "armed": false}, "ekf": {"attitude": {"roll": 0.0745023638010025, "pitch": -0.0694250762462616, "yaw": -0.5397988557815552}, "local_position": {"x": null, "y": null, "z": null}, "status": {"flags": 135, "velocity_variance": 0.0, "pos_horiz_variance": 0.0153706269338727, "pos_vert_variance": 0.0950203612446785}}, "errors": ["PreArm: Hardware safety switch", "PreArm: Hardware safety switch"]}
{"timestamp": "2026-01-24T20:46:12.176993Z", "telemetry": {"lat": 28.7531527, "lon": 77.1178444, "satellites": 0, "altitude_gps_m": 0.7400000095367432, "groundspeed_mps": 0.06740763783454895}, "flight": {"mode": "STABILIZE", "armed": false}, "ekf": {"attitude": {"roll": 0.07461337745189667, "pitch": -0.06945571303367615, "yaw": -0.5398538112640381}, "local_position": {"x": null, "y": null, "z": null}, "status": {"flags": 135, "velocity_variance": 0.0, "pos_horiz_variance": 0.01586127281188965, "pos_vert_variance": 0.09746121615171432}}, "errors": ["PreArm: Hardware safety switch", "PreArm: Hardware safety switch"]}
{"timestamp": "2026-01-24T20:46:13.484037Z", "telemetry": {"lat": 28.7531527, "lon": 77.1178444, "satellites": 0, "altitude_gps_m": 0.7400000095367432, "groundspeed_mps": 0.07273513078689575}, "flight": {"mode": "STABILIZE", "armed": false}, "ekf": {"attitude": {"roll": 0.07485216110944748, "pitch": -0.06947042793035507, "yaw": -0.5397101640701294}, "local_position": {"x": null, "y": null, "z": null}, "status": {"flags": 135, "velocity_variance": 0.0, "pos_horiz_variance": 0.016684703528881073, "pos_vert_variance": 0.018590014427900314}}, "errors": ["PreArm: Hardware safety switch", "PreArm: Hardware safety switch"]}
{"timestamp": "2026-01-24T20:46:14.186038Z", "telemetry": {"lat": 28.7531527, "lon": 77.1178444, "satellites": 0, "altitude_gps_m": 0.7400000095367432, "groundspeed_mps": 0.07460065931081772}, "flight": {"mode": "STABILIZE", "armed": false}, "ekf": {"attitude": {"roll": 0.07486235350370407, "pitch": -0.06946855783462524, "yaw": -0.5398001670837402}, "local_position": {"x": null, "y": null, "z": null}, "status": {"flags": 135, "velocity_variance": 0.0, "pos_horiz_variance": 0.01713637076318264, "pos_vert_variance": 0.042649392038583755}}, "errors": ["PreArm: Hardware safety switch", "PreArm: Hardware safety switch"]}
{"timestamp": "2026-01-24T20:46:15.185560Z", "telemetry": {"lat": 28.7531527, "lon": 77.1178444, "satellites": 0, "altitude_gps_m": 0.7400000095367432, "groundspeed_mps": 0.07446747273206711}, "flight": {"mode": "STABILIZE", "armed": false}, "ekf": {"attitude": {"roll": 0.07499156892299652, "pitch": -0.06930601596832275, "yaw": -0.5396610498428345}, "local_position": {"x": null, "y": null, "z": null}, "status": {"flags": 135, "velocity_variance": 0.0, "pos_horiz_variance": 0.017759865149855614, "pos_vert_variance": 0.03385768458247185}}, "errors": ["PreArm: Hardware safety switch", "PreArm: Hardware safety switch"]}
{"timestamp": "2026-01-24T20:46:16.185562Z", "telemetry": {"lat": 28.7531527, "lon": 77.1178444, "satellites": 0, "altitude_gps_m": 0.7400000095367432, "groundspeed_mps": 0.06806233525276184}, "flight": {"mode": "STABILIZE", "armed": false}, "ekf": {"attitude": {"roll": 0.07515540719032288, "pitch": -0.06945917010307312, "yaw": -0.5394605398178101}, "local_position": {"x": null, "y": null, "z": null}, "status": {"flags": 135, "velocity_variance": 0.0, "pos_horiz_variance": 0.017354821786284447, "pos_vert_variance": 0.1290089637041092}}, "errors": ["PreArm: Hardware safety switch", "PreArm: Hardware safety switch"]}
{"timestamp": "2026-01-24T20:46:17.185338Z", "telemetry": {"lat": 28.7531527, "lon": 77.1178444, "satellites": 0, "altitude_gps_m": 0.7400000095367432, "groundspeed_mps": 0.06763865053653717}, "flight": {"mode": "STABILIZE", "armed": false}, "ekf": {"attitude": {"roll": 0.07518482208251953, "pitch": -0.0694926381111145, "yaw": -0.5393288135528564}, "local_position": {"x": null, "y": null, "z": null}, "status": {"flags": 135, "velocity_variance": 0.0, "pos_horiz_variance": 0.016870399937033653, "pos_vert_variance": 0.01697179488837719}}, "errors": ["PreArm: Hardware safety switch", "PreArm: Hardware safety switch"]}
{"timestamp": "2026-01-24T20:46:18.185563Z", "telemetry": {"lat": 28.7531527, "lon": 77.1178444, "satellites": 0, "altitude_gps_m": 0.7400000095367432, "groundspeed_mps": 0.06818999350070953}, "flight": {"mode": "STABILIZE", "armed": false}, "ekf": {"attitude": {"roll": 0.07506969571113586, "pitch": -0.0692870020866394, "yaw": -0.5392335653305054}, "local_position": {"x": null, "y": null, "z": null}, "status": {"flags": 135, "velocity_variance": 0.0, "pos_horiz_variance": 0.016716407611966133, "pos_vert_variance": 0.01430062297731638}}, "errors": ["PreArm: Hardware safety switch", "PreArm: Hardware safety switch"]}
{"timestamp": "2026-01-24T20:46:19.185679Z", "telemetry": {"lat": 28.7531527, "lon": 77.1178444, "satellites": 0, "altitude_gps_m": 0.7400000095367432, "groundspeed_mps": 0.06631305068731308}, "flight": {"mode": "STABILIZE", "armed": false}, "ekf": {"attitude": {"roll": 0.07485758513212204, "pitch": -0.0691300481557846, "yaw": -0.539047122001648}, "local_position": {"x": null, "y": null, "z": null}, "status": {"flags": 135, "velocity_variance": 0.0, "pos_horiz_variance": 0.016563396900892258, "pos_vert_variance": 0.04316306859254837}}, "errors": ["PreArm: Hardware safety switch", "PreArm: Hardware safety switch"]}
{"timestamp": "2026-01-24T20:46:20.185729Z", "telemetry": {"lat": 28.7531527, "lon": 77.1178444, "satellites": 0, "altitude_gps_m": 0.7400000095367432, "groundspeed_mps": 0.06392766535282135}, "flight": {"mode": "STABILIZE", "armed": false}, "ekf": {"attitude": {"roll": 0.07482445240020752, "pitch": -0.06914149969816208, "yaw": -0.538886308670044}, "local_position": {"x": null, "y": null, "z": null}, "status": {"flags": 135, "velocity_variance": 0.0, "pos_horiz_variance": 0.016116276383399963, "pos_vert_variance": 0.02513197623193264}}, "errors": ["PreArm: Hardware safety switch", "PreArm: Hardware safety switch"]}
{"timestamp": "2026-01-24T20:46:21.185208Z", "telemetry": {"lat": 28.7531527, "lon": 77.1178444, "satellites": 0, "altitude_gps_m": 0.7400000095367432, "groundspeed_mps": 0.06979520618915558}, "flight": {"mode": "STABILIZE", "armed": false}, "ekf": {"attitude": {"roll": 0.07473181188106537, "pitch": -0.0691656619310379, "yaw": -0.5386577248573303}, "local_position": {"x": null, "y": null, "z": null}, "status": {"flags": 135, "velocity_variance": 0.0, "pos_horiz_variance": 0.01611410081386566, "pos_vert_variance": 0.03218545764684677}}, "errors": ["PreArm: Hardware safety switch", "PreArm: Hardware safety switch"]}
{"timestamp": "2026-01-24T20:46:22.146643Z", "telemetry": {"lat": 28.7531527, "lon": 77.1178444, "satellites": 0, "altitude_gps_m": 0.7400000095367432, "groundspeed_mps": 0.072074294090271}, "flight": {"mode": "STABILIZE", "armed": false}, "ekf": {"attitude": {"roll": 0.07475260645151138, "pitch": -0.0692126601934433, "yaw": -0.5385076999664307}, "local_position": {"x": null, "y": null, "z": null}, "status": {"flags": 135, "velocity_variance": 0.0, "pos_horiz_variance": 0.01688544824719429, "pos_vert_variance": 0.044533878564834595}}, "errors": ["PreArm: Hardware safety switch", "PreArm: Hardware safety switch"]}
{"timestamp": "2026-01-24T20:46:23.185638Z", "telemetry": {"lat": 28.7531527, "lon": 77.1178444, "satellites": 0, "altitude_gps_m": 0.7400000095367432, "groundspeed_mps": 0.07508500665426254}, "flight": {"mode": "STABILIZE", "armed": false}, "ekf": {"attitude": {"roll": 0.07478725165128708, "pitch": -0.06928009539842606, "yaw": -0.5384311079978943}, "local_position": {"x": null, "y": null, "z": null}, "status": {"flags": 135, "velocity_variance": 0.0, "pos_horiz_variance": 0.017515024170279503, "pos_vert_variance": 0.03933993726968765}}, "errors": ["PreArm: Hardware safety switch", "PreArm: Hardware safety switch"]}
{"timestamp": "2026-01-24T20:46:24.186191Z", "telemetry": {"lat": 28.7531527, "lon": 77.1178444, "satellites": 0, "altitude_gps_m": 0.7400000095367432, "groundspeed_mps": 0.07143039256334305}, "flight": {"mode": "STABILIZE", "armed": false}, "ekf": {"attitude": {"roll": 0.07487039268016815, "pitch": -0.06930320709943771, "yaw": -0.5383363962173462}, "local_position": {"x": null, "y": null, "z": null}, "status": {"flags": 135, "velocity_variance": 0.0, "pos_horiz_variance": 0.017668597400188446, "pos_vert_variance": 0.08127129077911377}}, "errors": ["PreArm: Hardware safety switch", "PreArm: Hardware safety switch"]}
{"timestamp": "2026-01-24T20:46:25.185818Z", "telemetry": {"lat": 28.7531527, "lon": 77.1178444, "satellites": 0, "altitude_gps_m": 0.7400000095367432, "groundspeed_mps": 0.06788165122270584}, "flight": {"mode": "STABILIZE", "armed": false}, "ekf": {"attitude": {"roll": 0.0750601515173912, "pitch": -0.06919871270656586, "yaw": -0.5382816791534424}, "local_position": {"x": null, "y": null, "z": null}, "status": {"flags": 135, "velocity_variance": 0.0, "pos_horiz_variance": 0.017299355939030647, "pos_vert_variance": 0.022762363776564598}}, "errors": ["PreArm: Hardware safety switch", "PreArm: Hardware safety switch", "PreArm: Hardware safety switch"]}
{"timestamp": "2026-01-24T20:46:26.185481Z", "telemetry": {"lat": 28.7531527, "lon": 77.1178444, "satellites": 0, "altitude_gps_m": 0.7400000095367432, "groundspeed_mps": 0.06620513647794724}, "flight": {"mode": "STABILIZE", "armed": false}, "ekf": {"attitude": {"roll": 0.07526565343141556, "pitch": -0.06922458857297897, "yaw": -0.5382567644119263}, "local_position": {"x": null, "y": null, "z": null}, "status": {"flags": 135, "velocity_variance": 0.0, "pos_horiz_variance": 0.01662035845220089, "pos_vert_variance": 0.022089269012212753}}, "errors": ["PreArm: Hardware safety switch", "PreArm: Hardware safety switch", "PreArm: Hardware safety switch"]}
{"timestamp": "2026-01-24T20:46:27.185428Z", "telemetry": {"lat": 28.7531527, "lon": 77.1178444, "satellites": 0, "altitude_gps_m": 0.7400000095367432, "groundspeed_mps": 0.06827469915151596}, "flight": {"mode": "STABILIZE", "armed": false}, "ekf": {"attitude": {"roll": 0.07554055005311966, "pitch": -0.06926432251930237, "yaw": -0.5383119583129883}, "local_position": {"x": null, "y": null, "z": null}, "status": {"flags": 135, "velocity_variance": 0.0, "pos_horiz_variance": 0.01657942682504654, "pos_vert_variance": 0.01709284819662571}}, "errors": ["PreArm: Hardware safety switch", "PreArm: Hardware safety switch", "PreArm: Hardware safety switch"]}
{"timestamp": "2026-01-24T20:46:28.186067Z", "telemetry": {"lat": 28.7531527, "lon": 77.1178444, "satellites": 0, "altitude_gps_m": 0.7400000095367432, "groundspeed_mps": 0.0671716034412384}, "flight": {"mode": "STABILIZE", "armed": false}, "ekf": {"attitude": {"roll": 0.07577770948410034, "pitch": -0.06935713440179825, "yaw": -0.5382975339889526}, "local_position": {"x": null, "y": null, "z": null}, "status": {"flags": 135, "velocity_variance": 0.0, "pos_horiz_variance": 0.01669331267476082, "pos_vert_variance": 0.026789460331201553}}, "errors": ["PreArm: Hardware safety switch", "PreArm: Hardware safety switch", "PreArm: Hardware safety switch"]}
{"timestamp": "2026-01-24T20:46:29.185406Z", "telemetry": {"lat": 28.7531527, "lon": 77.1178444, "satellites": 0, "altitude_gps_m": 0.7400000095367432, "groundspeed_mps": 0.0681227296590805}, "flight": {"mode": "STABILIZE", "armed": false}, "ekf": {"attitude": {"roll": 0.07578735798597336, "pitch": -0.06934413313865662, "yaw": -0.5383599400520325}, "local_position": {"x": null, "y": null, "z": null}, "status": {"flags": 135, "velocity_variance": 0.0, "pos_horiz_variance": 0.016520613804459572, "pos_vert_variance": 0.011018645018339157}}, "errors": ["PreArm: Hardware safety switch", "PreArm: Hardware safety switch", "PreArm: Hardware safety switch"]}
{"timestamp": "2026-01-24T20:46:30.185365Z", "telemetry": {"lat": 28.7531527, "lon": 77.1178444, "satellites": 0, "altitude_gps_m": 0.7400000095367432, "groundspeed_mps": 0.06767629832029343}, "flight": {"mode": "STABILIZE", "armed": false}, "ekf": {"attitude": {"roll": 0.0755855143070221, "pitch": -0.06918974220752716, "yaw": -0.5382530093193054}, "local_position": {"x": null, "y": null, "z": null}, "status": {"flags": 135, "velocity_variance": 0.0, "pos_horiz_variance": 0.01655680686235428, "pos_vert_variance": 0.04195014014840126}}, "errors": ["PreArm: Hardware safety switch", "PreArm: Hardware safety switch", "PreArm: Hardware safety switch"]}
{"timestamp": "2026-01-24T20:46:31.185205Z", "telemetry": {"lat": 28.7531527, "lon": 77.1178444, "satellites": 0, "altitude_gps_m": 0.7400000095367432, "groundspeed_mps": 0.06640179455280304}, "flight": {"mode": "STABILIZE", "armed": false}, "ekf": {"attitude": {"roll": 0.07546070218086243, "pitch": -0.06912501156330109, "yaw": -0.5380955934524536}, "local_position": {"x": null, "y": null, "z": null}, "status": {"flags": 135, "velocity_variance": 0.0, "pos_horiz_variance": 0.01650933548808098, "pos_vert_variance": 0.004123060964047909}}, "errors": ["PreArm: Hardware safety switch", "PreArm: Hardware safety switch", "PreArm: Hardware safety switch"]}
{"timestamp": "2026-01-24T20:46:32.185118Z", "telemetry": {"lat": 28.7531527, "lon": 77.1178444, "satellites": 0, "altitude_gps_m": 0.7400000095367432, "groundspeed_mps": 0.0643932893872261}, "flight": {"mode": "STABILIZE", "armed": false}, "ekf": {"attitude": {"roll": 0.07534290105104446, "pitch": -0.06908082216978073, "yaw": -0.5379388332366943}, "local_position": {"x": null, "y": null, "z": null}, "status": {"flags": 135, "velocity_variance": 0.0, "pos_horiz_variance": 0.016303997486829758, "pos_vert_variance": 0.028916293755173683}}, "errors": ["PreArm: Hardware safety switch", "PreArm: Hardware safety switch", "PreArm: Hardware safety switch"]}
{"timestamp": "2026-01-24T20:46:33.186521Z", "telemetry": {"lat": 28.7531527, "lon": 77.1178444, "satellites": 0, "altitude_gps_m": 0.7400000095367432, "groundspeed_mps": 0.065590500831604}, "flight": {"mode": "STABILIZE", "armed": false}, "ekf": {"attitude": {"roll": 0.0751536563038826, "pitch": -0.06917554140090942, "yaw": -0.5378031134605408}, "local_position": {"x": null, "y": null, "z": null}, "status": {"flags": 135, "velocity_variance": 0.0, "pos_horiz_variance": 0.01605536788702011, "pos_vert_variance": 0.008952062577009201}}, "errors": ["PreArm: Hardware safety switch", "PreArm: Hardware safety switch", "PreArm: Hardware safety switch"]}
{"timestamp": "2026-01-24T20:46:34.185216Z", "telemetry": {"lat": 28.7531527, "lon": 77.1178444, "satellites": 0, "altitude_gps_m": 0.7400000095367432, "groundspeed_mps": 0.06777036190032959}, "flight": {"mode": "STABILIZE", "armed": false}, "ekf": {"attitude": {"roll": 0.07514573633670807, "pitch": -0.06919591128826141, "yaw": -0.5375514030456543}, "local_position": {"x": null, "y": null, "z": null}, "status": {"flags": 135, "velocity_variance": 0.0, "pos_horiz_variance": 0.016020510345697403, "pos_vert_variance": 0.0238689873367548}}, "errors": ["PreArm: Hardware safety switch", "PreArm: Hardware safety switch", "PreArm: Hardware safety switch"]}
{"timestamp": "2026-01-24T20:46:35.185460Z", "telemetry": {"lat": 28.7531527, "lon": 77.1178444, "satellites": 0, "altitude_gps_m": 0.7400000095367432, "groundspeed_mps": 0.06875515729188919}, "flight": {"mode": "STABILIZE", "armed": false}, "ekf": {"attitude": {"roll": 0.07526840269565582, "pitch": -0.06912355124950409, "yaw": -0.5374794006347656}, "local_position": {"x": null, "y": null, "z": null}, "status": {"flags": 135, "velocity_variance": 0.0, "pos_horiz_variance": 0.016397496685385704, "pos_vert_variance": 0.05155054107308388}}, "errors": ["PreArm: Hardware safety switch", "PreArm: Hardware safety switch", "PreArm: Hardware safety switch"]}
{"timestamp": "2026-01-24T20:46:36.185134Z", "telemetry": {"lat": 28.7531527, "lon": 77.1178444, "satellites": 0, "altitude_gps_m": 0.7400000095367432, "groundspeed_mps": 0.06553873419761658}, "flight": {"mode": "STABILIZE", "armed": false}, "ekf": {"attitude": {"roll": 0.07535754889249802, "pitch": -0.06918750703334808, "yaw": -0.537571907043457}, "local_position": {"x": null, "y": null, "z": null}, "status": {"flags": 135, "velocity_variance": 0.0, "pos_horiz_variance": 0.01645875722169876, "pos_vert_variance": 0.03225059434771538}}, "errors": ["PreArm: Hardware safety switch", "PreArm: Hardware safety switch", "PreArm: Hardware safety switch"]}
{"timestamp": "2026-01-24T20:46:37.185071Z", "telemetry": {"lat": 28.7531527, "lon": 77.1178444, "satellites": 0, "altitude_gps_m": 0.7400000095367432, "groundspeed_mps": 0.06376881152391434}, "flight": {"mode": "STABILIZE", "armed": false}, "ekf": {"attitude": {"roll": 0.07547573745250702, "pitch": -0.06905979663133621, "yaw": -0.5377107858657837}, "local_position": {"x": null, "y": null, "z": null}, "status": {"flags": 135, "velocity_variance": 0.0, "pos_horiz_variance": 0.016173681244254112, "pos_vert_variance": 0.1208181381225586}}, "errors": ["PreArm: Hardware safety switch", "PreArm: Hardware safety switch", "PreArm: Hardware safety switch"]}
{"timestamp": "2026-01-24T20:46:38.185107Z", "telemetry": {"lat": 28.7531527, "lon": 77.1178444, "satellites": 0, "altitude_gps_m": 0.7400000095367432, "groundspeed_mps": 0.06567299365997314}, "flight": {"mode": "STABILIZE", "armed": false}, "ekf": {"attitude": {"roll": 0.075469009578228, "pitch": -0.06906452029943466, "yaw": -0.5375753045082092}, "local_position": {"x": null, "y": null, "z": null}, "status": {"flags": 135, "velocity_variance": 0.0, "pos_horiz_variance": 0.015842275694012642, "pos_vert_variance": 0.016969090327620506}}, "errors": ["PreArm: Hardware safety switch", "PreArm: Hardware safety switch", "PreArm: Hardware safety switch"]}
{"timestamp": "2026-01-24T20:46:39.185458Z", "telemetry": {"lat": 28.7531527, "lon": 77.1178444, "satellites": 0, "altitude_gps_m": 0.7400000095367432, "groundspeed_mps": 0.06689257174730301}, "flight": {"mode": "STABILIZE", "armed": false}, "ekf": {"attitude": {"roll": 0.07543668895959854, "pitch": -0.06907524168491364, "yaw": -0.53756183385849}, "local_position": {"x": null, "y": null, "z": null}, "status": {"flags": 135, "velocity_variance": 0.0, "pos_horiz_variance": 0.015915032476186752, "pos_vert_variance": 0.03595544025301933}}, "errors": ["PreArm: Hardware safety switch", "PreArm: Hardware safety switch", "PreArm: Hardware safety switch"]}
{"timestamp": "2026-01-24T20:46:40.185589Z", "telemetry": {"lat": 28.7531527, "lon": 77.1178444, "satellites": 0, "altitude_gps_m": 0.7400000095367432, "groundspeed_mps": 0.06834220141172409}, "flight": {"mode": "STABILIZE", "armed": false}, "ekf": {"attitude": {"roll": 0.07548103481531143, "pitch": -0.06919114291667938, "yaw": -0.5374155044555664}, "local_position": {"x": null, "y": null, "z": null}, "status": {"flags": 135, "velocity_variance": 0.0, "pos_horiz_variance": 0.016158495098352432, "pos_vert_variance": 0.09881497919559479}}, "errors": ["PreArm: Hardware safety switch", "PreArm: Hardware safety switch", "PreArm: Hardware safety switch"]}
{"timestamp": "2026-01-24T20:46:41.185097Z", "telemetry": {"lat": 28.7531527, "lon": 77.1178444, "satellites": 0, "altitude_gps_m": 0.7400000095367432, "groundspeed_mps": 0.06829417496919632}, "flight": {"mode": "STABILIZE", "armed": false}, "ekf": {"attitude": {"roll": 0.07557283341884613, "pitch": -0.06926491111516953, "yaw": -0.5374597311019897}, "local_position": {"x": null, "y": null, "z": null}, "status": {"flags": 135, "velocity_variance": 0.0, "pos_horiz_variance": 0.01640879549086094, "pos_vert_variance": 0.0535348616540432}}, "errors": ["PreArm: Hardware safety switch", "PreArm: Hardware safety switch", "PreArm: Hardware safety switch"]}
{"timestamp": "2026-01-24T20:46:42.185121Z", "telemetry": {"lat": 28.7531527, "lon": 77.1178444, "satellites": 0, "altitude_gps_m": 0.7400000095367432, "groundspeed_mps": 0.068954698741436}, "flight": {"mode": "STABILIZE", "armed": false}, "ekf": {"attitude": {"roll": 0.07567243278026581, "pitch": -0.06935369223356247, "yaw": -0.5373449921607971}, "local_position": {"x": null, "y": null, "z": null}, "status": {"flags": 135, "velocity_variance": 0.0, "pos_horiz_variance": 0.016712235286831856, "pos_vert_variance": 0.19939681887626648}}, "errors": ["PreArm: Hardware safety switch", "PreArm: Hardware safety switch", "PreArm: Hardware safety switch"]}
{"timestamp": "2026-01-24T20:46:43.185558Z", "telemetry": {"lat": 28.7531527, "lon": 77.1178444, "satellites": 0, "altitude_gps_m": 0.7400000095367432, "groundspeed_mps": 0.07075946778059006}, "flight": {"mode": "STABILIZE", "armed": false}, "ekf": {"attitude": {"roll": 0.07568193227052689, "pitch": -0.0693577453494072, "yaw": -0.5373237729072571}, "local_position": {"x": null, "y": null, "z": null}, "status": {"flags": 135, "velocity_variance": 0.0, "pos_horiz_variance": 0.01696167141199112, "pos_vert_variance": 0.008167905732989311}}, "errors": ["PreArm: Hardware safety switch", "PreArm: Hardware safety switch", "PreArm: Hardware safety switch"]}
{"timestamp": "2026-01-24T20:46:44.185261Z", "telemetry": {"lat": 28.7531527, "lon": 77.1178444, "satellites": 0, "altitude_gps_m": 0.7400000095367432, "groundspeed_mps": 0.06936858594417572}, "flight": {"mode": "STABILIZE", "armed": false}, "ekf": {"attitude": {"roll": 0.07566061615943909, "pitch": -0.06914877146482468, "yaw": -0.5372291207313538}, "local_position": {"x": null, "y": null, "z": null}, "status": {"flags": 135, "velocity_variance": 0.0, "pos_horiz_variance": 0.017057208344340324, "pos_vert_variance": 0.060272153466939926}}, "errors": ["PreArm: Hardware safety switch", "PreArm: Hardware safety switch", "PreArm: Hardware safety switch"]}
{"timestamp": "2026-01-24T20:46:45.185091Z", "telemetry": {"lat": 28.7531527, "lon": 77.1178444, "satellites": 0, "altitude_gps_m": 0.7400000095367432, "groundspeed_mps": 0.0696527510881424}, "flight": {"mode": "STABILIZE", "armed": false}, "ekf": {"attitude": {"roll": 0.07572359591722488, "pitch": -0.06910150498151779, "yaw": -0.5371299386024475}, "local_position": {"x": null, "y": null, "z": null}, "status": {"flags": 135, "velocity_variance": 0.0, "pos_horiz_variance": 0.01689339429140091, "pos_vert_variance": 0.10905341804027557}}, "errors": ["PreArm: Hardware safety switch", "PreArm: Hardware safety switch", "PreArm: Hardware safety switch"]}
{"timestamp": "2026-01-24T20:46:46.185242Z", "telemetry": {"lat": 28.7531527, "lon": 77.1178444, "satellites": 0, "altitude_gps_m": 0.7400000095367432, "groundspeed_mps": 0.06929977983236313}, "flight": {"mode": "STABILIZE", "armed": false}, "ekf": {"attitude": {"roll": 0.07563129812479019, "pitch": -0.06909435987472534, "yaw": -0.5371150374412537}, "local_position": {"x": null, "y": null, "z": null}, "status": {"flags": 135, "velocity_variance": 0.0, "pos_horiz_variance": 0.01687786728143692, "pos_vert_variance": 0.10129133611917496}}, "errors": ["PreArm: Hardware safety switch", "PreArm: Hardware safety switch", "PreArm: Hardware safety switch"]}
{"timestamp": "2026-01-24T20:46:47.184904Z", "telemetry": {"lat": 28.7531527, "lon": 77.1178444, "satellites": 0, "altitude_gps_m": 0.7400000095367432, "groundspeed_mps": 0.06864053755998611}, "flight": {"mode": "STABILIZE", "armed": false}, "ekf": {"attitude": {"roll": 0.07553999125957489, "pitch": -0.06909400224685669, "yaw": -0.5370035767555237}, "local_position": {"x": null, "y": null, "z": null}, "status": {"flags": 135, "velocity_variance": 0.0, "pos_horiz_variance": 0.01688321866095066, "pos_vert_variance": 0.09168466180562973}}, "errors": ["PreArm: Hardware safety switch", "PreArm: Hardware safety switch", "PreArm: Hardware safety switch"]}
{"timestamp": "2026-01-24T20:46:48.185331Z", "telemetry": {"lat": 28.7531527, "lon": 77.1178444, "satellites": 0, "altitude_gps_m": 0.7400000095367432, "groundspeed_mps": 0.06793493777513504}, "flight": {"mode": "STABILIZE", "armed": false}, "ekf": {"attitude": {"roll": 0.07547532021999359, "pitch": -0.0692010447382927, "yaw": -0.5369828939437866}, "local_position": {"x": null, "y": null, "z": null}, "status": {"flags": 135, "velocity_variance": 0.0, "pos_horiz_variance": 0.016577811911702156, "pos_vert_variance": 0.030452363193035126}}, "errors": ["PreArm: Hardware safety switch", "PreArm: Hardware safety switch", "PreArm: Hardware safety switch"]}
{"timestamp": "2026-01-24T20:46:49.185193Z", "telemetry": {"lat": 28.7531527, "lon": 77.1178444, "satellites": 0, "altitude_gps_m": 0.7400000095367432, "groundspeed_mps": 0.07060639560222626}, "flight": {"mode": "STABILIZE", "armed": false}, "ekf": {"attitude": {"roll": 0.07549832761287689, "pitch": -0.06928384304046631, "yaw": -0.5368649363517761}, "local_position": {"x": null, "y": null, "z": null}, "status": {"flags": 135, "velocity_variance": 0.0, "pos_horiz_variance": 0.016563741490244865, "pos_vert_variance": 0.06284543871879578}}, "errors": ["PreArm: Hardware safety switch", "PreArm: Hardware safety switch", "PreArm: Hardware safety switch"]}
{"timestamp": "2026-01-24T20:46:50.184945Z", "telemetry": {"lat": 28.7531527, "lon": 77.1178444, "satellites": 0, "altitude_gps_m": 0.7400000095367432, "groundspeed_mps": 0.0699121281504631}, "flight": {"mode": "STABILIZE", "armed": false}, "ekf": {"attitude": {"roll": 0.07560061663389206, "pitch": -0.06922043859958649, "yaw": -0.536719024181366}, "local_position": {"x": null, "y": null, "z": null}, "status": {"flags": 135, "velocity_variance": 0.0, "pos_horiz_variance": 0.016989966854453087, "pos_vert_variance": 0.22512935101985931}}, "errors": ["PreArm: Hardware safety switch", "PreArm: Hardware safety switch", "PreArm: Hardware safety switch"]}
