{"timestamp": "2026-01-25T11:23:11.411367Z", "telemetry": {"lat": 0.0, "lon": 0.0, "satellites": 0, "altitude_gps_m": 0.5699999928474426, "groundspeed_mps": 0.006432266440242529}, "flight": {"mode": "ALT_HOLD", "armed": false}, "ekf": {"attitude": {"roll": 0.017269739881157875, "pitch": -0.0027024075388908386, "yaw": -3.0141308307647705}, "local_position": {"x": null, "y": null, "z": null}, "status": {"flags": 135, "velocity_variance": 0.0, "pos_horiz_variance": 0.002672209171578288, "pos_vert_variance": 0.003405510215088725}}, "errors": []}
{"timestamp": "2026-01-25T11:23:12.488318Z", "telemetry": {"lat": 0.0, "lon": 0.0, "satellites": 0, "altitude_gps_m": 0.5699999928474426, "groundspeed_mps": 0.003659529611468315}, "flight": {"mode": "ALT_HOLD", "armed": false}, "ekf": {"attitude": {"roll": 0.01726674474775791, "pitch": -0.0027889013290405273, "yaw": -3.014214277267456}, "local_position": {"x": null, "y": null, "z": null}, "status": {"flags": 135, "velocity_variance": 0.0, "pos_horiz_variance": 0.0018835699884220958, "pos_vert_variance": 0.12527777254581451}}, "errors": []}
{"timestamp": "2026-01-25T11:23:13.530022Z", "telemetry": {"lat": 0.0, "lon": 0.0, "satellites": 0, "altitude_gps_m": 0.5699999928474426, "groundspeed_mps": 0.004141832701861858}, "flight": {"mode": "ALT_HOLD", "armed": false}, "ekf": {"attitude": {"roll": 0.01727934367954731, "pitch": -0.002787824720144272, "yaw": -3.014116048812866}, "local_position": {"x": null, "y": null, "z": null}, "status": {"flags": 135, "velocity_variance": 0.0, "pos_horiz_variance": 0.0014617618871852756, "pos_vert_variance": 0.018122414126992226}}, "errors": []}
{"timestamp": "2026-01-25T11:23:14.567909Z", "telemetry": {"lat": 0.0, "lon": 0.0, "satellites": 0, "altitude_gps_m": 0.5699999928474426, "groundspeed_mps": 0.002450691070407629}, "flight": {"mode": "ALT_HOLD", "armed": false}, "ekf": {"attitude": {"roll": 0.017252525314688683, "pitch": -0.002858418971300125, "yaw": -3.013998508453369}, "local_position": {"x": null, "y": null, "z": null}, "status": {"flags": 135, "velocity_variance": 0.0, "pos_horiz_variance": 0.001092317863367498, "pos_vert_variance": 0.04405311122536659}}, "errors": []}
{"timestamp": "2026-01-25T11:23:15.567691Z", "telemetry": {"lat": 0.0, "lon": 0.0, "satellites": 0, "altitude_gps_m": 0.5699999928474426, "groundspeed_mps": 0.0042517720721662045}, "flight": {"mode": "ALT_HOLD", "armed": false}, "ekf": {"attitude": {"roll": 0.017317507416009903, "pitch": -0.0030040889978408813, "yaw": -3.0141522884368896}, "local_position": {"x": null, "y": null, "z": null}, "status": {"flags": 135, "velocity_variance": 0.0, "pos_horiz_variance": 0.001026356709189713, "pos_vert_variance": 0.01944943144917488}}, "errors": []}
{"timestamp": "2026-01-25T11:23:16.567293Z", "telemetry": {"lat": 0.0, "lon": 0.0, "satellites": 0, "altitude_gps_m": 0.5699999928474426, "groundspeed_mps": 0.00494355196133256}, "flight": {"mode": "ALT_HOLD", "armed": false}, "ekf": {"attitude": {"roll": 0.01724105514585972, "pitch": -0.002899259328842163, "yaw": -3.0141777992248535}, "local_position": {"x": null, "y": null, "z": null}, "status": {"flags": 135, "velocity_variance": 0.0, "pos_horiz_variance": 0.0011713774874806404, "pos_vert_variance": 0.024241697043180466}}, "errors": []}
{"timestamp": "2026-01-25T11:23:17.566887Z", "telemetry": {"lat": 0.0, "lon": 0.0, "satellites": 0, "altitude_gps_m": 0.5699999928474426, "groundspeed_mps": 0.005208050366491079}, "flight": {"mode": "ALT_HOLD", "armed": false}, "ekf": {"attitude": {"roll": 0.017260415479540825, "pitch": -0.0034422464668750763, "yaw": -3.0140247344970703}, "local_position": {"x": null, "y": null, "z": null}, "status": {"flags": 135, "velocity_variance": 0.0, "pos_horiz_variance": 0.0014055701903998852, "pos_vert_variance": 0.014748893678188324}}, "errors": []}
{"timestamp": "2026-01-25T11:23:18.567783Z", "telemetry": {"lat": 0.0, "lon": 0.0, "satellites": 0, "altitude_gps_m": 0.5699999928474426, "groundspeed_mps": 0.01091712061315775}, "flight": {"mode": "ALT_HOLD", "armed": false}, "ekf": {"attitude": {"roll": 0.017263127490878105, "pitch": -0.003184851258993149, "yaw": -3.014059543609619}, "local_position": {"x": null, "y": null, "z": null}, "status": {"flags": 135, "velocity_variance": 0.0, "pos_horiz_variance": 0.002020718529820442, "pos_vert_variance": 0.032640740275382996}}, "errors": []}
{"timestamp": "2026-01-25T11:23:19.566588Z", "telemetry": {"lat": 0.0, "lon": 0.0, "satellites": 0, "altitude_gps_m": 0.5699999928474426, "groundspeed_mps": 0.010635940358042717}, "flight": {"mode": "ALT_HOLD", "armed": false}, "ekf": {"attitude": {"roll": 0.017280248925089836, "pitch": -0.003108058124780655, "yaw": -3.013996124267578}, "local_position": {"x": null, "y": null, "z": null}, "status": {"flags": 135, "velocity_variance": 0.0, "pos_horiz_variance": 0.0023658934514969587, "pos_vert_variance": 0.02178436890244484}}, "errors": []}
{"timestamp": "2026-01-25T11:23:20.566288Z", "telemetry": {"lat": 0.0, "lon": 0.0, "satellites": 0, "altitude_gps_m": 0.5699999928474426, "groundspeed_mps": 0.013992324471473694}, "flight": {"mode": "ALT_HOLD", "armed": false}, "ekf": {"attitude": {"roll": 0.017273297533392906, "pitch": -0.0031628496944904327, "yaw": -3.0140626430511475}, "local_position": {"x": null, "y": null, "z": null}, "status": {"flags": 135, "velocity_variance": 0.0, "pos_horiz_variance": 0.002602830296382308, "pos_vert_variance": 0.021271388977766037}}, "errors": []}
{"timestamp": "2026-01-25T11:23:21.566157Z", "telemetry": {"lat": 0.0, "lon": 0.0, "satellites": 0, "altitude_gps_m": 0.5699999928474426, "groundspeed_mps": 0.014171518385410309}, "flight": {"mode": "ALT_HOLD", "armed": false}, "ekf": {"attitude": {"roll": 0.017422711476683617, "pitch": -0.003265116363763809, "yaw": -3.014152765274048}, "local_position": {"x": null, "y": null, "z": null}, "status": {"flags": 135, "velocity_variance": 0.0, "pos_horiz_variance": 0.003171617863699794, "pos_vert_variance": 0.015331670641899109}}, "errors": []}
{"timestamp": "2026-01-25T11:23:22.565853Z", "telemetry": {"lat": 0.0, "lon": 0.0, "satellites": 0, "altitude_gps_m": 0.5699999928474426, "groundspeed_mps": 0.015195347368717194}, "flight": {"mode": "ALT_HOLD", "armed": false}, "ekf": {"attitude": {"roll": 0.01752336323261261, "pitch": -0.0032851621508598328, "yaw": -3.01407527923584}, "local_position": {"x": null, "y": null, "z": null}, "status": {"flags": 135, "velocity_variance": 0.0, "pos_horiz_variance": 0.003653833409771323, "pos_vert_variance": 0.06321601569652557}}, "errors": []}
{"timestamp": "2026-01-25T11:23:23.565375Z", "telemetry": {"lat": 0.0, "lon": 0.0, "satellites": 0, "altitude_gps_m": 0.5699999928474426, "groundspeed_mps": 0.016953885555267334}, "flight": {"mode": "ALT_HOLD", "armed": false}, "ekf": {"attitude": {"roll": 0.017377054318785667, "pitch": -0.0034123100340366364, "yaw": -3.0143258571624756}, "local_position": {"x": null, "y": null, "z": null}, "status": {"flags": 135, "velocity_variance": 0.0, "pos_horiz_variance": 0.0036383962724357843, "pos_vert_variance": 0.030888671055436134}}, "errors": []}
{"timestamp": "2026-01-25T11:23:24.565314Z", "telemetry": {"lat": 0.0, "lon": 0.0, "satellites": 0, "altitude_gps_m": 0.5699999928474426, "groundspeed_mps": 0.016530977562069893}, "flight": {"mode": "ALT_HOLD", "armed": false}, "ekf": {"attitude": {"roll": 0.017265062779188156, "pitch": -0.003302939236164093, "yaw": -3.014446973800659}, "local_position": {"x": null, "y": null, "z": null}, "status": {"flags": 135, "velocity_variance": 0.0, "pos_horiz_variance": 0.003985298331826925, "pos_vert_variance": 0.017746800556778908}}, "errors": ["PreArm: RC not found", "PreArm: Need Alt Estimate", "PreArm: Hardware safety switch", "PreArm: Compasses inconsistent"]}
{"timestamp": "2026-01-25T11:23:25.565094Z", "telemetry": {"lat": 0.0, "lon": 0.0, "satellites": 0, "altitude_gps_m": 0.5699999928474426, "groundspeed_mps": 0.01283426396548748}, "flight": {"mode": "LOITER", "armed": false}, "ekf": {"attitude": {"roll": 0.017290355637669563, "pitch": -0.0032618455588817596, "yaw": -3.014549732208252}, "local_position": {"x": null, "y": null, "z": null}, "status": {"flags": 135, "velocity_variance": 0.0, "pos_horiz_variance": 0.003685581963509321, "pos_vert_variance": 0.023462489247322083}}, "errors": ["PreArm: RC not found", "PreArm: Need Alt Estimate", "PreArm: Hardware safety switch", "PreArm: Compasses inconsistent"]}
{"timestamp": "2026-01-25T11:23:26.564961Z", "telemetry": {"lat": 0.0, "lon": 0.0, "satellites": 0, "altitude_gps_m": 0.5699999928474426, "groundspeed_mps": 0.012633224949240685}, "flight": {"mode": "LOITER", "armed": false}, "ekf": {"attitude": {"roll": 0.017316188663244247, "pitch": -0.003265775740146637, "yaw": -3.014389753341675}, "local_position": {"x": null, "y": null, "z": null}, "status": {"flags": 135, "velocity_variance": 0.0, "pos_horiz_variance": 0.003302163677290082, "pos_vert_variance": 0.026831647381186485}}, "errors": ["PreArm: RC not found", "PreArm: Need Alt Estimate", "PreArm: Hardware safety switch", "PreArm: Compasses inconsistent"]}
{"timestamp": "2026-01-25T11:23:27.564720Z", "telemetry": {"lat": 0.0, "lon": 0.0, "satellites": 0, "altitude_gps_m": 0.5699999928474426, "groundspeed_mps": 0.013510061427950859}, "flight": {"mode": "ALT_HOLD", "armed": false}, "ekf": {"attitude": {"roll": 0.017398037016391754, "pitch": -0.0031595341861248016, "yaw": -3.0142462253570557}, "local_position": {"x": null, "y": null, "z": null}, "status": {"flags": 135, "velocity_variance": 0.0, "pos_horiz_variance": 0.0032009375281631947, "pos_vert_variance": 0.03810921311378479}}, "errors": ["PreArm: RC not found", "PreArm: Need Alt Estimate", "PreArm: Hardware safety switch", "PreArm: Compasses inconsistent"]}
{"timestamp": "2026-01-25T11:23:28.564178Z", "telemetry": {"lat": 0.0, "lon": 0.0, "satellites": 0, "altitude_gps_m": 0.5699999928474426, "groundspeed_mps": 0.013621904887259007}, "flight": {"mode": "ALT_HOLD", "armed": false}, "ekf": {"attitude": {"roll": 0.017484119161963463, "pitch": -0.0030377097427845, "yaw": -3.0142934322357178}, "local_position": {"x": null, "y": null, "z": null}, "status": {"flags": 135, "velocity_variance": 0.0, "pos_horiz_variance": 0.0033565713092684746, "pos_vert_variance": 0.03278646990656853}}, "errors": ["PreArm: RC not found", "PreArm: Need Alt Estimate", "PreArm: Hardware safety switch", "PreArm: Compasses inconsistent"]}
{"timestamp": "2026-01-25T11:23:29.564106Z", "telemetry": {"lat": 0.0, "lon": 0.0, "satellites": 0, "altitude_gps_m": 0.5699999928474426, "groundspeed_mps": 0.013744144700467587}, "flight": {"mode": "STABILIZE", "armed": false}, "ekf": {"attitude": {"roll": 0.01745203509926796, "pitch": -0.0031327232718467712, "yaw": -3.014331102371216}, "local_position": {"x": null, "y": null, "z": null}, "status": {"flags": 135, "velocity_variance": 0.0, "pos_horiz_variance": 0.0033907659817487, "pos_vert_variance": 0.038697343319654465}}, "errors": ["PreArm: RC not found", "PreArm: Need Alt Estimate", "PreArm: Hardware safety switch", "PreArm: Compasses inconsistent"]}
{"timestamp": "2026-01-25T11:23:30.565415Z", "telemetry": {"lat": 0.0, "lon": 0.0, "satellites": 0, "altitude_gps_m": 0.5699999928474426, "groundspeed_mps": 0.011862462386488914}, "flight": {"mode": "ALT_HOLD", "armed": false}, "ekf": {"attitude": {"roll": 0.017381589859724045, "pitch": -0.0030311718583106995, "yaw": -3.014378547668457}, "local_position": {"x": null, "y": null, "z": null}, "status": {"flags": 135, "velocity_variance": 0.0, "pos_horiz_variance": 0.0032434791792184114, "pos_vert_variance": 0.002699347212910652}}, "errors": ["PreArm: RC not found", "PreArm: Need Alt Estimate", "PreArm: Hardware safety switch", "PreArm: Compasses inconsistent"]}
{"timestamp": "2026-01-25T11:23:31.564865Z", "telemetry": {"lat": 0.0, "lon": 0.0, "satellites": 0, "altitude_gps_m": 0.5699999928474426, "groundspeed_mps": 0.012717003002762794}, "flight": {"mode": "LOITER", "armed": false}, "ekf": {"attitude": {"roll": 0.01724454015493393, "pitch": -0.0030809566378593445, "yaw": -3.0143251419067383}, "local_position": {"x": null, "y": null, "z": null}, "status": {"flags": 135, "velocity_variance": 0.0, "pos_horiz_variance": 0.0031498197931796312, "pos_vert_variance": 0.022861607372760773}}, "errors": ["PreArm: RC not found", "PreArm: Need Alt Estimate", "PreArm: Hardware safety switch", "PreArm: Compasses inconsistent"]}
{"timestamp": "2026-01-25T11:23:32.564913Z", "telemetry": {"lat": 0.0, "lon": 0.0, "satellites": 0, "altitude_gps_m": 0.5699999928474426, "groundspeed_mps": 0.010919938795268536}, "flight": {"mode": "LOITER", "armed": false}, "ekf": {"attitude": {"roll": 0.01720265857875347, "pitch": -0.0029656365513801575, "yaw": -3.014352560043335}, "local_position": {"x": null, "y": null, "z": null}, "status": {"flags": 135, "velocity_variance": 0.0, "pos_horiz_variance": 0.002988207619637251, "pos_vert_variance": 0.026186373084783554}}, "errors": ["PreArm: RC not found", "PreArm: Need Alt Estimate", "PreArm: Hardware safety switch", "PreArm: Compasses inconsistent"]}
{"timestamp": "2026-01-25T11:23:33.564313Z", "telemetry": {"lat": 0.0, "lon": 0.0, "satellites": 0, "altitude_gps_m": 0.5699999928474426, "groundspeed_mps": 0.00987936183810234}, "flight": {"mode": "LOITER", "armed": false}, "ekf": {"attitude": {"roll": 0.017007581889629364, "pitch": -0.0029148273169994354, "yaw": -3.0143673419952393}, "local_position": {"x": null, "y": null, "z": null}, "status": {"flags": 135, "velocity_variance": 0.0, "pos_horiz_variance": 0.0028269921895116568, "pos_vert_variance": 0.07303296029567719}}, "errors": ["PreArm: RC not found", "PreArm: Need Alt Estimate", "PreArm: Hardware safety switch", "PreArm: Compasses inconsistent"]}
{"timestamp": "2026-01-25T11:23:34.562721Z", "telemetry": {"lat": 0.0, "lon": 0.0, "satellites": 0, "altitude_gps_m": 0.5699999928474426, "groundspeed_mps": 0.012596027925610542}, "flight": {"mode": "LOITER", "armed": false}, "ekf": {"attitude": {"roll": 0.017005639150738716, "pitch": -0.0029833614826202393, "yaw": -3.014328956604004}, "local_position": {"x": null, "y": null, "z": null}, "status": {"flags": 135, "velocity_variance": 0.0, "pos_horiz_variance": 0.0026944768615067005, "pos_vert_variance": 0.02934398502111435}}, "errors": ["PreArm: RC not found", "PreArm: Need Alt Estimate", "PreArm: Hardware safety switch", "PreArm: Compasses inconsistent"]}
{"timestamp": "2026-01-25T11:23:35.563845Z", "telemetry": {"lat": 0.0, "lon": 0.0, "satellites": 0, "altitude_gps_m": 0.5699999928474426, "groundspeed_mps": 0.011072283610701561}, "flight": {"mode": "LOITER", "armed": false}, "ekf": {"attitude": {"roll": 0.01695924624800682, "pitch": -0.0029272474348545074, "yaw": -3.014326572418213}, "local_position": {"x": null, "y": null, "z": null}, "status": {"flags": 135, "velocity_variance": 0.0, "pos_horiz_variance": 0.002826936077326536, "pos_vert_variance": 0.054604671895504}}, "errors": ["PreArm: RC not found", "PreArm: Need Alt Estimate", "PreArm: Hardware safety switch", "PreArm: Compasses inconsistent"]}
{"timestamp": "2026-01-25T11:23:36.563586Z", "telemetry": {"lat": 0.0, "lon": 0.0, "satellites": 0, "altitude_gps_m": 0.5699999928474426, "groundspeed_mps": 0.010296083055436611}, "flight": {"mode": "LOITER", "armed": false}, "ekf": {"attitude": {"roll": 0.016946585848927498, "pitch": -0.003015812486410141, "yaw": -3.014408588409424}, "local_position": {"x": null, "y": null, "z": null}, "status": {"flags": 135, "velocity_variance": 0.0, "pos_horiz_variance": 0.0027331009041517973, "pos_vert_variance": 0.0072458176873624325}}, "errors": ["PreArm: RC not found", "PreArm: Need Alt Estimate", "PreArm: Hardware safety switch", "PreArm: Compasses inconsistent"]}
{"timestamp": "2026-01-25T11:23:37.563236Z", "telemetry": {"lat": 0.0, "lon": 0.0, "satellites": 0, "altitude_gps_m": 0.5699999928474426, "groundspeed_mps": 0.011370080523192883}, "flight": {"mode": "LOITER", "armed": false}, "ekf": {"attitude": {"roll": 0.016939908266067505, "pitch": -0.003116205334663391, "yaw": -3.014479160308838}, "local_position": {"x": null, "y": null, "z": null}, "status": {"flags": 135, "velocity_variance": 0.0, "pos_horiz_variance": 0.002619090722873807, "pos_vert_variance": 0.03774558752775192}}, "errors": ["PreArm: RC not found", "PreArm: Need Alt Estimate", "PreArm: Hardware safety switch", "PreArm: Compasses inconsistent"]}
{"timestamp": "2026-01-25T11:23:38.563221Z", "telemetry": {"lat": 0.0, "lon": 0.0, "satellites": 0, "altitude_gps_m": 0.5699999928474426, "groundspeed_mps": 0.012214066460728645}, "flight": {"mode": "ALT_HOLD", "armed": false}, "ekf": {"attitude": {"roll": 0.017056714743375778, "pitch": -0.003116261214017868, "yaw": -3.014418363571167}, "local_position": {"x": null, "y": null, "z": null}, "status": {"flags": 135, "velocity_variance": 0.0, "pos_horiz_variance": 0.002831061137840152, "pos_vert_variance": 0.022339800372719765}}, "errors": ["PreArm: RC not found", "PreArm: Need Alt Estimate", "PreArm: Hardware safety switch", "PreArm: Compasses inconsistent"]}
{"timestamp": "2026-01-25T11:23:39.563169Z", "telemetry": {"lat": 0.0, "lon": 0.0, "satellites": 0, "altitude_gps_m": 0.5699999928474426, "groundspeed_mps": 0.013623976148664951}, "flight": {"mode": "LOITER", "armed": false}, "ekf": {"attitude": {"roll": 0.017095252871513367, "pitch": -0.0031385496258735657, "yaw": -3.0144753456115723}, "local_position": {"x": null, "y": null, "z": null}, "status": {"flags": 135, "velocity_variance": 0.0, "pos_horiz_variance": 0.003050506114959717, "pos_vert_variance": 0.11735034734010696}}, "errors": ["PreArm: RC not found", "PreArm: Need Alt Estimate", "PreArm: Hardware safety switch", "PreArm: Compasses inconsistent"]}
{"timestamp": "2026-01-25T11:23:40.563056Z", "telemetry": {"lat": 0.0, "lon": 0.0, "satellites": 0, "altitude_gps_m": 0.5699999928474426, "groundspeed_mps": 0.013188078068196774}, "flight": {"mode": "LOITER", "armed": false}, "ekf": {"attitude": {"roll": 0.017222758382558823, "pitch": -0.0030604079365730286, "yaw": -3.01436710357666}, "local_position": {"x": null, "y": null, "z": null}, "status": {"flags": 135, "velocity_variance": 0.0, "pos_horiz_variance": 0.0031895714346319437, "pos_vert_variance": 0.0011667117942124605}}, "errors": ["PreArm: RC not found", "PreArm: Need Alt Estimate", "PreArm: Hardware safety switch", "PreArm: Compasses inconsistent"]}
{"timestamp": "2026-01-25T11:23:41.562232Z", "telemetry": {"lat": 0.0, "lon": 0.0, "satellites": 0, "altitude_gps_m": 0.5699999928474426, "groundspeed_mps": 0.014952780678868294}, "flight": {"mode": "LOITER", "armed": false}, "ekf": {"attitude": {"roll": 0.017321009188890457, "pitch": -0.0030886493623256683, "yaw": -3.0143394470214844}, "local_position": {"x": null, "y": null, "z": null}, "status": {"flags": 135, "velocity_variance": 0.0, "pos_horiz_variance": 0.003426248673349619, "pos_vert_variance": 0.006554127670824528}}, "errors": ["PreArm: RC not found", "PreArm: Need Alt Estimate", "PreArm: Hardware safety switch", "PreArm: Compasses inconsistent"]}
{"timestamp": "2026-01-25T11:23:42.562168Z", "telemetry": {"lat": 0.0, "lon": 0.0, "satellites": 0, "altitude_gps_m": 0.5699999928474426, "groundspeed_mps": 0.012766178697347641}, "flight": {"mode": "LOITER", "armed": false}, "ekf": {"attitude": {"roll": 0.017302971333265305, "pitch": -0.0030296072363853455, "yaw": -3.014282464981079}, "local_position": {"x": null, "y": null, "z": null}, "status": {"flags": 135, "velocity_variance": 0.0, "pos_horiz_variance": 0.0034567220136523247, "pos_vert_variance": 0.0077867270447313786}}, "errors": ["PreArm: RC not found", "PreArm: Need Alt Estimate", "PreArm: Hardware safety switch", "PreArm: Compasses inconsistent"]}
{"timestamp": "2026-01-25T11:23:43.561739Z", "telemetry": {"lat": 0.0, "lon": 0.0, "satellites": 0, "altitude_gps_m": 0.5699999928474426, "groundspeed_mps": 0.013764417730271816}, "flight": {"mode": "LOITER", "armed": false}, "ekf": {"attitude": {"roll": 0.017267759889364243, "pitch": -0.002994377166032791, "yaw": -3.0142979621887207}, "local_position": {"x": null, "y": null, "z": null}, "status": {"flags": 135, "velocity_variance": 0.0, "pos_horiz_variance": 0.0033148142974823713, "pos_vert_variance": 0.010647783987224102}}, "errors": ["PreArm: RC not found", "PreArm: Need Alt Estimate", "PreArm: Hardware safety switch", "PreArm: Compasses inconsistent"]}
{"timestamp": "2026-01-25T11:23:44.561522Z", "telemetry": {"lat": 0.0, "lon": 0.0, "satellites": 0, "altitude_gps_m": 0.5699999928474426, "groundspeed_mps": 0.015114247798919678}, "flight": {"mode": "LOITER", "armed": false}, "ekf": {"attitude": {"roll": 0.017673060297966003, "pitch": -0.00271466001868248, "yaw": -3.0142815113067627}, "local_position": {"x": null, "y": null, "z": null}, "status": {"flags": 135, "velocity_variance": 0.0, "pos_horiz_variance": 0.003308143699541688, "pos_vert_variance": 0.018034793436527252}}, "errors": ["PreArm: RC not found", "PreArm: Need Alt Estimate", "PreArm: Hardware safety switch", "PreArm: Compasses inconsistent"]}
{"timestamp": "2026-01-25T11:23:45.561614Z", "telemetry": {"lat": 0.0, "lon": 0.0, "satellites": 0, "altitude_gps_m": 0.5699999928474426, "groundspeed_mps": 0.012240096926689148}, "flight": {"mode": "LOITER", "armed": false}, "ekf": {"attitude": {"roll": 0.017701860517263412, "pitch": -0.0026763901114463806, "yaw": -3.0141072273254395}, "local_position": {"x": null, "y": null, "z": null}, "status": {"flags": 135, "velocity_variance": 0.0, "pos_horiz_variance": 0.0033046086318790913, "pos_vert_variance": 0.0010072904406115413}}, "errors": ["PreArm: RC not found", "PreArm: Need Alt Estimate", "PreArm: Hardware safety switch", "PreArm: Compasses inconsistent"]}
{"timestamp": "2026-01-25T11:23:46.560867Z", "telemetry": {"lat": 0.0, "lon": 0.0, "satellites": 0, "altitude_gps_m": 0.5699999928474426, "groundspeed_mps": 0.010680550709366798}, "flight": {"mode": "LOITER", "armed": false}, "ekf": {"attitude": {"roll": 0.017684079706668854, "pitch": -0.0025407038629055023, "yaw": -3.0139780044555664}, "local_position": {"x": null, "y": null, "z": null}, "status": {"flags": 135, "velocity_variance": 0.0, "pos_horiz_variance": 0.003007652936503291, "pos_vert_variance": 0.06474631279706955}}, "errors": ["PreArm: RC not found", "PreArm: Need Alt Estimate", "PreArm: Hardware safety switch", "PreArm: Compasses inconsistent"]}
{"timestamp": "2026-01-25T11:23:47.561239Z", "telemetry": {"lat": 0.0, "lon": 0.0, "satellites": 0, "altitude_gps_m": 0.5699999928474426, "groundspeed_mps": 0.007818322628736496}, "flight": {"mode": "LOITER", "armed": false}, "ekf": {"attitude": {"roll": 0.017798298969864845, "pitch": -0.002467051148414612, "yaw": -3.0139639377593994}, "local_position": {"x": null, "y": null, "z": null}, "status": {"flags": 135, "velocity_variance": 0.0, "pos_horiz_variance": 0.002644665539264679, "pos_vert_variance": 0.047697871923446655}}, "errors": ["PreArm: RC not found", "PreArm: Need Alt Estimate", "PreArm: Hardware safety switch", "PreArm: Compasses inconsistent"]}
{"timestamp": "2026-01-25T11:23:48.560897Z", "telemetry": {"lat": 0.0, "lon": 0.0, "satellites": 0, "altitude_gps_m": 0.5699999928474426, "groundspeed_mps": 0.007752375211566687}, "flight": {"mode": "LOITER", "armed": false}, "ekf": {"attitude": {"roll": 0.017804257571697235, "pitch": -0.002580791711807251, "yaw": -3.0140438079833984}, "local_position": {"x": null, "y": null, "z": null}, "status": {"flags": 135, "velocity_variance": 0.0, "pos_horiz_variance": 0.002055197721347213, "pos_vert_variance": 0.012566137127578259}}, "errors": ["PreArm: RC not found", "PreArm: Need Alt Estimate", "PreArm: Hardware safety switch", "PreArm: Compasses inconsistent"]}
{"timestamp": "2026-01-25T11:23:49.599071Z", "telemetry": {"lat": 0.0, "lon": 0.0, "satellites": 0, "altitude_gps_m": 0.5699999928474426, "groundspeed_mps": 0.00885024107992649}, "flight": {"mode": "LOITER", "armed": false}, "ekf": {"attitude": {"roll": 0.01784529536962509, "pitch": -0.002658579498529434, "yaw": -3.014071464538574}, "local_position": {"x": null, "y": null, "z": null}, "status": {"flags": 135, "velocity_variance": 0.0, "pos_horiz_variance": 0.0020397233311086893, "pos_vert_variance": 0.013470289297401905}}, "errors": ["PreArm: RC not found", "PreArm: Need Alt Estimate", "PreArm: Hardware safety switch", "PreArm: Compasses inconsistent"]}
{"timestamp": "2026-01-25T11:23:50.560137Z", "telemetry": {"lat": 0.0, "lon": 0.0, "satellites": 0, "altitude_gps_m": 0.5699999928474426, "groundspeed_mps": 0.00963551551103592}, "flight": {"mode": "LOITER", "armed": false}, "ekf": {"attitude": {"roll": 0.01793578639626503, "pitch": -0.002639222890138626, "yaw": -3.014162540435791}, "local_position": {"x": null, "y": null, "z": null}, "status": {"flags": 135, "velocity_variance": 0.0, "pos_horiz_variance": 0.002247241325676441, "pos_vert_variance": 0.06086514890193939}}, "errors": ["PreArm: RC not found", "PreArm: Need Alt Estimate", "PreArm: Hardware safety switch", "PreArm: Compasses inconsistent"]}
{"timestamp": "2026-01-25T11:23:51.598440Z", "telemetry": {"lat": 0.0, "lon": 0.0, "satellites": 0, "altitude_gps_m": 0.5699999928474426, "groundspeed_mps": 0.025725681334733963}, "flight": {"mode": "LOITER", "armed": false}, "ekf": {"attitude": {"roll": 0.017662815749645233, "pitch": -0.0019275099039077759, "yaw": -3.0130839347839355}, "local_position": {"x": null, "y": null, "z": null}, "status": {"flags": 135, "velocity_variance": 0.0, "pos_horiz_variance": 0.0024729804135859013, "pos_vert_variance": 0.04835311323404312}}, "errors": ["PreArm: RC not found", "PreArm: Need Alt Estimate", "PreArm: Hardware safety switch", "PreArm: Compasses inconsistent"]}
{"timestamp": "2026-01-25T11:23:52.559005Z", "telemetry": {"lat": 0.0, "lon": 0.0, "satellites": 0, "altitude_gps_m": 0.5699999928474426, "groundspeed_mps": 0.011974325403571129}, "flight": {"mode": "LOITER", "armed": false}, "ekf": {"attitude": {"roll": 0.01678709127008915, "pitch": -0.009943665936589241, "yaw": -3.0113515853881836}, "local_position": {"x": null, "y": null, "z": null}, "status": {"flags": 135, "velocity_variance": 0.0, "pos_horiz_variance": 0.003073459956794977, "pos_vert_variance": 0.03707123547792435}}, "errors": ["PreArm: RC not found", "PreArm: Need Alt Estimate", "PreArm: Hardware safety switch", "PreArm: Compasses inconsistent"]}
{"timestamp": "2026-01-25T11:23:53.559254Z", "telemetry": {"lat": 0.0, "lon": 0.0, "satellites": 0, "altitude_gps_m": 0.5699999928474426, "groundspeed_mps": 0.011078234761953354}, "flight": {"mode": "LOITER", "armed": false}, "ekf": {"attitude": {"roll": 0.01846316084265709, "pitch": -0.011648748070001602, "yaw": -3.01792049407959}, "local_position": {"x": null, "y": null, "z": null}, "status": {"flags": 135, "velocity_variance": 0.0, "pos_horiz_variance": 0.003021853743121028, "pos_vert_variance": 0.01692100614309311}}, "errors": ["PreArm: RC not found", "PreArm: Need Alt Estimate", "PreArm: Hardware safety switch", "PreArm: Compasses inconsistent"]}
{"timestamp": "2026-01-25T11:23:54.559435Z", "telemetry": {"lat": 0.0, "lon": 0.0, "satellites": 0, "altitude_gps_m": 0.5699999928474426, "groundspeed_mps": 0.012288076803088188}, "flight": {"mode": "LOITER", "armed": false}, "ekf": {"attitude": {"roll": 0.01834087446331978, "pitch": -0.011639753356575966, "yaw": -3.0178298950195312}, "local_position": {"x": null, "y": null, "z": null}, "status": {"flags": 135, "velocity_variance": 0.0, "pos_horiz_variance": 0.002793413819745183, "pos_vert_variance": 0.053023841232061386}}, "errors": ["PreArm: RC not found", "PreArm: Need Alt Estimate", "PreArm: Hardware safety switch", "PreArm: Compasses inconsistent"]}
{"timestamp": "2026-01-25T11:23:55.559000Z", "telemetry": {"lat": 0.0, "lon": 0.0, "satellites": 0, "altitude_gps_m": 0.5699999928474426, "groundspeed_mps": 0.013053537346422672}, "flight": {"mode": "LOITER", "armed": false}, "ekf": {"attitude": {"roll": 0.01837264373898506, "pitch": -0.011684920638799667, "yaw": -3.017744302749634}, "local_position": {"x": null, "y": null, "z": null}, "status": {"flags": 135, "velocity_variance": 0.0, "pos_horiz_variance": 0.0029956186190247536, "pos_vert_variance": 0.07685089111328125}}, "errors": ["PreArm: RC not found", "PreArm: Need Alt Estimate", "PreArm: Hardware safety switch", "PreArm: Compasses inconsistent", "PreArm: RC not found", "PreArm: Need Alt Estimate", "PreArm: Hardware safety switch", "PreArm: Compasses inconsistent", "PreArm: GPS 1: Bad fix"]}
{"timestamp": "2026-01-25T11:23:56.558689Z", "telemetry": {"lat": 0.0, "lon": 0.0, "satellites": 0, "altitude_gps_m": 0.5699999928474426, "groundspeed_mps": 0.013626481406390667}, "flight": {"mode": "LOITER", "armed": false}, "ekf": {"attitude": {"roll": 0.018434468656778336, "pitch": -0.011664614081382751, "yaw": -3.017838954925537}, "local_position": {"x": null, "y": null, "z": null}, "status": {"flags": 135, "velocity_variance": 0.0, "pos_horiz_variance": 0.0030061998404562473, "pos_vert_variance": 0.03269653394818306}}, "errors": ["PreArm: RC not found", "PreArm: Need Alt Estimate", "PreArm: Hardware safety switch", "PreArm: Compasses inconsistent", "PreArm: RC not found", "PreArm: Need Alt Estimate", "PreArm: Hardware safety switch", "PreArm: Compasses inconsistent", "PreArm: GPS 1: Bad fix"]}
{"timestamp": "2026-01-25T11:23:57.558056Z", "telemetry": {"lat": 0.0, "lon": 0.0, "satellites": 0, "altitude_gps_m": 0.5699999928474426, "groundspeed_mps": 0.011496861465275288}, "flight": {"mode": "LOITER", "armed": false}, "ekf": {"attitude": {"roll": 0.017849210649728775, "pitch": -0.012322904542088509, "yaw": -3.0177929401397705}, "local_position": {"x": null, "y": null, "z": null}, "status": {"flags": 135, "velocity_variance": 0.0, "pos_horiz_variance": 0.0032198973931372166, "pos_vert_variance": 0.011249255388975143}}, "errors": ["PreArm: RC not found", "PreArm: Need Alt Estimate", "PreArm: Hardware safety switch", "PreArm: Compasses inconsistent", "PreArm: RC not found", "PreArm: Need Alt Estimate", "PreArm: Hardware safety switch", "PreArm: Compasses inconsistent", "PreArm: GPS 1: Bad fix"]}
{"timestamp": "2026-01-25T11:23:58.559937Z", "telemetry": {"lat": 0.0, "lon": 0.0, "satellites": 0, "altitude_gps_m": 0.5699999928474426, "groundspeed_mps": 0.011857373639941216}, "flight": {"mode": "LOITER", "armed": false}, "ekf": {"attitude": {"roll": 0.017946738749742508, "pitch": -0.012274065986275673, "yaw": -3.0177114009857178}, "local_position": {"x": null, "y": null, "z": null}, "status": {"flags": 135, "velocity_variance": 0.0, "pos_horiz_variance": 0.003081543603911996, "pos_vert_variance": 0.06300992518663406}}, "errors": ["PreArm: RC not found", "PreArm: Need Alt Estimate", "PreArm: Hardware safety switch", "PreArm: Compasses inconsistent", "PreArm: RC not found", "PreArm: Need Alt Estimate", "PreArm: Hardware safety switch", "PreArm: Compasses inconsistent", "PreArm: GPS 1: Bad fix"]}
{"timestamp": "2026-01-25T11:23:59.559165Z", "telemetry": {"lat": 0.0, "lon": 0.0, "satellites": 0, "altitude_gps_m": 0.5699999928474426, "groundspeed_mps": 0.013727341778576374}, "flight": {"mode": "LOITER", "armed": false}, "ekf": {"attitude": {"roll": 0.01795460656285286, "pitch": -0.012286964803934097, "yaw": -3.017807960510254}, "local_position": {"x": null, "y": null, "z": null}, "status": {"flags": 135, "velocity_variance": 0.0, "pos_horiz_variance": 0.0029663685709238052, "pos_vert_variance": 0.014016902074217796}}, "errors": ["PreArm: RC not found", "PreArm: Need Alt Estimate", "PreArm: Hardware safety switch", "PreArm: Compasses inconsistent", "PreArm: RC not found", "PreArm: Need Alt Estimate", "PreArm: Hardware safety switch", "PreArm: Compasses inconsistent", "PreArm: GPS 1: Bad fix"]}
{"timestamp": "2026-01-25T11:24:00.558979Z", "telemetry": {"lat": 0.0, "lon": 0.0, "satellites": 0, "altitude_gps_m": 0.5699999928474426, "groundspeed_mps": 0.01338938344269991}, "flight": {"mode": "LOITER", "armed": false}, "ekf": {"attitude": {"roll": 0.01783287338912487, "pitch": -0.012189416214823723, "yaw": -3.017826557159424}, "local_position": {"x": null, "y": null, "z": null}, "status": {"flags": 135, "velocity_variance": 0.0, "pos_horiz_variance": 0.003293402725830674, "pos_vert_variance": 0.003224459243938327}}, "errors": ["PreArm: RC not found", "PreArm: Need Alt Estimate", "PreArm: Hardware safety switch", "PreArm: Compasses inconsistent", "PreArm: RC not found", "PreArm: Need Alt Estimate", "PreArm: Hardware safety switch", "PreArm: Compasses inconsistent", "PreArm: GPS 1: Bad fix"]}
{"timestamp": "2026-01-25T11:24:01.558484Z", "telemetry": {"lat": 0.0, "lon": 0.0, "satellites": 0, "altitude_gps_m": 0.5699999928474426, "groundspeed_mps": 0.01252427976578474}, "flight": {"mode": "LOITER", "armed": false}, "ekf": {"attitude": {"roll": 0.0179618950933218, "pitch": -0.012171616777777672, "yaw": -3.01785945892334}, "local_position": {"x": null, "y": null, "z": null}, "status": {"flags": 135, "velocity_variance": 0.0, "pos_horiz_variance": 0.0032450666185468435, "pos_vert_variance": 0.07443000376224518}}, "errors": ["PreArm: RC not found", "PreArm: Need Alt Estimate", "PreArm: Hardware safety switch", "PreArm: Compasses inconsistent", "PreArm: RC not found", "PreArm: Need Alt Estimate", "PreArm: Hardware safety switch", "PreArm: Compasses inconsistent", "PreArm: GPS 1: Bad fix"]}
