{"timestamp": "2026-01-29T10:36:36.608925Z", "telemetry": {"lat": 0.0, "lon": 0.0, "satellites": 0, "altitude_gps_m": -0.5299999713897705, "groundspeed_mps": 0.08706187456846237}, "flight": {"mode": "STABILIZE", "armed": false}, "ekf": {"attitude": {"roll": -0.028713203966617584, "pitch": -0.017768695950508118, "yaw": -2.945784568786621}, "local_position": {"x": null, "y": null, "z": null}, "status": {"flags": 135, "velocity_variance": 0.0, "pos_horiz_variance": 0.018945757299661636, "pos_vert_variance": 0.028119435533881187}}, "errors": []}
{"timestamp": "2026-01-29T10:36:37.687515Z", "telemetry": {"lat": 0.0, "lon": 0.0, "satellites": 0, "altitude_gps_m": -0.5299999713897705, "groundspeed_mps": 0.08931255340576172}, "flight": {"mode": "STABILIZE", "armed": false}, "ekf": {"attitude": {"roll": -0.028582602739334106, "pitch": -0.017926007509231567, "yaw": -2.946216106414795}, "local_position": {"x": null, "y": null, "z": null}, "status": {"flags": 135, "velocity_variance": 0.0, "pos_horiz_variance": 0.01983235776424408, "pos_vert_variance": 0.03718847408890724}}, "errors": []}
{"timestamp": "2026-01-29T10:36:38.686821Z", "telemetry": {"lat": 0.0, "lon": 0.0, "satellites": 0, "altitude_gps_m": -0.5299999713897705, "groundspeed_mps": 0.09468771517276764}, "flight": {"mode": "STABILIZE", "armed": false}, "ekf": {"attitude": {"roll": -0.028230592608451843, "pitch": -0.017981434240937233, "yaw": -2.947460889816284}, "local_position": {"x": null, "y": null, "z": null}, "status": {"flags": 135, "velocity_variance": 0.0, "pos_horiz_variance": 0.020605886355042458, "pos_vert_variance": 0.03244715929031372}}, "errors": []}
{"timestamp": "2026-01-29T10:36:39.647255Z", "telemetry": {"lat": 0.0, "lon": 0.0, "satellites": 0, "altitude_gps_m": -0.5299999713897705, "groundspeed_mps": 0.09476334601640701}, "flight": {"mode": "STABILIZE", "armed": false}, "ekf": {"attitude": {"roll": -0.028239557519555092, "pitch": -0.01816553622484207, "yaw": -2.9477479457855225}, "local_position": {"x": null, "y": null, "z": null}, "status": {"flags": 135, "velocity_variance": 0.0, "pos_horiz_variance": 0.021902764216065407, "pos_vert_variance": 0.02744075283408165}}, "errors": []}
{"timestamp": "2026-01-29T10:36:40.685690Z", "telemetry": {"lat": 0.0, "lon": 0.0, "satellites": 0, "altitude_gps_m": -0.5299999713897705, "groundspeed_mps": 0.0962446928024292}, "flight": {"mode": "STABILIZE", "armed": false}, "ekf": {"attitude": {"roll": -0.028209779411554337, "pitch": -0.018326515331864357, "yaw": -2.9482641220092773}, "local_position": {"x": null, "y": null, "z": null}, "status": {"flags": 135, "velocity_variance": 0.0, "pos_horiz_variance": 0.02221950888633728, "pos_vert_variance": 0.049921199679374695}}, "errors": []}
{"timestamp": "2026-01-29T10:36:41.685589Z", "telemetry": {"lat": 0.0, "lon": 0.0, "satellites": 0, "altitude_gps_m": -0.5299999713897705, "groundspeed_mps": 0.10224127024412155}, "flight": {"mode": "STABILIZE", "armed": false}, "ekf": {"attitude": {"roll": -0.028114711865782738, "pitch": -0.01850118674337864, "yaw": -2.94802188873291}, "local_position": {"x": null, "y": null, "z": null}, "status": {"flags": 135, "velocity_variance": 0.0, "pos_horiz_variance": 0.023322205990552902, "pos_vert_variance": 0.01667429879307747}}, "errors": []}
{"timestamp": "2026-01-29T10:36:42.684848Z", "telemetry": {"lat": 0.0, "lon": 0.0, "satellites": 0, "altitude_gps_m": -0.5299999713897705, "groundspeed_mps": 0.1048390194773674}, "flight": {"mode": "STABILIZE", "armed": false}, "ekf": {"attitude": {"roll": -0.028176482766866684, "pitch": -0.01873706839978695, "yaw": -2.9479050636291504}, "local_position": {"x": null, "y": null, "z": null}, "status": {"flags": 135, "velocity_variance": 0.0, "pos_horiz_variance": 0.024058599025011063, "pos_vert_variance": 0.1127452552318573}}, "errors": []}
{"timestamp": "2026-01-29T10:36:43.684169Z", "telemetry": {"lat": 0.0, "lon": 0.0, "satellites": 0, "altitude_gps_m": -0.5299999713897705, "groundspeed_mps": 0.10701972991228104}, "flight": {"mode": "STABILIZE", "armed": false}, "ekf": {"attitude": {"roll": -0.028345389291644096, "pitch": -0.018987124785780907, "yaw": -2.948477268218994}, "local_position": {"x": null, "y": null, "z": null}, "status": {"flags": 135, "velocity_variance": 0.0, "pos_horiz_variance": 0.024854866787791252, "pos_vert_variance": 0.013197777792811394}}, "errors": []}
{"timestamp": "2026-01-29T10:36:44.683687Z", "telemetry": {"lat": 0.0, "lon": 0.0, "satellites": 0, "altitude_gps_m": -0.5299999713897705, "groundspeed_mps": 0.11294195801019669}, "flight": {"mode": "STABILIZE", "armed": false}, "ekf": {"attitude": {"roll": -0.028535427525639534, "pitch": -0.019042523577809334, "yaw": -2.9488110542297363}, "local_position": {"x": null, "y": null, "z": null}, "status": {"flags": 135, "velocity_variance": 0.0, "pos_horiz_variance": 0.025705091655254364, "pos_vert_variance": 0.10214550048112869}}, "errors": []}
{"timestamp": "2026-01-29T10:36:45.683229Z", "telemetry": {"lat": 0.0, "lon": 0.0, "satellites": 0, "altitude_gps_m": -0.5299999713897705, "groundspeed_mps": 0.1140638142824173}, "flight": {"mode": "STABILIZE", "armed": false}, "ekf": {"attitude": {"roll": -0.028575604781508446, "pitch": -0.019214341416954994, "yaw": -2.9488234519958496}, "local_position": {"x": null, "y": null, "z": null}, "status": {"flags": 135, "velocity_variance": 0.0, "pos_horiz_variance": 0.026626721024513245, "pos_vert_variance": 0.08177310973405838}}, "errors": []}
{"timestamp": "2026-01-29T10:36:46.682785Z", "telemetry": {"lat": 0.0, "lon": 0.0, "satellites": 0, "altitude_gps_m": -0.5299999713897705, "groundspeed_mps": 0.11762980371713638}, "flight": {"mode": "STABILIZE", "armed": false}, "ekf": {"attitude": {"roll": -0.02851496823132038, "pitch": -0.019382964819669724, "yaw": -2.9490418434143066}, "local_position": {"x": null, "y": null, "z": null}, "status": {"flags": 135, "velocity_variance": 0.0, "pos_horiz_variance": 0.027520084753632545, "pos_vert_variance": 0.015448802150785923}}, "errors": []}
{"timestamp": "2026-01-29T10:36:47.682376Z", "telemetry": {"lat": 0.0, "lon": 0.0, "satellites": 0, "altitude_gps_m": -0.5299999713897705, "groundspeed_mps": 0.11881323903799057}, "flight": {"mode": "STABILIZE", "armed": false}, "ekf": {"attitude": {"roll": -0.028448013588786125, "pitch": -0.019557202234864235, "yaw": -2.9490621089935303}, "local_position": {"x": null, "y": null, "z": null}, "status": {"flags": 135, "velocity_variance": 0.0, "pos_horiz_variance": 0.02798113413155079, "pos_vert_variance": 0.03804662078619003}}, "errors": []}
{"timestamp": "2026-01-29T10:36:48.681635Z", "telemetry": {"lat": 0.0, "lon": 0.0, "satellites": 0, "altitude_gps_m": -0.5299999713897705, "groundspeed_mps": 0.12556518614292145}, "flight": {"mode": "STABILIZE", "armed": false}, "ekf": {"attitude": {"roll": -0.028484245762228966, "pitch": -0.019736871123313904, "yaw": -2.949162244796753}, "local_position": {"x": null, "y": null, "z": null}, "status": {"flags": 135, "velocity_variance": 0.0, "pos_horiz_variance": 0.028996072709560394, "pos_vert_variance": 0.034377750009298325}}, "errors": []}
{"timestamp": "2026-01-29T10:36:49.681273Z", "telemetry": {"lat": 0.0, "lon": 0.0, "satellites": 0, "altitude_gps_m": -0.5299999713897705, "groundspeed_mps": 0.12845246493816376}, "flight": {"mode": "STABILIZE", "armed": false}, "ekf": {"attitude": {"roll": -0.028498932719230652, "pitch": -0.019794324412941933, "yaw": -2.949394464492798}, "local_position": {"x": null, "y": null, "z": null}, "status": {"flags": 135, "velocity_variance": 0.0, "pos_horiz_variance": 0.030207466334104538, "pos_vert_variance": 0.07684501260519028}}, "errors": []}
{"timestamp": "2026-01-29T10:36:50.680684Z", "telemetry": {"lat": 0.0, "lon": 0.0, "satellites": 0, "altitude_gps_m": -0.5299999713897705, "groundspeed_mps": 0.1305437833070755}, "flight": {"mode": "STABILIZE", "armed": false}, "ekf": {"attitude": {"roll": -0.028461484238505363, "pitch": -0.01991448551416397, "yaw": -2.949702501296997}, "local_position": {"x": null, "y": null, "z": null}, "status": {"flags": 135, "velocity_variance": 0.0, "pos_horiz_variance": 0.030677393078804016, "pos_vert_variance": 0.010876148007810116}}, "errors": []}
{"timestamp": "2026-01-29T10:36:52.330418Z", "telemetry": {"lat": 0.0, "lon": 0.0, "satellites": 0, "altitude_gps_m": -0.5299999713897705, "groundspeed_mps": 0.13308802247047424}, "flight": {"mode": "STABILIZE", "armed": false}, "ekf": {"attitude": {"roll": -0.02843286842107773, "pitch": -0.02008877880871296, "yaw": -2.9500577449798584}, "local_position": {"x": null, "y": null, "z": null}, "status": {"flags": 135, "velocity_variance": 0.0, "pos_horiz_variance": 0.031444475054740906, "pos_vert_variance": 0.015902375802397728}}, "errors": []}
{"timestamp": "2026-01-29T10:36:53.329752Z", "telemetry": {"lat": 0.0, "lon": 0.0, "satellites": 0, "altitude_gps_m": -0.5299999713897705, "groundspeed_mps": 0.027212699875235558}, "flight": {"mode": "STABILIZE", "armed": false}, "ekf": {"attitude": {"roll": -0.005591136869043112, "pitch": 0.034285012632608414, "yaw": -2.546966552734375}, "local_position": {"x": null, "y": null, "z": null}, "status": {"flags": 135, "velocity_variance": 0.0, "pos_horiz_variance": 0.025127725675702095, "pos_vert_variance": 0.06378854811191559}}, "errors": []}
{"timestamp": "2026-01-29T10:36:54.329447Z", "telemetry": {"lat": 0.0, "lon": 0.0, "satellites": 0, "altitude_gps_m": -0.5299999713897705, "groundspeed_mps": 0.3264465630054474}, "flight": {"mode": "STABILIZE", "armed": false}, "ekf": {"attitude": {"roll": 0.02778960019350052, "pitch": -0.06213090196251869, "yaw": -2.0179731845855713}, "local_position": {"x": null, "y": null, "z": null}, "status": {"flags": 135, "velocity_variance": 0.0, "pos_horiz_variance": 0.021893810480833054, "pos_vert_variance": 0.00273009086959064}}, "errors": []}
{"timestamp": "2026-01-29T10:36:55.328956Z", "telemetry": {"lat": 0.0, "lon": 0.0, "satellites": 0, "altitude_gps_m": -0.5299999713897705, "groundspeed_mps": 0.8049950003623962}, "flight": {"mode": "STABILIZE", "armed": false}, "ekf": {"attitude": {"roll": 0.13542717695236206, "pitch": -0.21274134516716003, "yaw": -1.8226872682571411}, "local_position": {"x": null, "y": null, "z": null}, "status": {"flags": 135, "velocity_variance": 0.0, "pos_horiz_variance": 0.0639629065990448, "pos_vert_variance": 0.0434364415705204}}, "errors": []}
{"timestamp": "2026-01-29T10:36:56.328188Z", "telemetry": {"lat": 0.0, "lon": 0.0, "satellites": 0, "altitude_gps_m": -0.5299999713897705, "groundspeed_mps": 0.053665198385715485}, "flight": {"mode": "STABILIZE", "armed": false}, "ekf": {"attitude": {"roll": 0.10867169499397278, "pitch": -0.12979725003242493, "yaw": -1.129279613494873}, "local_position": {"x": null, "y": null, "z": null}, "status": {"flags": 135, "velocity_variance": 0.0, "pos_horiz_variance": 0.07492031902074814, "pos_vert_variance": 0.022726427763700485}}, "errors": []}
{"timestamp": "2026-01-29T10:36:57.309576Z", "telemetry": {"lat": 0.0, "lon": 0.0, "satellites": 0, "altitude_gps_m": -0.5299999713897705, "groundspeed_mps": 1.0593749284744263}, "flight": {"mode": "STABILIZE", "armed": false}, "ekf": {"attitude": {"roll": 0.13480588793754578, "pitch": -0.016482530161738396, "yaw": -2.0879619121551514}, "local_position": {"x": null, "y": null, "z": null}, "status": {"flags": 135, "velocity_variance": 0.0, "pos_horiz_variance": 0.026227464899420738, "pos_vert_variance": 0.0880461037158966}}, "errors": []}
{"timestamp": "2026-01-29T10:36:58.308215Z", "telemetry": {"lat": 0.0, "lon": 0.0, "satellites": 0, "altitude_gps_m": -0.5299999713897705, "groundspeed_mps": 0.1413118690252304}, "flight": {"mode": "STABILIZE", "armed": false}, "ekf": {"attitude": {"roll": -0.041260071098804474, "pitch": -0.3812344968318939, "yaw": 3.0821621417999268}, "local_position": {"x": null, "y": null, "z": null}, "status": {"flags": 135, "velocity_variance": 0.0, "pos_horiz_variance": 0.11778201907873154, "pos_vert_variance": 0.010919581167399883}}, "errors": []}
{"timestamp": "2026-01-29T10:36:59.307801Z", "telemetry": {"lat": 0.0, "lon": 0.0, "satellites": 0, "altitude_gps_m": -0.5299999713897705, "groundspeed_mps": 1.1201794147491455}, "flight": {"mode": "STABILIZE", "armed": false}, "ekf": {"attitude": {"roll": 0.12133738398551941, "pitch": -0.11059266328811646, "yaw": -1.3964320421218872}, "local_position": {"x": null, "y": null, "z": null}, "status": {"flags": 135, "velocity_variance": 0.0, "pos_horiz_variance": 0.10471558570861816, "pos_vert_variance": 0.008612887933850288}}, "errors": []}
{"timestamp": "2026-01-29T10:37:00.307384Z", "telemetry": {"lat": 0.0, "lon": 0.0, "satellites": 0, "altitude_gps_m": -0.5299999713897705, "groundspeed_mps": 0.3609539866447449}, "flight": {"mode": "STABILIZE", "armed": false}, "ekf": {"attitude": {"roll": 0.11947327107191086, "pitch": -0.13554836809635162, "yaw": -0.8999125957489014}, "local_position": {"x": null, "y": null, "z": null}, "status": {"flags": 135, "velocity_variance": 0.0, "pos_horiz_variance": 0.14173485338687897, "pos_vert_variance": 0.060605600476264954}}, "errors": []}
{"timestamp": "2026-01-29T10:37:01.306787Z", "telemetry": {"lat": 0.0, "lon": 0.0, "satellites": 0, "altitude_gps_m": -0.5299999713897705, "groundspeed_mps": 0.046496763825416565}, "flight": {"mode": "STABILIZE", "armed": false}, "ekf": {"attitude": {"roll": 0.09304820001125336, "pitch": 0.029302824288606644, "yaw": -1.390965223312378}, "local_position": {"x": null, "y": null, "z": null}, "status": {"flags": 135, "velocity_variance": 0.0, "pos_horiz_variance": 0.061175163835287094, "pos_vert_variance": 0.03433559834957123}}, "errors": []}
{"timestamp": "2026-01-29T10:37:02.306750Z", "telemetry": {"lat": 0.0, "lon": 0.0, "satellites": 0, "altitude_gps_m": -0.5299999713897705, "groundspeed_mps": 0.32050734758377075}, "flight": {"mode": "STABILIZE", "armed": false}, "ekf": {"attitude": {"roll": -0.07266201078891754, "pitch": 0.10631345212459564, "yaw": -1.4001773595809937}, "local_position": {"x": null, "y": null, "z": null}, "status": {"flags": 135, "velocity_variance": 0.0, "pos_horiz_variance": 0.03922231122851372, "pos_vert_variance": 0.09600477665662766}}, "errors": []}
{"timestamp": "2026-01-29T10:37:03.306463Z", "telemetry": {"lat": 0.0, "lon": 0.0, "satellites": 0, "altitude_gps_m": -0.5299999713897705, "groundspeed_mps": 0.34675484895706177}, "flight": {"mode": "STABILIZE", "armed": false}, "ekf": {"attitude": {"roll": -0.08751892298460007, "pitch": 0.1527622938156128, "yaw": -0.7290046811103821}, "local_position": {"x": null, "y": null, "z": null}, "status": {"flags": 135, "velocity_variance": 0.0, "pos_horiz_variance": 0.05366910248994827, "pos_vert_variance": 0.020610786974430084}}, "errors": []}
{"timestamp": "2026-01-29T10:37:04.344246Z", "telemetry": {"lat": 0.0, "lon": 0.0, "satellites": 0, "altitude_gps_m": -0.5299999713897705, "groundspeed_mps": 0.4567895531654358}, "flight": {"mode": "STABILIZE", "armed": false}, "ekf": {"attitude": {"roll": -0.04593896120786667, "pitch": 0.00525394082069397, "yaw": 0.6453793048858643}, "local_position": {"x": null, "y": null, "z": null}, "status": {"flags": 135, "velocity_variance": 0.0, "pos_horiz_variance": 0.1049867570400238, "pos_vert_variance": 0.02177371457219124}}, "errors": []}
{"timestamp": "2026-01-29T10:37:05.305224Z", "telemetry": {"lat": 0.0, "lon": 0.0, "satellites": 0, "altitude_gps_m": -0.5299999713897705, "groundspeed_mps": 0.30653300881385803}, "flight": {"mode": "STABILIZE", "armed": false}, "ekf": {"attitude": {"roll": -0.10075192153453827, "pitch": 0.04248702898621559, "yaw": 1.6780167818069458}, "local_position": {"x": null, "y": null, "z": null}, "status": {"flags": 135, "velocity_variance": 0.0, "pos_horiz_variance": 0.02614649012684822, "pos_vert_variance": 0.033493366092443466}}, "errors": []}
{"timestamp": "2026-01-29T10:37:06.343307Z", "telemetry": {"lat": 0.0, "lon": 0.0, "satellites": 0, "altitude_gps_m": -0.5299999713897705, "groundspeed_mps": 0.6436581611633301}, "flight": {"mode": "STABILIZE", "armed": false}, "ekf": {"attitude": {"roll": -0.06946397572755814, "pitch": 0.016150012612342834, "yaw": 1.6468104124069214}, "local_position": {"x": null, "y": null, "z": null}, "status": {"flags": 135, "velocity_variance": 0.0, "pos_horiz_variance": 0.06546948850154877, "pos_vert_variance": 0.04234962537884712}}, "errors": ["PreArm: RC not found", "PreArm: Hardware safety switch", "PreArm: Compasses inconsistent"]}
{"timestamp": "2026-01-29T10:37:07.323703Z", "telemetry": {"lat": 0.0, "lon": 0.0, "satellites": 0, "altitude_gps_m": -0.5299999713897705, "groundspeed_mps": 0.5153065323829651}, "flight": {"mode": "STABILIZE", "armed": false}, "ekf": {"attitude": {"roll": -0.12773485481739044, "pitch": 0.06716307997703552, "yaw": 1.0321215391159058}, "local_position": {"x": null, "y": null, "z": null}, "status": {"flags": 135, "velocity_variance": 0.0, "pos_horiz_variance": 0.11572087556123734, "pos_vert_variance": 0.11015886813402176}}, "errors": ["PreArm: RC not found", "PreArm: Hardware safety switch", "PreArm: Compasses inconsistent"]}
{"timestamp": "2026-01-29T10:37:08.323395Z", "telemetry": {"lat": 0.0, "lon": 0.0, "satellites": 0, "altitude_gps_m": -0.5299999713897705, "groundspeed_mps": 0.602814257144928}, "flight": {"mode": "STABILIZE", "armed": false}, "ekf": {"attitude": {"roll": -0.08640141040086746, "pitch": 0.06706944108009338, "yaw": 0.9410867691040039}, "local_position": {"x": null, "y": null, "z": null}, "status": {"flags": 135, "velocity_variance": 0.0, "pos_horiz_variance": 0.12000840902328491, "pos_vert_variance": 0.03421121835708618}}, "errors": ["PreArm: RC not found", "PreArm: Hardware safety switch", "PreArm: Compasses inconsistent"]}
{"timestamp": "2026-01-29T10:37:09.322670Z", "telemetry": {"lat": 0.0, "lon": 0.0, "satellites": 0, "altitude_gps_m": -0.5299999713897705, "groundspeed_mps": 0.36136963963508606}, "flight": {"mode": "STABILIZE", "armed": false}, "ekf": {"attitude": {"roll": 0.02277746982872486, "pitch": 0.005301918834447861, "yaw": 1.4968680143356323}, "local_position": {"x": null, "y": null, "z": null}, "status": {"flags": 135, "velocity_variance": 0.0, "pos_horiz_variance": 0.12580782175064087, "pos_vert_variance": 0.07325409352779388}}, "errors": ["PreArm: RC not found", "PreArm: Hardware safety switch", "PreArm: Compasses inconsistent"]}
{"timestamp": "2026-01-29T10:37:10.322268Z", "telemetry": {"lat": 0.0, "lon": 0.0, "satellites": 0, "altitude_gps_m": -0.5299999713897705, "groundspeed_mps": 0.3284667730331421}, "flight": {"mode": "STABILIZE", "armed": false}, "ekf": {"attitude": {"roll": -0.011244597844779491, "pitch": 0.04890221729874611, "yaw": 1.337998628616333}, "local_position": {"x": null, "y": null, "z": null}, "status": {"flags": 135, "velocity_variance": 0.0, "pos_horiz_variance": 0.09195082634687424, "pos_vert_variance": 0.007914545014500618}}, "errors": ["PreArm: RC not found", "PreArm: Hardware safety switch", "PreArm: Compasses inconsistent"]}
{"timestamp": "2026-01-29T10:37:11.322348Z", "telemetry": {"lat": 0.0, "lon": 0.0, "satellites": 0, "altitude_gps_m": -0.5299999713897705, "groundspeed_mps": 0.36959734559059143}, "flight": {"mode": "STABILIZE", "armed": false}, "ekf": {"attitude": {"roll": -0.08463159948587418, "pitch": 0.09822770953178406, "yaw": 1.135036587715149}, "local_position": {"x": null, "y": null, "z": null}, "status": {"flags": 135, "velocity_variance": 0.0, "pos_horiz_variance": 0.08864755183458328, "pos_vert_variance": 0.04768293350934982}}, "errors": ["PreArm: RC not found", "PreArm: Hardware safety switch", "PreArm: Compasses inconsistent"]}
{"timestamp": "2026-01-29T10:37:12.321705Z", "telemetry": {"lat": 0.0, "lon": 0.0, "satellites": 0, "altitude_gps_m": -0.5299999713897705, "groundspeed_mps": 0.10654014348983765}, "flight": {"mode": "STABILIZE", "armed": false}, "ekf": {"attitude": {"roll": -0.03144069015979767, "pitch": 0.095551997423172, "yaw": 1.2171541452407837}, "local_position": {"x": null, "y": null, "z": null}, "status": {"flags": 135, "velocity_variance": 0.0, "pos_horiz_variance": 0.07251560688018799, "pos_vert_variance": 0.08370114117860794}}, "errors": ["PreArm: RC not found", "PreArm: Hardware safety switch", "PreArm: Compasses inconsistent"]}
{"timestamp": "2026-01-29T10:37:13.321611Z", "telemetry": {"lat": 0.0, "lon": 0.0, "satellites": 0, "altitude_gps_m": -0.5299999713897705, "groundspeed_mps": 0.10919976234436035}, "flight": {"mode": "STABILIZE", "armed": false}, "ekf": {"attitude": {"roll": -0.07054636627435684, "pitch": 0.05932185426354408, "yaw": 1.2576872110366821}, "local_position": {"x": null, "y": null, "z": null}, "status": {"flags": 135, "velocity_variance": 0.0, "pos_horiz_variance": 0.028346756473183632, "pos_vert_variance": 0.011024766601622105}}, "errors": ["PreArm: RC not found", "PreArm: Hardware safety switch", "PreArm: Compasses inconsistent"]}
{"timestamp": "2026-01-29T10:37:14.320855Z", "telemetry": {"lat": 0.0, "lon": 0.0, "satellites": 0, "altitude_gps_m": -0.5299999713897705, "groundspeed_mps": 0.24063564836978912}, "flight": {"mode": "STABILIZE", "armed": false}, "ekf": {"attitude": {"roll": -0.07532017678022385, "pitch": 0.04070631042122841, "yaw": 1.1383529901504517}, "local_position": {"x": null, "y": null, "z": null}, "status": {"flags": 135, "velocity_variance": 0.0, "pos_horiz_variance": 0.03497184440493584, "pos_vert_variance": 0.12156253308057785}}, "errors": ["PreArm: RC not found", "PreArm: Hardware safety switch", "PreArm: Compasses inconsistent"]}
{"timestamp": "2026-01-29T10:37:15.319896Z", "telemetry": {"lat": 0.0, "lon": 0.0, "satellites": 0, "altitude_gps_m": -0.5299999713897705, "groundspeed_mps": 0.22785630822181702}, "flight": {"mode": "STABILIZE", "armed": false}, "ekf": {"attitude": {"roll": -0.07469485700130463, "pitch": 0.05328167602419853, "yaw": 1.1435656547546387}, "local_position": {"x": null, "y": null, "z": null}, "status": {"flags": 135, "velocity_variance": 0.0, "pos_horiz_variance": 0.04539475962519646, "pos_vert_variance": 0.01260670367628336}}, "errors": ["PreArm: RC not found", "PreArm: Hardware safety switch", "PreArm: Compasses inconsistent"]}
{"timestamp": "2026-01-29T10:37:16.319260Z", "telemetry": {"lat": 0.0, "lon": 0.0, "satellites": 0, "altitude_gps_m": -0.5299999713897705, "groundspeed_mps": 0.17088522017002106}, "flight": {"mode": "STABILIZE", "armed": false}, "ekf": {"attitude": {"roll": -0.026016544550657272, "pitch": 0.03081473335623741, "yaw": 1.1877837181091309}, "local_position": {"x": null, "y": null, "z": null}, "status": {"flags": 135, "velocity_variance": 0.0, "pos_horiz_variance": 0.04476084187626839, "pos_vert_variance": 0.030579375103116035}}, "errors": ["PreArm: RC not found", "PreArm: Hardware safety switch", "PreArm: Compasses inconsistent"]}
{"timestamp": "2026-01-29T10:37:17.319141Z", "telemetry": {"lat": 0.0, "lon": 0.0, "satellites": 0, "altitude_gps_m": -0.5299999713897705, "groundspeed_mps": 0.21229876577854156}, "flight": {"mode": "STABILIZE", "armed": false}, "ekf": {"attitude": {"roll": -0.0426974855363369, "pitch": 0.03781306371092796, "yaw": 0.8023335337638855}, "local_position": {"x": null, "y": null, "z": null}, "status": {"flags": 135, "velocity_variance": 0.0, "pos_horiz_variance": 0.045245178043842316, "pos_vert_variance": 0.024565571919083595}}, "errors": ["PreArm: RC not found", "PreArm: Hardware safety switch", "PreArm: Compasses inconsistent"]}
{"timestamp": "2026-01-29T10:37:18.318041Z", "telemetry": {"lat": 0.0, "lon": 0.0, "satellites": 0, "altitude_gps_m": -0.5299999713897705, "groundspeed_mps": 0.0899677649140358}, "flight": {"mode": "STABILIZE", "armed": false}, "ekf": {"attitude": {"roll": -0.09131194651126862, "pitch": -0.011646175757050514, "yaw": 0.41255179047584534}, "local_position": {"x": null, "y": null, "z": null}, "status": {"flags": 135, "velocity_variance": 0.0, "pos_horiz_variance": 0.03886869549751282, "pos_vert_variance": 0.016311218962073326}}, "errors": ["PreArm: RC not found", "PreArm: Hardware safety switch", "PreArm: Compasses inconsistent"]}
{"timestamp": "2026-01-29T10:37:19.356672Z", "telemetry": {"lat": 0.0, "lon": 0.0, "satellites": 0, "altitude_gps_m": -0.5299999713897705, "groundspeed_mps": 0.9753063917160034}, "flight": {"mode": "STABILIZE", "armed": false}, "ekf": {"attitude": {"roll": -0.06985969096422195, "pitch": 0.032105278223752975, "yaw": -0.6355797648429871}, "local_position": {"x": null, "y": null, "z": null}, "status": {"flags": 135, "velocity_variance": 0.0, "pos_horiz_variance": 0.10185983031988144, "pos_vert_variance": 0.0021985790226608515}}, "errors": ["PreArm: RC not found", "PreArm: Hardware safety switch", "PreArm: Compasses inconsistent"]}
{"timestamp": "2026-01-29T10:37:20.317540Z", "telemetry": {"lat": 0.0, "lon": 0.0, "satellites": 0, "altitude_gps_m": -0.5299999713897705, "groundspeed_mps": 0.6747028827667236}, "flight": {"mode": "STABILIZE", "armed": false}, "ekf": {"attitude": {"roll": -0.14904390275478363, "pitch": 0.09070664644241333, "yaw": -1.941604733467102}, "local_position": {"x": null, "y": null, "z": null}, "status": {"flags": 135, "velocity_variance": 0.0, "pos_horiz_variance": 0.17742715775966644, "pos_vert_variance": 0.0990833044052124}}, "errors": ["PreArm: RC not found", "PreArm: Hardware safety switch", "PreArm: Compasses inconsistent"]}
{"timestamp": "2026-01-29T10:37:21.316761Z", "telemetry": {"lat": 0.0, "lon": 0.0, "satellites": 0, "altitude_gps_m": -0.5299999713897705, "groundspeed_mps": 0.6427334547042847}, "flight": {"mode": "STABILIZE", "armed": false}, "ekf": {"attitude": {"roll": -0.11046984046697617, "pitch": 0.033687952905893326, "yaw": -2.562040328979492}, "local_position": {"x": null, "y": null, "z": null}, "status": {"flags": 135, "velocity_variance": 0.0, "pos_horiz_variance": 0.10286908596754074, "pos_vert_variance": 0.05341000854969025}}, "errors": ["PreArm: RC not found", "PreArm: Hardware safety switch", "PreArm: Compasses inconsistent"]}
{"timestamp": "2026-01-29T10:37:22.355282Z", "telemetry": {"lat": 0.0, "lon": 0.0, "satellites": 0, "altitude_gps_m": -0.5299999713897705, "groundspeed_mps": 0.8983930945396423}, "flight": {"mode": "STABILIZE", "armed": false}, "ekf": {"attitude": {"roll": -0.03183921054005623, "pitch": -0.030313529074192047, "yaw": -2.4082436561584473}, "local_position": {"x": null, "y": null, "z": null}, "status": {"flags": 135, "velocity_variance": 0.0, "pos_horiz_variance": 0.09703138470649719, "pos_vert_variance": 0.06372295320034027}}, "errors": ["PreArm: RC not found", "PreArm: Hardware safety switch", "PreArm: Compasses inconsistent"]}
{"timestamp": "2026-01-29T10:37:23.354794Z", "telemetry": {"lat": 0.0, "lon": 0.0, "satellites": 0, "altitude_gps_m": -0.5299999713897705, "groundspeed_mps": 0.7805060744285583}, "flight": {"mode": "STABILIZE", "armed": false}, "ekf": {"attitude": {"roll": -0.03452802449464798, "pitch": -0.0420137457549572, "yaw": -2.390153646469116}, "local_position": {"x": null, "y": null, "z": null}, "status": {"flags": 135, "velocity_variance": 0.0, "pos_horiz_variance": 0.16312091052532196, "pos_vert_variance": 0.02565591223537922}}, "errors": ["PreArm: RC not found", "PreArm: Hardware safety switch", "PreArm: Compasses inconsistent"]}
{"timestamp": "2026-01-29T10:37:24.354164Z", "telemetry": {"lat": 0.0, "lon": 0.0, "satellites": 0, "altitude_gps_m": -0.5299999713897705, "groundspeed_mps": 0.6195683479309082}, "flight": {"mode": "STABILIZE", "armed": false}, "ekf": {"attitude": {"roll": -0.033601317554712296, "pitch": -0.03809954598546028, "yaw": -2.375277280807495}, "local_position": {"x": null, "y": null, "z": null}, "status": {"flags": 135, "velocity_variance": 0.0, "pos_horiz_variance": 0.16730937361717224, "pos_vert_variance": 0.0012814520159736276}}, "errors": ["PreArm: RC not found", "PreArm: Hardware safety switch", "PreArm: Compasses inconsistent"]}
{"timestamp": "2026-01-29T10:37:25.347868Z", "telemetry": {"lat": 0.0, "lon": 0.0, "satellites": 0, "altitude_gps_m": -0.5299999713897705, "groundspeed_mps": 0.43800777196884155}, "flight": {"mode": "STABILIZE", "armed": false}, "ekf": {"attitude": {"roll": -0.03254181519150734, "pitch": -0.034336648881435394, "yaw": -2.361984968185425}, "local_position": {"x": null, "y": null, "z": null}, "status": {"flags": 135, "velocity_variance": 0.0, "pos_horiz_variance": 0.13924060761928558, "pos_vert_variance": 0.032234642654657364}}, "errors": ["PreArm: RC not found", "PreArm: Hardware safety switch", "PreArm: Compasses inconsistent", "EKF3 IMU1 forced reset", "EKF3 IMU1 initialised"]}
{"timestamp": "2026-01-29T10:37:26.332063Z", "telemetry": {"lat": 0.0, "lon": 0.0, "satellites": 0, "altitude_gps_m": -0.5299999713897705, "groundspeed_mps": 0.285006046295166}, "flight": {"mode": "STABILIZE", "armed": false}, "ekf": {"attitude": {"roll": -0.03153105825185776, "pitch": -0.03113573044538498, "yaw": -2.3489646911621094}, "local_position": {"x": null, "y": null, "z": null}, "status": {"flags": 135, "velocity_variance": 0.0, "pos_horiz_variance": 0.1052897721529007, "pos_vert_variance": 0.022195138037204742}}, "errors": ["PreArm: RC not found", "PreArm: Hardware safety switch", "PreArm: Compasses inconsistent", "EKF3 IMU1 forced reset", "EKF3 IMU1 initialised", "EKF3 IMU1 tilt alignment complete", "EKF3 IMU1 MAG0 initial yaw alignment complete"]}
{"timestamp": "2026-01-29T10:37:27.357496Z", "telemetry": {"lat": 0.0, "lon": 0.0, "satellites": 0, "altitude_gps_m": -0.5299999713897705, "groundspeed_mps": 0.17834952473640442}, "flight": {"mode": "STABILIZE", "armed": false}, "ekf": {"attitude": {"roll": -0.03091522492468357, "pitch": -0.028914444148540497, "yaw": -2.335625648498535}, "local_position": {"x": null, "y": null, "z": null}, "status": {"flags": 135, "velocity_variance": 0.0, "pos_horiz_variance": 0.0736524760723114, "pos_vert_variance": 0.03212573751807213}}, "errors": ["PreArm: RC not found", "PreArm: Hardware safety switch", "PreArm: Compasses inconsistent", "EKF3 IMU1 forced reset", "EKF3 IMU1 initialised", "EKF3 IMU1 tilt alignment complete", "EKF3 IMU1 MAG0 initial yaw alignment complete"]}
{"timestamp": "2026-01-29T10:37:28.346275Z", "telemetry": {"lat": 0.0, "lon": 0.0, "satellites": 0, "altitude_gps_m": -0.5299999713897705, "groundspeed_mps": 0.12351596355438232}, "flight": {"mode": "STABILIZE", "armed": false}, "ekf": {"attitude": {"roll": -0.03081456944346428, "pitch": -0.027699865400791168, "yaw": -2.321777820587158}, "local_position": {"x": null, "y": null, "z": null}, "status": {"flags": 135, "velocity_variance": 0.0, "pos_horiz_variance": 0.054303936660289764, "pos_vert_variance": 0.061047982424497604}}, "errors": ["PreArm: RC not found", "PreArm: Hardware safety switch", "PreArm: Compasses inconsistent", "EKF3 IMU1 forced reset", "EKF3 IMU1 initialised", "EKF3 IMU1 tilt alignment complete", "EKF3 IMU1 MAG0 initial yaw alignment complete"]}
{"timestamp": "2026-01-29T10:37:29.334226Z", "telemetry": {"lat": 0.0, "lon": 0.0, "satellites": 0, "altitude_gps_m": -0.5299999713897705, "groundspeed_mps": 0.09973195940256119}, "flight": {"mode": "STABILIZE", "armed": false}, "ekf": {"attitude": {"roll": -0.030876388773322105, "pitch": -0.027202192693948746, "yaw": -2.3045263290405273}, "local_position": {"x": null, "y": null, "z": null}, "status": {"flags": 135, "velocity_variance": 0.0, "pos_horiz_variance": 0.03650651127099991, "pos_vert_variance": 0.013053899630904198}}, "errors": ["PreArm: RC not found", "PreArm: Hardware safety switch", "PreArm: Compasses inconsistent", "EKF3 IMU1 forced reset", "EKF3 IMU1 initialised", "EKF3 IMU1 tilt alignment complete", "EKF3 IMU1 MAG0 initial yaw alignment complete"]}
{"timestamp": "2026-01-29T10:37:30.325714Z", "telemetry": {"lat": 0.0, "lon": 0.0, "satellites": 0, "altitude_gps_m": -0.5299999713897705, "groundspeed_mps": 0.10300148278474808}, "flight": {"mode": "STABILIZE", "armed": false}, "ekf": {"attitude": {"roll": -0.031238481402397156, "pitch": -0.027272358536720276, "yaw": -2.290949821472168}, "local_position": {"x": null, "y": null, "z": null}, "status": {"flags": 135, "velocity_variance": 0.0, "pos_horiz_variance": 0.029824066907167435, "pos_vert_variance": 0.06494598090648651}}, "errors": ["PreArm: RC not found", "PreArm: Hardware safety switch", "PreArm: Compasses inconsistent", "EKF3 IMU1 forced reset", "EKF3 IMU1 initialised", "EKF3 IMU1 tilt alignment complete", "EKF3 IMU1 MAG0 initial yaw alignment complete"]}
{"timestamp": "2026-01-29T10:37:31.317939Z", "telemetry": {"lat": 0.0, "lon": 0.0, "satellites": 0, "altitude_gps_m": -0.5299999713897705, "groundspeed_mps": 0.11048255115747452}, "flight": {"mode": "STABILIZE", "armed": false}, "ekf": {"attitude": {"roll": -0.03139545023441315, "pitch": -0.0276237353682518, "yaw": -2.281015396118164}, "local_position": {"x": null, "y": null, "z": null}, "status": {"flags": 135, "velocity_variance": 0.0, "pos_horiz_variance": 0.028426112607121468, "pos_vert_variance": 0.017383795231580734}}, "errors": ["PreArm: RC not found", "PreArm: Hardware safety switch", "PreArm: Compasses inconsistent", "EKF3 IMU1 forced reset", "EKF3 IMU1 initialised", "EKF3 IMU1 tilt alignment complete", "EKF3 IMU1 MAG0 initial yaw alignment complete"]}
{"timestamp": "2026-01-29T10:37:32.310806Z", "telemetry": {"lat": 0.0, "lon": 0.0, "satellites": 0, "altitude_gps_m": -0.5299999713897705, "groundspeed_mps": 0.12641207873821259}, "flight": {"mode": "STABILIZE", "armed": false}, "ekf": {"attitude": {"roll": -0.031673841178417206, "pitch": -0.027994127944111824, "yaw": -2.265238046646118}, "local_position": {"x": null, "y": null, "z": null}, "status": {"flags": 135, "velocity_variance": 0.0, "pos_horiz_variance": 0.029343731701374054, "pos_vert_variance": 0.011462591588497162}}, "errors": ["PreArm: RC not found", "PreArm: Hardware safety switch", "PreArm: Compasses inconsistent", "EKF3 IMU1 forced reset", "EKF3 IMU1 initialised", "EKF3 IMU1 tilt alignment complete", "EKF3 IMU1 MAG0 initial yaw alignment complete"]}
{"timestamp": "2026-01-29T10:37:33.305436Z", "telemetry": {"lat": 0.0, "lon": 0.0, "satellites": 0, "altitude_gps_m": -0.5299999713897705, "groundspeed_mps": 0.1360906958580017}, "flight": {"mode": "STABILIZE", "armed": false}, "ekf": {"attitude": {"roll": -0.03186670318245888, "pitch": -0.028236055746674538, "yaw": -2.2533459663391113}, "local_position": {"x": null, "y": null, "z": null}, "status": {"flags": 135, "velocity_variance": 0.0, "pos_horiz_variance": 0.031068505719304085, "pos_vert_variance": 0.025782061740756035}}, "errors": ["PreArm: RC not found", "PreArm: Hardware safety switch", "PreArm: Compasses inconsistent", "EKF3 IMU1 forced reset", "EKF3 IMU1 initialised", "EKF3 IMU1 tilt alignment complete", "EKF3 IMU1 MAG0 initial yaw alignment complete"]}
{"timestamp": "2026-01-29T10:37:34.335919Z", "telemetry": {"lat": 0.0, "lon": 0.0, "satellites": 0, "altitude_gps_m": -0.5299999713897705, "groundspeed_mps": 0.14352168142795563}, "flight": {"mode": "STABILIZE", "armed": false}, "ekf": {"attitude": {"roll": -0.032094553112983704, "pitch": -0.028420476242899895, "yaw": -2.245006561279297}, "local_position": {"x": null, "y": null, "z": null}, "status": {"flags": 135, "velocity_variance": 0.0, "pos_horiz_variance": 0.03294657915830612, "pos_vert_variance": 0.036541227251291275}}, "errors": ["PreArm: RC not found", "PreArm: Hardware safety switch", "PreArm: Compasses inconsistent", "EKF3 IMU1 forced reset", "EKF3 IMU1 initialised", "EKF3 IMU1 tilt alignment complete", "EKF3 IMU1 MAG0 initial yaw alignment complete"]}
{"timestamp": "2026-01-29T10:37:35.330834Z", "telemetry": {"lat": 0.0, "lon": 0.0, "satellites": 0, "altitude_gps_m": -0.5299999713897705, "groundspeed_mps": 0.1504431515932083}, "flight": {"mode": "STABILIZE", "armed": false}, "ekf": {"attitude": {"roll": -0.03244554623961449, "pitch": -0.028351902961730957, "yaw": -2.2315516471862793}, "local_position": {"x": null, "y": null, "z": null}, "status": {"flags": 135, "velocity_variance": 0.0, "pos_horiz_variance": 0.03475489094853401, "pos_vert_variance": 0.057478852570056915}}, "errors": ["PreArm: RC not found", "PreArm: Hardware safety switch", "PreArm: Compasses inconsistent", "EKF3 IMU1 forced reset", "EKF3 IMU1 initialised", "EKF3 IMU1 tilt alignment complete", "EKF3 IMU1 MAG0 initial yaw alignment complete"]}
{"timestamp": "2026-01-29T10:37:36.326308Z", "telemetry": {"lat": 0.0, "lon": 0.0, "satellites": 0, "altitude_gps_m": -0.5299999713897705, "groundspeed_mps": 0.15153175592422485}, "flight": {"mode": "STABILIZE", "armed": false}, "ekf": {"attitude": {"roll": -0.03256319463253021, "pitch": -0.028388988226652145, "yaw": -2.221245050430298}, "local_position": {"x": null, "y": null, "z": null}, "status": {"flags": 135, "velocity_variance": 0.0, "pos_horiz_variance": 0.03567054122686386, "pos_vert_variance": 0.016650879755616188}}, "errors": ["PreArm: RC not found", "PreArm: Hardware safety switch", "PreArm: Compasses inconsistent", "EKF3 IMU1 forced reset", "EKF3 IMU1 initialised", "EKF3 IMU1 tilt alignment complete", "EKF3 IMU1 MAG0 initial yaw alignment complete", "PreArm: RC not found", "PreArm: Hardware safety switch", "PreArm: Compasses inconsistent"]}
{"timestamp": "2026-01-29T10:37:37.323364Z", "telemetry": {"lat": 0.0, "lon": 0.0, "satellites": 0, "altitude_gps_m": -0.5299999713897705, "groundspeed_mps": 0.1520451456308365}, "flight": {"mode": "STABILIZE", "armed": false}, "ekf": {"attitude": {"roll": -0.03269381821155548, "pitch": -0.02832770347595215, "yaw": -2.2139780521392822}, "local_position": {"x": null, "y": null, "z": null}, "status": {"flags": 135, "velocity_variance": 0.0, "pos_horiz_variance": 0.03619179502129555, "pos_vert_variance": 0.04573928937315941}}, "errors": ["PreArm: RC not found", "PreArm: Hardware safety switch", "PreArm: Compasses inconsistent", "EKF3 IMU1 forced reset", "EKF3 IMU1 initialised", "EKF3 IMU1 tilt alignment complete", "EKF3 IMU1 MAG0 initial yaw alignment complete", "PreArm: RC not found", "PreArm: Hardware safety switch", "PreArm: Compasses inconsistent"]}
{"timestamp": "2026-01-29T10:37:38.319607Z", "telemetry": {"lat": 0.0, "lon": 0.0, "satellites": 0, "altitude_gps_m": -0.5299999713897705, "groundspeed_mps": 0.14870689809322357}, "flight": {"mode": "STABILIZE", "armed": false}, "ekf": {"attitude": {"roll": -0.03259364143013954, "pitch": -0.028193198144435883, "yaw": -2.2021002769470215}, "local_position": {"x": null, "y": null, "z": null}, "status": {"flags": 135, "velocity_variance": 0.0, "pos_horiz_variance": 0.03626330941915512, "pos_vert_variance": 0.0020385989919304848}}, "errors": ["PreArm: RC not found", "PreArm: Hardware safety switch", "PreArm: Compasses inconsistent", "EKF3 IMU1 forced reset", "EKF3 IMU1 initialised", "EKF3 IMU1 tilt alignment complete", "EKF3 IMU1 MAG0 initial yaw alignment complete", "PreArm: RC not found", "PreArm: Hardware safety switch", "PreArm: Compasses inconsistent"]}
{"timestamp": "2026-01-29T10:37:39.316735Z", "telemetry": {"lat": 0.0, "lon": 0.0, "satellites": 0, "altitude_gps_m": -0.5299999713897705, "groundspeed_mps": 0.1449199914932251}, "flight": {"mode": "STABILIZE", "armed": false}, "ekf": {"attitude": {"roll": -0.03259797394275665, "pitch": -0.027944903820753098, "yaw": -2.1953680515289307}, "local_position": {"x": null, "y": null, "z": null}, "status": {"flags": 135, "velocity_variance": 0.0, "pos_horiz_variance": 0.03604790195822716, "pos_vert_variance": 0.004634929355233908}}, "errors": ["PreArm: RC not found", "PreArm: Hardware safety switch", "PreArm: Compasses inconsistent", "EKF3 IMU1 forced reset", "EKF3 IMU1 initialised", "EKF3 IMU1 tilt alignment complete", "EKF3 IMU1 MAG0 initial yaw alignment complete", "PreArm: RC not found", "PreArm: Hardware safety switch", "PreArm: Compasses inconsistent"]}
{"timestamp": "2026-01-29T10:37:40.313444Z", "telemetry": {"lat": 0.0, "lon": 0.0, "satellites": 0, "altitude_gps_m": -0.5299999713897705, "groundspeed_mps": 0.14160090684890747}, "flight": {"mode": "STABILIZE", "armed": false}, "ekf": {"attitude": {"roll": -0.032619696110486984, "pitch": -0.027776794508099556, "yaw": -2.186854124069214}, "local_position": {"x": null, "y": null, "z": null}, "status": {"flags": 135, "velocity_variance": 0.0, "pos_horiz_variance": 0.03516906127333641, "pos_vert_variance": 0.025385210290551186}}, "errors": ["PreArm: RC not found", "PreArm: Hardware safety switch", "PreArm: Compasses inconsistent", "EKF3 IMU1 forced reset", "EKF3 IMU1 initialised", "EKF3 IMU1 tilt alignment complete", "EKF3 IMU1 MAG0 initial yaw alignment complete", "PreArm: RC not found", "PreArm: Hardware safety switch", "PreArm: Compasses inconsistent"]}
{"timestamp": "2026-01-29T10:37:41.310814Z", "telemetry": {"lat": 0.0, "lon": 0.0, "satellites": 0, "altitude_gps_m": -0.5299999713897705, "groundspeed_mps": 0.14070843160152435}, "flight": {"mode": "STABILIZE", "armed": false}, "ekf": {"attitude": {"roll": -0.032477378845214844, "pitch": -0.027407251298427582, "yaw": -2.176443338394165}, "local_position": {"x": null, "y": null, "z": null}, "status": {"flags": 135, "velocity_variance": 0.0, "pos_horiz_variance": 0.03482702001929283, "pos_vert_variance": 0.05569911375641823}}, "errors": ["PreArm: RC not found", "PreArm: Hardware safety switch", "PreArm: Compasses inconsistent", "EKF3 IMU1 forced reset", "EKF3 IMU1 initialised", "EKF3 IMU1 tilt alignment complete", "EKF3 IMU1 MAG0 initial yaw alignment complete", "PreArm: RC not found", "PreArm: Hardware safety switch", "PreArm: Compasses inconsistent"]}
{"timestamp": "2026-01-29T10:37:42.347306Z", "telemetry": {"lat": 0.0, "lon": 0.0, "satellites": 0, "altitude_gps_m": -0.5299999713897705, "groundspeed_mps": 0.13653995096683502}, "flight": {"mode": "STABILIZE", "armed": false}, "ekf": {"attitude": {"roll": -0.03248044103384018, "pitch": -0.027396859601140022, "yaw": -2.168581962585449}, "local_position": {"x": null, "y": null, "z": null}, "status": {"flags": 135, "velocity_variance": 0.0, "pos_horiz_variance": 0.034205783158540726, "pos_vert_variance": 0.025314554572105408}}, "errors": ["PreArm: RC not found", "PreArm: Hardware safety switch", "PreArm: Compasses inconsistent", "EKF3 IMU1 forced reset", "EKF3 IMU1 initialised", "EKF3 IMU1 tilt alignment complete", "EKF3 IMU1 MAG0 initial yaw alignment complete", "PreArm: RC not found", "PreArm: Hardware safety switch", "PreArm: Compasses inconsistent"]}
{"timestamp": "2026-01-29T10:37:43.345366Z", "telemetry": {"lat": 0.0, "lon": 0.0, "satellites": 0, "altitude_gps_m": -0.5299999713897705, "groundspeed_mps": 0.1362205296754837}, "flight": {"mode": "STABILIZE", "armed": false}, "ekf": {"attitude": {"roll": -0.032472267746925354, "pitch": -0.027431029826402664, "yaw": -2.162740468978882}, "local_position": {"x": null, "y": null, "z": null}, "status": {"flags": 135, "velocity_variance": 0.0, "pos_horiz_variance": 0.033468618988990784, "pos_vert_variance": 0.05327211320400238}}, "errors": ["PreArm: RC not found", "PreArm: Hardware safety switch", "PreArm: Compasses inconsistent", "EKF3 IMU1 forced reset", "EKF3 IMU1 initialised", "EKF3 IMU1 tilt alignment complete", "EKF3 IMU1 MAG0 initial yaw alignment complete", "PreArm: RC not found", "PreArm: Hardware safety switch", "PreArm: Compasses inconsistent"]}
{"timestamp": "2026-01-29T10:37:44.343355Z", "telemetry": {"lat": 0.0, "lon": 0.0, "satellites": 0, "altitude_gps_m": -0.5299999713897705, "groundspeed_mps": 0.132633239030838}, "flight": {"mode": "STABILIZE", "armed": false}, "ekf": {"attitude": {"roll": -0.032525405287742615, "pitch": -0.027415571734309196, "yaw": -2.1533122062683105}, "local_position": {"x": null, "y": null, "z": null}, "status": {"flags": 135, "velocity_variance": 0.0, "pos_horiz_variance": 0.03283563628792763, "pos_vert_variance": 0.041677359491586685}}, "errors": ["PreArm: RC not found", "PreArm: Hardware safety switch", "PreArm: Compasses inconsistent", "EKF3 IMU1 forced reset", "EKF3 IMU1 initialised", "EKF3 IMU1 tilt alignment complete", "EKF3 IMU1 MAG0 initial yaw alignment complete", "PreArm: RC not found", "PreArm: Hardware safety switch", "PreArm: Compasses inconsistent"]}
{"timestamp": "2026-01-29T10:37:45.341632Z", "telemetry": {"lat": 0.0, "lon": 0.0, "satellites": 0, "altitude_gps_m": -0.5299999713897705, "groundspeed_mps": 0.1301369071006775}, "flight": {"mode": "STABILIZE", "armed": false}, "ekf": {"attitude": {"roll": -0.032735686749219894, "pitch": -0.02726149372756481, "yaw": -2.146235704421997}, "local_position": {"x": null, "y": null, "z": null}, "status": {"flags": 135, "velocity_variance": 0.0, "pos_horiz_variance": 0.03230990841984749, "pos_vert_variance": 0.009460479952394962}}, "errors": ["PreArm: RC not found", "PreArm: Hardware safety switch", "PreArm: Compasses inconsistent", "EKF3 IMU1 forced reset", "EKF3 IMU1 initialised", "EKF3 IMU1 tilt alignment complete", "EKF3 IMU1 MAG0 initial yaw alignment complete", "PreArm: RC not found", "PreArm: Hardware safety switch", "PreArm: Compasses inconsistent"]}
{"timestamp": "2026-01-29T10:37:46.300893Z", "telemetry": {"lat": 0.0, "lon": 0.0, "satellites": 0, "altitude_gps_m": -0.5299999713897705, "groundspeed_mps": 0.12966884672641754}, "flight": {"mode": "STABILIZE", "armed": false}, "ekf": {"attitude": {"roll": -0.032831232994794846, "pitch": -0.027269069105386734, "yaw": -2.1410975456237793}, "local_position": {"x": null, "y": null, "z": null}, "status": {"flags": 135, "velocity_variance": 0.0, "pos_horiz_variance": 0.0320068784058094, "pos_vert_variance": 0.05187042057514191}}, "errors": ["PreArm: RC not found", "PreArm: Hardware safety switch", "PreArm: Compasses inconsistent", "EKF3 IMU1 forced reset", "EKF3 IMU1 initialised", "EKF3 IMU1 tilt alignment complete", "EKF3 IMU1 MAG0 initial yaw alignment complete", "PreArm: RC not found", "PreArm: Hardware safety switch", "PreArm: Compasses inconsistent"]}
{"timestamp": "2026-01-29T10:37:47.338613Z", "telemetry": {"lat": 0.0, "lon": 0.0, "satellites": 0, "altitude_gps_m": -0.5299999713897705, "groundspeed_mps": 0.1323140263557434}, "flight": {"mode": "STABILIZE", "armed": false}, "ekf": {"attitude": {"roll": -0.03286290913820267, "pitch": -0.027295183390378952, "yaw": -2.133131265640259}, "local_position": {"x": null, "y": null, "z": null}, "status": {"flags": 135, "velocity_variance": 0.0, "pos_horiz_variance": 0.03199506923556328, "pos_vert_variance": 0.05957857519388199}}, "errors": ["PreArm: RC not found", "PreArm: Hardware safety switch", "PreArm: Compasses inconsistent", "EKF3 IMU1 forced reset", "EKF3 IMU1 initialised", "EKF3 IMU1 tilt alignment complete", "EKF3 IMU1 MAG0 initial yaw alignment complete", "PreArm: RC not found", "PreArm: Hardware safety switch", "PreArm: Compasses inconsistent"]}
{"timestamp": "2026-01-29T10:37:48.337287Z", "telemetry": {"lat": 0.0, "lon": 0.0, "satellites": 0, "altitude_gps_m": -0.5299999713897705, "groundspeed_mps": 0.13380780816078186}, "flight": {"mode": "STABILIZE", "armed": false}, "ekf": {"attitude": {"roll": -0.03280142322182655, "pitch": -0.027381811290979385, "yaw": -2.1270856857299805}, "local_position": {"x": null, "y": null, "z": null}, "status": {"flags": 135, "velocity_variance": 0.0, "pos_horiz_variance": 0.032140471041202545, "pos_vert_variance": 0.031570661813020706}}, "errors": ["PreArm: RC not found", "PreArm: Hardware safety switch", "PreArm: Compasses inconsistent", "EKF3 IMU1 forced reset", "EKF3 IMU1 initialised", "EKF3 IMU1 tilt alignment complete", "EKF3 IMU1 MAG0 initial yaw alignment complete", "PreArm: RC not found", "PreArm: Hardware safety switch", "PreArm: Compasses inconsistent"]}
{"timestamp": "2026-01-29T10:37:49.336186Z", "telemetry": {"lat": 0.0, "lon": 0.0, "satellites": 0, "altitude_gps_m": -0.5299999713897705, "groundspeed_mps": 0.1354614496231079}, "flight": {"mode": "STABILIZE", "armed": false}, "ekf": {"attitude": {"roll": -0.0326162613928318, "pitch": -0.027327660471200943, "yaw": -2.121387481689453}, "local_position": {"x": null, "y": null, "z": null}, "status": {"flags": 135, "velocity_variance": 0.0, "pos_horiz_variance": 0.03249834105372429, "pos_vert_variance": 0.017972160130739212}}, "errors": ["PreArm: RC not found", "PreArm: Hardware safety switch", "PreArm: Compasses inconsistent", "EKF3 IMU1 forced reset", "EKF3 IMU1 initialised", "EKF3 IMU1 tilt alignment complete", "EKF3 IMU1 MAG0 initial yaw alignment complete", "PreArm: RC not found", "PreArm: Hardware safety switch", "PreArm: Compasses inconsistent"]}
{"timestamp": "2026-01-29T10:37:50.335410Z", "telemetry": {"lat": 0.0, "lon": 0.0, "satellites": 0, "altitude_gps_m": -0.5299999713897705, "groundspeed_mps": 0.13790912926197052}, "flight": {"mode": "STABILIZE", "armed": false}, "ekf": {"attitude": {"roll": -0.0325642004609108, "pitch": -0.027315422892570496, "yaw": -2.1158218383789062}, "local_position": {"x": null, "y": null, "z": null}, "status": {"flags": 135, "velocity_variance": 0.0, "pos_horiz_variance": 0.032938554883003235, "pos_vert_variance": 0.000507810793351382}}, "errors": ["PreArm: RC not found", "PreArm: Hardware safety switch", "PreArm: Compasses inconsistent", "EKF3 IMU1 forced reset", "EKF3 IMU1 initialised", "EKF3 IMU1 tilt alignment complete", "EKF3 IMU1 MAG0 initial yaw alignment complete", "PreArm: RC not found", "PreArm: Hardware safety switch", "PreArm: Compasses inconsistent"]}
{"timestamp": "2026-01-29T10:37:51.333801Z", "telemetry": {"lat": 0.0, "lon": 0.0, "satellites": 0, "altitude_gps_m": -0.5299999713897705, "groundspeed_mps": 0.13508127629756927}, "flight": {"mode": "STABILIZE", "armed": false}, "ekf": {"attitude": {"roll": -0.033192411065101624, "pitch": -0.027418948709964752, "yaw": -2.1097068786621094}, "local_position": {"x": null, "y": null, "z": null}, "status": {"flags": 135, "velocity_variance": 0.0, "pos_horiz_variance": 0.032669369131326675, "pos_vert_variance": 0.025388719514012337}}, "errors": ["PreArm: RC not found", "PreArm: Hardware safety switch", "PreArm: Compasses inconsistent", "EKF3 IMU1 forced reset", "EKF3 IMU1 initialised", "EKF3 IMU1 tilt alignment complete", "EKF3 IMU1 MAG0 initial yaw alignment complete", "PreArm: RC not found", "PreArm: Hardware safety switch", "PreArm: Compasses inconsistent"]}
{"timestamp": "2026-01-29T10:37:52.332852Z", "telemetry": {"lat": 0.0, "lon": 0.0, "satellites": 0, "altitude_gps_m": -0.5299999713897705, "groundspeed_mps": 0.1348615288734436}, "flight": {"mode": "STABILIZE", "armed": false}, "ekf": {"attitude": {"roll": -0.03282918408513069, "pitch": -0.02725076675415039, "yaw": -2.10467529296875}, "local_position": {"x": null, "y": null, "z": null}, "status": {"flags": 135, "velocity_variance": 0.0, "pos_horiz_variance": 0.03257464990019798, "pos_vert_variance": 0.015594370663166046}}, "errors": ["PreArm: RC not found", "PreArm: Hardware safety switch", "PreArm: Compasses inconsistent", "EKF3 IMU1 forced reset", "EKF3 IMU1 initialised", "EKF3 IMU1 tilt alignment complete", "EKF3 IMU1 MAG0 initial yaw alignment complete", "PreArm: RC not found", "PreArm: Hardware safety switch", "PreArm: Compasses inconsistent"]}
{"timestamp": "2026-01-29T10:37:53.331922Z", "telemetry": {"lat": 0.0, "lon": 0.0, "satellites": 0, "altitude_gps_m": -0.5299999713897705, "groundspeed_mps": 0.13773305714130402}, "flight": {"mode": "STABILIZE", "armed": false}, "ekf": {"attitude": {"roll": -0.03273599594831467, "pitch": -0.027194038033485413, "yaw": -2.099515914916992}, "local_position": {"x": null, "y": null, "z": null}, "status": {"flags": 135, "velocity_variance": 0.0, "pos_horiz_variance": 0.03256530687212944, "pos_vert_variance": 0.08785377442836761}}, "errors": ["PreArm: RC not found", "PreArm: Hardware safety switch", "PreArm: Compasses inconsistent", "EKF3 IMU1 forced reset", "EKF3 IMU1 initialised", "EKF3 IMU1 tilt alignment complete", "EKF3 IMU1 MAG0 initial yaw alignment complete", "PreArm: RC not found", "PreArm: Hardware safety switch", "PreArm: Compasses inconsistent"]}
{"timestamp": "2026-01-29T10:37:54.331100Z", "telemetry": {"lat": 0.0, "lon": 0.0, "satellites": 0, "altitude_gps_m": -0.5299999713897705, "groundspeed_mps": 0.13891763985157013}, "flight": {"mode": "STABILIZE", "armed": false}, "ekf": {"attitude": {"roll": -0.03253503516316414, "pitch": -0.027233051136136055, "yaw": -2.094832420349121}, "local_position": {"x": null, "y": null, "z": null}, "status": {"flags": 135, "velocity_variance": 0.0, "pos_horiz_variance": 0.03307519108057022, "pos_vert_variance": 0.03542105108499527}}, "errors": ["PreArm: RC not found", "PreArm: Hardware safety switch", "PreArm: Compasses inconsistent", "EKF3 IMU1 forced reset", "EKF3 IMU1 initialised", "EKF3 IMU1 tilt alignment complete", "EKF3 IMU1 MAG0 initial yaw alignment complete", "PreArm: RC not found", "PreArm: Hardware safety switch", "PreArm: Compasses inconsistent"]}
{"timestamp": "2026-01-29T10:37:55.330414Z", "telemetry": {"lat": 0.0, "lon": 0.0, "satellites": 0, "altitude_gps_m": -0.5299999713897705, "groundspeed_mps": 0.13910987973213196}, "flight": {"mode": "STABILIZE", "armed": false}, "ekf": {"attitude": {"roll": -0.03252332657575607, "pitch": -0.02728627435863018, "yaw": -2.091492176055908}, "local_position": {"x": null, "y": null, "z": null}, "status": {"flags": 135, "velocity_variance": 0.0, "pos_horiz_variance": 0.03345650061964989, "pos_vert_variance": 0.03925980255007744}}, "errors": ["PreArm: RC not found", "PreArm: Hardware safety switch", "PreArm: Compasses inconsistent", "EKF3 IMU1 forced reset", "EKF3 IMU1 initialised", "EKF3 IMU1 tilt alignment complete", "EKF3 IMU1 MAG0 initial yaw alignment complete", "PreArm: RC not found", "PreArm: Hardware safety switch", "PreArm: Compasses inconsistent"]}
{"timestamp": "2026-01-29T10:37:56.329496Z", "telemetry": {"lat": 0.0, "lon": 0.0, "satellites": 0, "altitude_gps_m": -0.5299999713897705, "groundspeed_mps": 0.13863325119018555}, "flight": {"mode": "STABILIZE", "armed": false}, "ekf": {"attitude": {"roll": -0.03249000012874603, "pitch": -0.027178995311260223, "yaw": -2.0864338874816895}, "local_position": {"x": null, "y": null, "z": null}, "status": {"flags": 135, "velocity_variance": 0.0, "pos_horiz_variance": 0.03358723595738411, "pos_vert_variance": 0.04480157792568207}}, "errors": ["PreArm: RC not found", "PreArm: Hardware safety switch", "PreArm: Compasses inconsistent", "EKF3 IMU1 forced reset", "EKF3 IMU1 initialised", "EKF3 IMU1 tilt alignment complete", "EKF3 IMU1 MAG0 initial yaw alignment complete", "PreArm: RC not found", "PreArm: Hardware safety switch", "PreArm: Compasses inconsistent"]}
{"timestamp": "2026-01-29T10:37:57.328885Z", "telemetry": {"lat": 0.0, "lon": 0.0, "satellites": 0, "altitude_gps_m": -0.5299999713897705, "groundspeed_mps": 0.13721692562103271}, "flight": {"mode": "STABILIZE", "armed": false}, "ekf": {"attitude": {"roll": -0.03232686594128609, "pitch": -0.02721337229013443, "yaw": -2.0836565494537354}, "local_position": {"x": null, "y": null, "z": null}, "status": {"flags": 135, "velocity_variance": 0.0, "pos_horiz_variance": 0.03370876610279083, "pos_vert_variance": 0.06220687925815582}}, "errors": ["PreArm: RC not found", "PreArm: Hardware safety switch", "PreArm: Compasses inconsistent", "EKF3 IMU1 forced reset", "EKF3 IMU1 initialised", "EKF3 IMU1 tilt alignment complete", "EKF3 IMU1 MAG0 initial yaw alignment complete", "PreArm: RC not found", "PreArm: Hardware safety switch", "PreArm: Compasses inconsistent"]}
{"timestamp": "2026-01-29T10:37:58.333849Z", "telemetry": {"lat": 0.0, "lon": 0.0, "satellites": 0, "altitude_gps_m": -0.5299999713897705, "groundspeed_mps": 0.13478800654411316}, "flight": {"mode": "STABILIZE", "armed": false}, "ekf": {"attitude": {"roll": -0.032510723918676376, "pitch": -0.027267396450042725, "yaw": -2.078463554382324}, "local_position": {"x": null, "y": null, "z": null}, "status": {"flags": 135, "velocity_variance": 0.0, "pos_horiz_variance": 0.03347281366586685, "pos_vert_variance": 0.054982349276542664}}, "errors": ["PreArm: RC not found", "PreArm: Hardware safety switch", "PreArm: Compasses inconsistent", "EKF3 IMU1 forced reset", "EKF3 IMU1 initialised", "EKF3 IMU1 tilt alignment complete", "EKF3 IMU1 MAG0 initial yaw alignment complete", "PreArm: RC not found", "PreArm: Hardware safety switch", "PreArm: Compasses inconsistent"]}
{"timestamp": "2026-01-29T10:37:59.348016Z", "telemetry": {"lat": 0.0, "lon": 0.0, "satellites": 0, "altitude_gps_m": -0.5299999713897705, "groundspeed_mps": 0.49974241852760315}, "flight": {"mode": "STABILIZE", "armed": false}, "ekf": {"attitude": {"roll": -0.03263254091143608, "pitch": -0.07913880050182343, "yaw": -2.006728410720825}, "local_position": {"x": null, "y": null, "z": null}, "status": {"flags": 135, "velocity_variance": 0.0, "pos_horiz_variance": 0.033659085631370544, "pos_vert_variance": 0.009235982783138752}}, "errors": ["PreArm: RC not found", "PreArm: Hardware safety switch", "PreArm: Compasses inconsistent", "EKF3 IMU1 forced reset", "EKF3 IMU1 initialised", "EKF3 IMU1 tilt alignment complete", "EKF3 IMU1 MAG0 initial yaw alignment complete", "PreArm: RC not found", "PreArm: Hardware safety switch", "PreArm: Compasses inconsistent"]}
{"timestamp": "2026-01-29T10:38:00.320807Z", "telemetry": {"lat": 0.0, "lon": 0.0, "satellites": 0, "altitude_gps_m": -0.5299999713897705, "groundspeed_mps": 0.18714025616645813}, "flight": {"mode": "STABILIZE", "armed": false}, "ekf": {"attitude": {"roll": -0.08552403002977371, "pitch": -0.15540163218975067, "yaw": -1.4710198640823364}, "local_position": {"x": null, "y": null, "z": null}, "status": {"flags": 135, "velocity_variance": 0.0, "pos_horiz_variance": 0.08319402486085892, "pos_vert_variance": 0.03634996712207794}}, "errors": ["PreArm: RC not found", "PreArm: Hardware safety switch", "PreArm: Compasses inconsistent", "EKF3 IMU1 forced reset", "EKF3 IMU1 initialised", "EKF3 IMU1 tilt alignment complete", "EKF3 IMU1 MAG0 initial yaw alignment complete", "PreArm: RC not found", "PreArm: Hardware safety switch", "PreArm: Compasses inconsistent"]}
{"timestamp": "2026-01-29T10:38:01.330950Z", "telemetry": {"lat": 0.0, "lon": 0.0, "satellites": 0, "altitude_gps_m": -0.5299999713897705, "groundspeed_mps": 0.2180606722831726}, "flight": {"mode": "STABILIZE", "armed": false}, "ekf": {"attitude": {"roll": -0.04814961925148964, "pitch": -0.1459478884935379, "yaw": -1.2222919464111328}, "local_position": {"x": null, "y": null, "z": null}, "status": {"flags": 135, "velocity_variance": 0.0, "pos_horiz_variance": 0.0384272038936615, "pos_vert_variance": 0.013354324735701084}}, "errors": ["PreArm: RC not found", "PreArm: Hardware safety switch", "PreArm: Compasses inconsistent", "EKF3 IMU1 forced reset", "EKF3 IMU1 initialised", "EKF3 IMU1 tilt alignment complete", "EKF3 IMU1 MAG0 initial yaw alignment complete", "PreArm: RC not found", "PreArm: Hardware safety switch", "PreArm: Compasses inconsistent"]}
{"timestamp": "2026-01-29T10:38:02.301716Z", "telemetry": {"lat": 0.0, "lon": 0.0, "satellites": 0, "altitude_gps_m": -0.5299999713897705, "groundspeed_mps": 0.31065046787261963}, "flight": {"mode": "STABILIZE", "armed": false}, "ekf": {"attitude": {"roll": -0.053162019699811935, "pitch": -0.1650119572877884, "yaw": -1.1298083066940308}, "local_position": {"x": null, "y": null, "z": null}, "status": {"flags": 135, "velocity_variance": 0.0, "pos_horiz_variance": 0.04129309207201004, "pos_vert_variance": 0.022491853684186935}}, "errors": ["PreArm: RC not found", "PreArm: Hardware safety switch", "PreArm: Compasses inconsistent", "EKF3 IMU1 forced reset", "EKF3 IMU1 initialised", "EKF3 IMU1 tilt alignment complete", "EKF3 IMU1 MAG0 initial yaw alignment complete", "PreArm: RC not found", "PreArm: Hardware safety switch", "PreArm: Compasses inconsistent"]}
