{"timestamp": "2026-01-25T13:42:54.292627Z", "telemetry": {"lat": 0.0, "lon": 0.0, "satellites": 0, "altitude_gps_m": 0.3999999761581421, "groundspeed_mps": 0.03617182746529579}, "flight": {"mode": null, "armed": null}, "ekf": {"attitude": {"roll": -0.004237480461597443, "pitch": -0.010308891534805298, "yaw": -0.561241865158081}, "local_position": {"x": null, "y": null, "z": null}, "status": {"flags": 135, "velocity_variance": 0.0, "pos_horiz_variance": 0.00919408444315195, "pos_vert_variance": 0.0523323230445385}}, "errors": []}
{"timestamp": "2026-01-25T13:42:55.242360Z", "telemetry": {"lat": 0.0, "lon": 0.0, "satellites": 0, "altitude_gps_m": 0.3999999761581421, "groundspeed_mps": 0.03672417998313904}, "flight": {"mode": "STABILIZE", "armed": false}, "ekf": {"attitude": {"roll": -0.004192759748548269, "pitch": -0.01025565154850483, "yaw": -0.5610477328300476}, "local_position": {"x": null, "y": null, "z": null}, "status": {"flags": 135, "velocity_variance": 0.0, "pos_horiz_variance": 0.008987274952232838, "pos_vert_variance": 0.0022329073399305344}}, "errors": []}
{"timestamp": "2026-01-25T13:42:56.219624Z", "telemetry": {"lat": 0.0, "lon": 0.0, "satellites": 0, "altitude_gps_m": 0.3999999761581421, "groundspeed_mps": 0.038388073444366455}, "flight": {"mode": "STABILIZE", "armed": false}, "ekf": {"attitude": {"roll": -0.004161800257861614, "pitch": -0.010471632704138756, "yaw": -0.5610461235046387}, "local_position": {"x": null, "y": null, "z": null}, "status": {"flags": 135, "velocity_variance": 0.0, "pos_horiz_variance": 0.009031206369400024, "pos_vert_variance": 0.0006341852713376284}}, "errors": []}
{"timestamp": "2026-01-25T13:42:57.220382Z", "telemetry": {"lat": 0.0, "lon": 0.0, "satellites": 0, "altitude_gps_m": 0.3999999761581421, "groundspeed_mps": 0.04365679249167442}, "flight": {"mode": "STABILIZE", "armed": false}, "ekf": {"attitude": {"roll": -0.004188636317849159, "pitch": -0.010614341124892235, "yaw": -0.5608587265014648}, "local_position": {"x": null, "y": null, "z": null}, "status": {"flags": 135, "velocity_variance": 0.0, "pos_horiz_variance": 0.009664315730333328, "pos_vert_variance": 0.03513406589627266}}, "errors": []}
{"timestamp": "2026-01-25T13:42:58.220254Z", "telemetry": {"lat": 0.0, "lon": 0.0, "satellites": 0, "altitude_gps_m": 0.3999999761581421, "groundspeed_mps": 0.05022122710943222}, "flight": {"mode": "STABILIZE", "armed": false}, "ekf": {"attitude": {"roll": -0.004173619206994772, "pitch": -0.010742146521806717, "yaw": -0.5607056617736816}, "local_position": {"x": null, "y": null, "z": null}, "status": {"flags": 135, "velocity_variance": 0.0, "pos_horiz_variance": 0.01030822191387415, "pos_vert_variance": 0.004110144916921854}}, "errors": []}
{"timestamp": "2026-01-25T13:42:59.220255Z", "telemetry": {"lat": 0.0, "lon": 0.0, "satellites": 0, "altitude_gps_m": 0.3999999761581421, "groundspeed_mps": 0.042899616062641144}, "flight": {"mode": "STABILIZE", "armed": false}, "ekf": {"attitude": {"roll": -0.004233282059431076, "pitch": -0.01060517504811287, "yaw": -0.5603148341178894}, "local_position": {"x": null, "y": null, "z": null}, "status": {"flags": 135, "velocity_variance": 0.0, "pos_horiz_variance": 0.011012587696313858, "pos_vert_variance": 0.04156108945608139}}, "errors": []}
{"timestamp": "2026-01-25T13:43:00.220603Z", "telemetry": {"lat": 0.0, "lon": 0.0, "satellites": 0, "altitude_gps_m": 0.3999999761581421, "groundspeed_mps": 0.04381409287452698}, "flight": {"mode": "STABILIZE", "armed": false}, "ekf": {"attitude": {"roll": -0.0042435466311872005, "pitch": -0.010273303836584091, "yaw": -0.560575008392334}, "local_position": {"x": null, "y": null, "z": null}, "status": {"flags": 135, "velocity_variance": 0.0, "pos_horiz_variance": 0.010585666634142399, "pos_vert_variance": 0.007607238832861185}}, "errors": []}
{"timestamp": "2026-01-25T13:43:01.220662Z", "telemetry": {"lat": 0.0, "lon": 0.0, "satellites": 0, "altitude_gps_m": 0.3999999761581421, "groundspeed_mps": 0.043683771044015884}, "flight": {"mode": "STABILIZE", "armed": false}, "ekf": {"attitude": {"roll": -0.004329196177423, "pitch": -0.010970452800393105, "yaw": -0.5605551600456238}, "local_position": {"x": null, "y": null, "z": null}, "status": {"flags": 135, "velocity_variance": 0.0, "pos_horiz_variance": 0.010428927838802338, "pos_vert_variance": 0.04056939110159874}}, "errors": []}
{"timestamp": "2026-01-25T13:43:02.220399Z", "telemetry": {"lat": 0.0, "lon": 0.0, "satellites": 0, "altitude_gps_m": 0.3999999761581421, "groundspeed_mps": 0.0443696528673172}, "flight": {"mode": "STABILIZE", "armed": false}, "ekf": {"attitude": {"roll": -0.0041582016274333, "pitch": -0.01088106818497181, "yaw": -0.5603744387626648}, "local_position": {"x": null, "y": null, "z": null}, "status": {"flags": 135, "velocity_variance": 0.0, "pos_horiz_variance": 0.010708197951316833, "pos_vert_variance": 0.0011633462272584438}}, "errors": []}
{"timestamp": "2026-01-25T13:43:03.221857Z", "telemetry": {"lat": 0.0, "lon": 0.0, "satellites": 0, "altitude_gps_m": 0.3999999761581421, "groundspeed_mps": 0.04439809173345566}, "flight": {"mode": "STABILIZE", "armed": false}, "ekf": {"attitude": {"roll": -0.0038604512810707092, "pitch": -0.010824542492628098, "yaw": -0.5602976083755493}, "local_position": {"x": null, "y": null, "z": null}, "status": {"flags": 135, "velocity_variance": 0.0, "pos_horiz_variance": 0.010725181549787521, "pos_vert_variance": 0.09926462173461914}}, "errors": []}
{"timestamp": "2026-01-25T13:43:04.220053Z", "telemetry": {"lat": 0.0, "lon": 0.0, "satellites": 0, "altitude_gps_m": 0.3999999761581421, "groundspeed_mps": 0.04603090509772301}, "flight": {"mode": "STABILIZE", "armed": false}, "ekf": {"attitude": {"roll": -0.0037034356500953436, "pitch": -0.01183370128273964, "yaw": -0.5601375102996826}, "local_position": {"x": null, "y": null, "z": null}, "status": {"flags": 135, "velocity_variance": 0.0, "pos_horiz_variance": 0.010749050416052341, "pos_vert_variance": 0.0717998668551445}}, "errors": []}
{"timestamp": "2026-01-25T13:43:05.220307Z", "telemetry": {"lat": 0.0, "lon": 0.0, "satellites": 0, "altitude_gps_m": 0.3999999761581421, "groundspeed_mps": 0.04261123761534691}, "flight": {"mode": "STABILIZE", "armed": false}, "ekf": {"attitude": {"roll": -0.004007168114185333, "pitch": -0.01078609935939312, "yaw": -0.560265064239502}, "local_position": {"x": null, "y": null, "z": null}, "status": {"flags": 135, "velocity_variance": 0.0, "pos_horiz_variance": 0.010620087385177612, "pos_vert_variance": 0.030317097902297974}}, "errors": []}
{"timestamp": "2026-01-25T13:43:06.220310Z", "telemetry": {"lat": 0.0, "lon": 0.0, "satellites": 0, "altitude_gps_m": 0.3999999761581421, "groundspeed_mps": 0.041360918432474136}, "flight": {"mode": "STABILIZE", "armed": false}, "ekf": {"attitude": {"roll": -0.003639915958046913, "pitch": -0.010779919102787971, "yaw": -0.5598384141921997}, "local_position": {"x": null, "y": null, "z": null}, "status": {"flags": 135, "velocity_variance": 0.0, "pos_horiz_variance": 0.010210894048213959, "pos_vert_variance": 0.004527409095317125}}, "errors": []}
{"timestamp": "2026-01-25T13:43:07.220192Z", "telemetry": {"lat": 0.0, "lon": 0.0, "satellites": 0, "altitude_gps_m": 0.3999999761581421, "groundspeed_mps": 0.0395628847181797}, "flight": {"mode": "STABILIZE", "armed": false}, "ekf": {"attitude": {"roll": -0.003704085946083069, "pitch": -0.010502832010388374, "yaw": -0.5599666833877563}, "local_position": {"x": null, "y": null, "z": null}, "status": {"flags": 135, "velocity_variance": 0.0, "pos_horiz_variance": 0.00992646999657154, "pos_vert_variance": 0.03667636588215828}}, "errors": []}
{"timestamp": "2026-01-25T13:43:08.220509Z", "telemetry": {"lat": 0.0, "lon": 0.0, "satellites": 0, "altitude_gps_m": 0.3999999761581421, "groundspeed_mps": 0.04110240936279297}, "flight": {"mode": "STABILIZE", "armed": false}, "ekf": {"attitude": {"roll": -0.0038013686425983906, "pitch": -0.010431207716464996, "yaw": -0.5599079132080078}, "local_position": {"x": null, "y": null, "z": null}, "status": {"flags": 135, "velocity_variance": 0.0, "pos_horiz_variance": 0.009839003905653954, "pos_vert_variance": 0.04012886434793472}}, "errors": []}
{"timestamp": "2026-01-25T13:43:09.219944Z", "telemetry": {"lat": 0.0, "lon": 0.0, "satellites": 0, "altitude_gps_m": 0.3999999761581421, "groundspeed_mps": 0.039019640535116196}, "flight": {"mode": "STABILIZE", "armed": false}, "ekf": {"attitude": {"roll": -0.0036025033332407475, "pitch": -0.01044490933418274, "yaw": -0.5598127841949463}, "local_position": {"x": null, "y": null, "z": null}, "status": {"flags": 135, "velocity_variance": 0.0, "pos_horiz_variance": 0.009831639006733894, "pos_vert_variance": 0.031856972724199295}}, "errors": []}
{"timestamp": "2026-01-25T13:43:10.220551Z", "telemetry": {"lat": 0.0, "lon": 0.0, "satellites": 0, "altitude_gps_m": 0.3999999761581421, "groundspeed_mps": 0.04053639620542526}, "flight": {"mode": "STABILIZE", "armed": false}, "ekf": {"attitude": {"roll": -0.0036181423347443342, "pitch": -0.010782672092318535, "yaw": -0.5598623752593994}, "local_position": {"x": null, "y": null, "z": null}, "status": {"flags": 135, "velocity_variance": 0.0, "pos_horiz_variance": 0.009283081628382206, "pos_vert_variance": 0.0146620012819767}}, "errors": []}
{"timestamp": "2026-01-25T13:43:11.220072Z", "telemetry": {"lat": 0.0, "lon": 0.0, "satellites": 0, "altitude_gps_m": 0.3999999761581421, "groundspeed_mps": 0.038292642682790756}, "flight": {"mode": "STABILIZE", "armed": false}, "ekf": {"attitude": {"roll": -0.0035095091443508863, "pitch": -0.010664794594049454, "yaw": -0.5597413778305054}, "local_position": {"x": null, "y": null, "z": null}, "status": {"flags": 135, "velocity_variance": 0.0, "pos_horiz_variance": 0.009234292432665825, "pos_vert_variance": 0.0012839905684813857}}, "errors": []}
{"timestamp": "2026-01-25T13:43:12.220212Z", "telemetry": {"lat": 0.0, "lon": 0.0, "satellites": 0, "altitude_gps_m": 0.3999999761581421, "groundspeed_mps": 0.04168007895350456}, "flight": {"mode": "STABILIZE", "armed": false}, "ekf": {"attitude": {"roll": -0.003332677995786071, "pitch": -0.010666025802493095, "yaw": -0.5596402883529663}, "local_position": {"x": null, "y": null, "z": null}, "status": {"flags": 135, "velocity_variance": 0.0, "pos_horiz_variance": 0.009559870697557926, "pos_vert_variance": 0.026600755751132965}}, "errors": []}
{"timestamp": "2026-01-25T13:43:13.219997Z", "telemetry": {"lat": 0.0, "lon": 0.0, "satellites": 0, "altitude_gps_m": 0.3999999761581421, "groundspeed_mps": 0.04489706829190254}, "flight": {"mode": "STABILIZE", "armed": false}, "ekf": {"attitude": {"roll": -0.0031979698687791824, "pitch": -0.010710656642913818, "yaw": -0.5595693588256836}, "local_position": {"x": null, "y": null, "z": null}, "status": {"flags": 135, "velocity_variance": 0.0, "pos_horiz_variance": 0.010182217694818974, "pos_vert_variance": 0.005811596289277077}}, "errors": []}
{"timestamp": "2026-01-25T13:43:14.220120Z", "telemetry": {"lat": 0.0, "lon": 0.0, "satellites": 0, "altitude_gps_m": 0.3999999761581421, "groundspeed_mps": 0.04617881029844284}, "flight": {"mode": "STABILIZE", "armed": false}, "ekf": {"attitude": {"roll": -0.0031406283378601074, "pitch": -0.010769935324788094, "yaw": -0.559316873550415}, "local_position": {"x": null, "y": null, "z": null}, "status": {"flags": 135, "velocity_variance": 0.0, "pos_horiz_variance": 0.01086784154176712, "pos_vert_variance": 0.0987948626279831}}, "errors": []}
{"timestamp": "2026-01-25T13:43:15.219851Z", "telemetry": {"lat": 0.0, "lon": 0.0, "satellites": 0, "altitude_gps_m": 0.3999999761581421, "groundspeed_mps": 0.045636340975761414}, "flight": {"mode": "STABILIZE", "armed": false}, "ekf": {"attitude": {"roll": -0.003176917554810643, "pitch": -0.010696468874812126, "yaw": -0.5592904090881348}, "local_position": {"x": null, "y": null, "z": null}, "status": {"flags": 135, "velocity_variance": 0.0, "pos_horiz_variance": 0.011010535061359406, "pos_vert_variance": 0.011080591939389706}}, "errors": []}
{"timestamp": "2026-01-25T13:43:16.219733Z", "telemetry": {"lat": 0.0, "lon": 0.0, "satellites": 0, "altitude_gps_m": 0.3999999761581421, "groundspeed_mps": 0.047385867685079575}, "flight": {"mode": "STABILIZE", "armed": false}, "ekf": {"attitude": {"roll": -0.003261464647948742, "pitch": -0.010855143889784813, "yaw": -0.559217631816864}, "local_position": {"x": null, "y": null, "z": null}, "status": {"flags": 135, "velocity_variance": 0.0, "pos_horiz_variance": 0.011193716898560524, "pos_vert_variance": 0.034807875752449036}}, "errors": []}
{"timestamp": "2026-01-25T13:43:17.220472Z", "telemetry": {"lat": 0.0, "lon": 0.0, "satellites": 0, "altitude_gps_m": 0.3999999761581421, "groundspeed_mps": 0.04774586111307144}, "flight": {"mode": "STABILIZE", "armed": false}, "ekf": {"attitude": {"roll": -0.0033350936137139797, "pitch": -0.010872907936573029, "yaw": -0.5590419769287109}, "local_position": {"x": null, "y": null, "z": null}, "status": {"flags": 135, "velocity_variance": 0.0, "pos_horiz_variance": 0.011442623101174831, "pos_vert_variance": 0.016032012179493904}}, "errors": []}
{"timestamp": "2026-01-25T13:43:18.219735Z", "telemetry": {"lat": 0.0, "lon": 0.0, "satellites": 0, "altitude_gps_m": 0.3999999761581421, "groundspeed_mps": 0.048005834221839905}, "flight": {"mode": "STABILIZE", "armed": false}, "ekf": {"attitude": {"roll": -0.0035178703255951405, "pitch": -0.01077360287308693, "yaw": -0.5588901042938232}, "local_position": {"x": null, "y": null, "z": null}, "status": {"flags": 135, "velocity_variance": 0.0, "pos_horiz_variance": 0.011511046439409256, "pos_vert_variance": 0.041106216609478}}, "errors": []}
