{"timestamp": "2026-01-25T13:43:29.220124Z", "telemetry": {"lat": 0.0, "lon": 0.0, "satellites": 0, "altitude_gps_m": 0.3999999761581421, "groundspeed_mps": 0.036014825105667114}, "flight": {"mode": "STABILIZE", "armed": false}, "ekf": {"attitude": {"roll": -0.004022992681711912, "pitch": -0.009978139773011208, "yaw": -0.5587578415870667}, "local_position": {"x": null, "y": null, "z": null}, "status": {"flags": 135, "velocity_variance": 0.0, "pos_horiz_variance": 0.008513123728334904, "pos_vert_variance": 0.0606764480471611}}, "errors": []}
{"timestamp": "2026-01-25T13:43:30.219685Z", "telemetry": {"lat": 0.0, "lon": 0.0, "satellites": 0, "altitude_gps_m": 0.3999999761581421, "groundspeed_mps": 0.038264960050582886}, "flight": {"mode": "STABILIZE", "armed": false}, "ekf": {"attitude": {"roll": -0.004053816199302673, "pitch": -0.01020762138068676, "yaw": -0.5587688684463501}, "local_position": {"x": null, "y": null, "z": null}, "status": {"flags": 135, "velocity_variance": 0.0, "pos_horiz_variance": 0.008773057721555233, "pos_vert_variance": 0.01545027457177639}}, "errors": []}
{"timestamp": "2026-01-25T13:43:31.220600Z", "telemetry": {"lat": 0.0, "lon": 0.0, "satellites": 0, "altitude_gps_m": 0.3999999761581421, "groundspeed_mps": 0.04219986870884895}, "flight": {"mode": "STABILIZE", "armed": false}, "ekf": {"attitude": {"roll": -0.0038588964380323887, "pitch": -0.01007615216076374, "yaw": -0.558752179145813}, "local_position": {"x": null, "y": null, "z": null}, "status": {"flags": 135, "velocity_variance": 0.0, "pos_horiz_variance": 0.009476390667259693, "pos_vert_variance": 0.07706098258495331}}, "errors": []}
{"timestamp": "2026-01-25T13:43:32.220244Z", "telemetry": {"lat": 0.0, "lon": 0.0, "satellites": 0, "altitude_gps_m": 0.3999999761581421, "groundspeed_mps": 0.03802548348903656}, "flight": {"mode": "STABILIZE", "armed": false}, "ekf": {"attitude": {"roll": -0.004002327099442482, "pitch": -0.009950179606676102, "yaw": -0.5586839914321899}, "local_position": {"x": null, "y": null, "z": null}, "status": {"flags": 135, "velocity_variance": 0.0, "pos_horiz_variance": 0.009721744805574417, "pos_vert_variance": 0.022051798179745674}}, "errors": []}
{"timestamp": "2026-01-25T13:43:33.220651Z", "telemetry": {"lat": 0.0, "lon": 0.0, "satellites": 0, "altitude_gps_m": 0.3999999761581421, "groundspeed_mps": 0.036520205438137054}, "flight": {"mode": "STABILIZE", "armed": false}, "ekf": {"attitude": {"roll": -0.004011965356767178, "pitch": -0.009906863793730736, "yaw": -0.5586714744567871}, "local_position": {"x": null, "y": null, "z": null}, "status": {"flags": 135, "velocity_variance": 0.0, "pos_horiz_variance": 0.009201481007039547, "pos_vert_variance": 0.010476264171302319}}, "errors": []}
{"timestamp": "2026-01-25T13:43:34.220567Z", "telemetry": {"lat": 0.0, "lon": 0.0, "satellites": 0, "altitude_gps_m": 0.3999999761581421, "groundspeed_mps": 0.03389206901192665}, "flight": {"mode": "STABILIZE", "armed": false}, "ekf": {"attitude": {"roll": -0.004622168838977814, "pitch": -0.01057623140513897, "yaw": -0.5582436919212341}, "local_position": {"x": null, "y": null, "z": null}, "status": {"flags": 135, "velocity_variance": 0.0, "pos_horiz_variance": 0.008798855356872082, "pos_vert_variance": 0.030754687264561653}}, "errors": []}
{"timestamp": "2026-01-25T13:43:35.220427Z", "telemetry": {"lat": 0.0, "lon": 0.0, "satellites": 0, "altitude_gps_m": 0.3999999761581421, "groundspeed_mps": 0.03628493472933769}, "flight": {"mode": "STABILIZE", "armed": false}, "ekf": {"attitude": {"roll": -0.004334602504968643, "pitch": -0.01168563961982727, "yaw": -0.5584899187088013}, "local_position": {"x": null, "y": null, "z": null}, "status": {"flags": 135, "velocity_variance": 0.0, "pos_horiz_variance": 0.00854096282273531, "pos_vert_variance": 0.08354949951171875}}, "errors": []}
{"timestamp": "2026-01-25T13:43:36.219953Z", "telemetry": {"lat": 0.0, "lon": 0.0, "satellites": 0, "altitude_gps_m": 0.3999999761581421, "groundspeed_mps": 0.029809849336743355}, "flight": {"mode": "STABILIZE", "armed": false}, "ekf": {"attitude": {"roll": -0.0034700073301792145, "pitch": -0.011236565187573433, "yaw": -0.5584837198257446}, "local_position": {"x": null, "y": null, "z": null}, "status": {"flags": 135, "velocity_variance": 0.0, "pos_horiz_variance": 0.008854296058416367, "pos_vert_variance": 0.018499473109841347}}, "errors": []}
{"timestamp": "2026-01-25T13:43:37.219730Z", "telemetry": {"lat": 0.0, "lon": 0.0, "satellites": 0, "altitude_gps_m": 0.3999999761581421, "groundspeed_mps": 0.03314686939120293}, "flight": {"mode": "STABILIZE", "armed": false}, "ekf": {"attitude": {"roll": -0.0027268764097243547, "pitch": -0.010741814970970154, "yaw": -0.5556135773658752}, "local_position": {"x": null, "y": null, "z": null}, "status": {"flags": 135, "velocity_variance": 0.0, "pos_horiz_variance": 0.00865649152547121, "pos_vert_variance": 0.022187339141964912}}, "errors": []}
{"timestamp": "2026-01-25T13:43:38.219935Z", "telemetry": {"lat": 0.0, "lon": 0.0, "satellites": 0, "altitude_gps_m": 0.3999999761581421, "groundspeed_mps": 0.04006822779774666}, "flight": {"mode": "STABILIZE", "armed": false}, "ekf": {"attitude": {"roll": -0.0013600157108157873, "pitch": -0.006578672677278519, "yaw": -0.5230739712715149}, "local_position": {"x": null, "y": null, "z": null}, "status": {"flags": 135, "velocity_variance": 0.0, "pos_horiz_variance": 0.00851591769605875, "pos_vert_variance": 0.037758007645606995}}, "errors": []}
{"timestamp": "2026-01-25T13:43:39.219899Z", "telemetry": {"lat": 0.0, "lon": 0.0, "satellites": 0, "altitude_gps_m": 0.3999999761581421, "groundspeed_mps": 0.03718210756778717}, "flight": {"mode": "STABILIZE", "armed": false}, "ekf": {"attitude": {"roll": -0.0033468189649283886, "pitch": -0.009445691481232643, "yaw": -0.5457010269165039}, "local_position": {"x": null, "y": null, "z": null}, "status": {"flags": 135, "velocity_variance": 0.0, "pos_horiz_variance": 0.009154807776212692, "pos_vert_variance": 0.03608806058764458}}, "errors": []}
{"timestamp": "2026-01-25T13:43:40.219991Z", "telemetry": {"lat": 0.0, "lon": 0.0, "satellites": 0, "altitude_gps_m": 0.3999999761581421, "groundspeed_mps": 0.03624862805008888}, "flight": {"mode": "STABILIZE", "armed": false}, "ekf": {"attitude": {"roll": -0.0033458778634667397, "pitch": -0.00908699817955494, "yaw": -0.5472392439842224}, "local_position": {"x": null, "y": null, "z": null}, "status": {"flags": 135, "velocity_variance": 0.0, "pos_horiz_variance": 0.009040373377501965, "pos_vert_variance": 0.0009563014609739184}}, "errors": []}
{"timestamp": "2026-01-25T13:43:41.219960Z", "telemetry": {"lat": 0.0, "lon": 0.0, "satellites": 0, "altitude_gps_m": 0.3999999761581421, "groundspeed_mps": 0.03315531462430954}, "flight": {"mode": "STABILIZE", "armed": false}, "ekf": {"attitude": {"roll": -0.003384318668395281, "pitch": -0.00904168002307415, "yaw": -0.5485803484916687}, "local_position": {"x": null, "y": null, "z": null}, "status": {"flags": 135, "velocity_variance": 0.0, "pos_horiz_variance": 0.008607453666627407, "pos_vert_variance": 0.009933192282915115}}, "errors": []}
{"timestamp": "2026-01-25T13:43:42.220663Z", "telemetry": {"lat": 0.0, "lon": 0.0, "satellites": 0, "altitude_gps_m": 0.3999999761581421, "groundspeed_mps": 0.030563674867153168}, "flight": {"mode": "STABILIZE", "armed": false}, "ekf": {"attitude": {"roll": -0.003216383047401905, "pitch": -0.008925143629312515, "yaw": -0.5500888824462891}, "local_position": {"x": null, "y": null, "z": null}, "status": {"flags": 135, "velocity_variance": 0.0, "pos_horiz_variance": 0.008104805834591389, "pos_vert_variance": 0.0446908064186573}}, "errors": []}
{"timestamp": "2026-01-25T13:43:43.220183Z", "telemetry": {"lat": 0.0, "lon": 0.0, "satellites": 0, "altitude_gps_m": 0.3999999761581421, "groundspeed_mps": 0.02452508732676506}, "flight": {"mode": "STABILIZE", "armed": false}, "ekf": {"attitude": {"roll": -0.002969802590087056, "pitch": -0.009855883195996284, "yaw": -0.5518437027931213}, "local_position": {"x": null, "y": null, "z": null}, "status": {"flags": 135, "velocity_variance": 0.0, "pos_horiz_variance": 0.007813092321157455, "pos_vert_variance": 0.010984010063111782}}, "errors": []}
{"timestamp": "2026-01-25T13:43:44.220147Z", "telemetry": {"lat": 0.0, "lon": 0.0, "satellites": 0, "altitude_gps_m": 0.3999999761581421, "groundspeed_mps": 0.026844624429941177}, "flight": {"mode": "STABILIZE", "armed": false}, "ekf": {"attitude": {"roll": -0.0029465220868587494, "pitch": -0.009872006252408028, "yaw": -0.5540474057197571}, "local_position": {"x": null, "y": null, "z": null}, "status": {"flags": 135, "velocity_variance": 0.0, "pos_horiz_variance": 0.007162534631788731, "pos_vert_variance": 0.05751953646540642}}, "errors": []}
{"timestamp": "2026-01-25T13:43:45.220116Z", "telemetry": {"lat": 0.0, "lon": 0.0, "satellites": 0, "altitude_gps_m": 0.3999999761581421, "groundspeed_mps": 0.02717503346502781}, "flight": {"mode": "STABILIZE", "armed": false}, "ekf": {"attitude": {"roll": -0.0029820918571203947, "pitch": -0.01007586345076561, "yaw": -0.5553274750709534}, "local_position": {"x": null, "y": null, "z": null}, "status": {"flags": 135, "velocity_variance": 0.0, "pos_horiz_variance": 0.006860848981887102, "pos_vert_variance": 0.059622012078762054}}, "errors": []}
{"timestamp": "2026-01-25T13:43:46.220122Z", "telemetry": {"lat": 0.0, "lon": 0.0, "satellites": 0, "altitude_gps_m": 0.3999999761581421, "groundspeed_mps": 0.02678452432155609}, "flight": {"mode": "STABILIZE", "armed": false}, "ekf": {"attitude": {"roll": -0.003423246555030346, "pitch": -0.009164933115243912, "yaw": -0.5570525527000427}, "local_position": {"x": null, "y": null, "z": null}, "status": {"flags": 135, "velocity_variance": 0.0, "pos_horiz_variance": 0.00674808444455266, "pos_vert_variance": 0.04729878157377243}}, "errors": []}
{"timestamp": "2026-01-25T13:43:47.220657Z", "telemetry": {"lat": 0.0, "lon": 0.0, "satellites": 0, "altitude_gps_m": 0.3999999761581421, "groundspeed_mps": 0.03954586386680603}, "flight": {"mode": "STABILIZE", "armed": false}, "ekf": {"attitude": {"roll": -0.0033742496743798256, "pitch": -0.00947524607181549, "yaw": -0.5589140057563782}, "local_position": {"x": null, "y": null, "z": null}, "status": {"flags": 135, "velocity_variance": 0.0, "pos_horiz_variance": 0.007796467747539282, "pos_vert_variance": 0.009006405249238014}}, "errors": []}
{"timestamp": "2026-01-25T13:43:48.220496Z", "telemetry": {"lat": 0.0, "lon": 0.0, "satellites": 0, "altitude_gps_m": 0.3999999761581421, "groundspeed_mps": 0.04316938668489456}, "flight": {"mode": "STABILIZE", "armed": false}, "ekf": {"attitude": {"roll": -0.0034261466935276985, "pitch": -0.009589888155460358, "yaw": -0.5600648522377014}, "local_position": {"x": null, "y": null, "z": null}, "status": {"flags": 135, "velocity_variance": 0.0, "pos_horiz_variance": 0.00918558519333601, "pos_vert_variance": 0.04359028488397598}}, "errors": []}
{"timestamp": "2026-01-25T13:43:49.220263Z", "telemetry": {"lat": 0.0, "lon": 0.0, "satellites": 0, "altitude_gps_m": 0.3999999761581421, "groundspeed_mps": 0.04646328091621399}, "flight": {"mode": "STABILIZE", "armed": false}, "ekf": {"attitude": {"roll": -0.0032178242690861225, "pitch": -0.009667571634054184, "yaw": -0.5617323517799377}, "local_position": {"x": null, "y": null, "z": null}, "status": {"flags": 135, "velocity_variance": 0.0, "pos_horiz_variance": 0.01029295101761818, "pos_vert_variance": 0.003562353551387787}}, "errors": []}
{"timestamp": "2026-01-25T13:43:50.219872Z", "telemetry": {"lat": 0.0, "lon": 0.0, "satellites": 0, "altitude_gps_m": 0.3999999761581421, "groundspeed_mps": 0.04820093512535095}, "flight": {"mode": "STABILIZE", "armed": false}, "ekf": {"attitude": {"roll": -0.0031371666118502617, "pitch": -0.009770473465323448, "yaw": -0.563056230545044}, "local_position": {"x": null, "y": null, "z": null}, "status": {"flags": 135, "velocity_variance": 0.0, "pos_horiz_variance": 0.010927185416221619, "pos_vert_variance": 0.033493828028440475}}, "errors": []}
{"timestamp": "2026-01-25T13:43:51.221718Z", "telemetry": {"lat": 0.0, "lon": 0.0, "satellites": 0, "altitude_gps_m": 0.3999999761581421, "groundspeed_mps": 0.0493621863424778}, "flight": {"mode": "STABILIZE", "armed": false}, "ekf": {"attitude": {"roll": -0.0029287543147802353, "pitch": -0.00972956232726574, "yaw": -0.5644751787185669}, "local_position": {"x": null, "y": null, "z": null}, "status": {"flags": 135, "velocity_variance": 0.0, "pos_horiz_variance": 0.011307473294436932, "pos_vert_variance": 0.04236726462841034}}, "errors": []}
{"timestamp": "2026-01-25T13:43:52.220500Z", "telemetry": {"lat": 0.0, "lon": 0.0, "satellites": 0, "altitude_gps_m": 0.3999999761581421, "groundspeed_mps": 0.048277612775564194}, "flight": {"mode": "STABILIZE", "armed": false}, "ekf": {"attitude": {"roll": -0.0028560180217027664, "pitch": -0.00973309762775898, "yaw": -0.5658714771270752}, "local_position": {"x": null, "y": null, "z": null}, "status": {"flags": 135, "velocity_variance": 0.0, "pos_horiz_variance": 0.011610016226768494, "pos_vert_variance": 0.034059714525938034}}, "errors": []}
{"timestamp": "2026-01-25T13:43:53.220581Z", "telemetry": {"lat": 0.0, "lon": 0.0, "satellites": 0, "altitude_gps_m": 0.3999999761581421, "groundspeed_mps": 0.04839473217725754}, "flight": {"mode": "STABILIZE", "armed": false}, "ekf": {"attitude": {"roll": -0.0026617380790412426, "pitch": -0.009809285402297974, "yaw": -0.5675445199012756}, "local_position": {"x": null, "y": null, "z": null}, "status": {"flags": 135, "velocity_variance": 0.0, "pos_horiz_variance": 0.011781691573560238, "pos_vert_variance": 0.020226892083883286}}, "errors": ["PreArm: RC not found", "PreArm: Hardware safety switch", "PreArm: Compasses inconsistent"]}
{"timestamp": "2026-01-25T13:43:54.220047Z", "telemetry": {"lat": 0.0, "lon": 0.0, "satellites": 0, "altitude_gps_m": 0.3999999761581421, "groundspeed_mps": 0.04301070421934128}, "flight": {"mode": "STABILIZE", "armed": false}, "ekf": {"attitude": {"roll": -0.0026466078124940395, "pitch": -0.010283712297677994, "yaw": -0.5684618353843689}, "local_position": {"x": null, "y": null, "z": null}, "status": {"flags": 135, "velocity_variance": 0.0, "pos_horiz_variance": 0.012006550095975399, "pos_vert_variance": 0.05783037841320038}}, "errors": ["PreArm: RC not found", "PreArm: Hardware safety switch", "PreArm: Compasses inconsistent"]}
{"timestamp": "2026-01-25T13:43:55.220320Z", "telemetry": {"lat": 0.0, "lon": 0.0, "satellites": 0, "altitude_gps_m": 0.3999999761581421, "groundspeed_mps": 0.04653733968734741}, "flight": {"mode": "STABILIZE", "armed": false}, "ekf": {"attitude": {"roll": -0.0026866316329687834, "pitch": -0.01047641970217228, "yaw": -0.569848895072937}, "local_position": {"x": null, "y": null, "z": null}, "status": {"flags": 135, "velocity_variance": 0.0, "pos_horiz_variance": 0.011607762426137924, "pos_vert_variance": 0.03553006425499916}}, "errors": ["PreArm: RC not found", "PreArm: Hardware safety switch", "PreArm: Compasses inconsistent"]}
{"timestamp": "2026-01-25T13:43:56.220507Z", "telemetry": {"lat": 0.0, "lon": 0.0, "satellites": 0, "altitude_gps_m": 0.3999999761581421, "groundspeed_mps": 0.04653733968734741}, "flight": {"mode": "STABILIZE", "armed": false}, "ekf": {"attitude": {"roll": -0.0026866316329687834, "pitch": -0.01047641970217228, "yaw": -0.569848895072937}, "local_position": {"x": null, "y": null, "z": null}, "status": {"flags": 135, "velocity_variance": 0.0, "pos_horiz_variance": 0.011607762426137924, "pos_vert_variance": 0.03553006425499916}}, "errors": ["PreArm: RC not found", "PreArm: Hardware safety switch", "PreArm: Compasses inconsistent"]}
