{"timestamp": "2026-01-29T12:58:32.772373Z", "telemetry": {"lat": 13.3543325, "lon": 74.8647389, "satellites": 11, "altitude_gps_m": 35.90999984741211, "groundspeed_mps": 0.07704219222068787}, "flight": {"mode": "LOITER", "armed": false}, "ekf": {"attitude": {"roll": -0.025551998987793922, "pitch": -0.03218134492635727, "yaw": -1.934275507926941}, "local_position": {"x": -1.9364445209503174, "y": -0.5924448370933533, "z": 7.944680213928223}, "status": {"flags": 831, "velocity_variance": 0.04406700283288956, "pos_horiz_variance": 0.014748860150575638, "pos_vert_variance": 0.009255336597561836}}, "errors": []}
{"timestamp": "2026-01-29T12:58:33.812974Z", "telemetry": {"lat": 13.3543312, "lon": 74.864739, "satellites": 11, "altitude_gps_m": 35.89999771118164, "groundspeed_mps": 0.10054478049278259}, "flight": {"mode": "LOITER", "armed": false}, "ekf": {"attitude": {"roll": -0.025886008515954018, "pitch": -0.032653119415044785, "yaw": -1.9341500997543335}, "local_position": {"x": -2.0368590354919434, "y": -0.5735415816307068, "z": 7.951419830322266}, "status": {"flags": 831, "velocity_variance": 0.03357483074069023, "pos_horiz_variance": 0.01560828648507595, "pos_vert_variance": 0.0020875222980976105}}, "errors": []}
{"timestamp": "2026-01-29T12:58:34.853485Z", "telemetry": {"lat": 13.3543302, "lon": 74.8647404, "satellites": 11, "altitude_gps_m": 35.90999984741211, "groundspeed_mps": 0.11467158794403076}, "flight": {"mode": "LOITER", "armed": false}, "ekf": {"attitude": {"roll": -0.026130368933081627, "pitch": -0.03250672668218613, "yaw": -1.934057354927063}, "local_position": {"x": -2.136341094970703, "y": -0.5297237038612366, "z": 7.945496082305908}, "status": {"flags": 831, "velocity_variance": 0.07847145199775696, "pos_horiz_variance": 0.019975431263446808, "pos_vert_variance": 0.009975086897611618}}, "errors": []}
{"timestamp": "2026-01-29T12:58:35.853995Z", "telemetry": {"lat": 13.354329, "lon": 74.864743, "satellites": 11, "altitude_gps_m": 36.0099983215332, "groundspeed_mps": 0.12946158647537231}, "flight": {"mode": "LOITER", "armed": false}, "ekf": {"attitude": {"roll": -0.026368681341409683, "pitch": -0.03113868087530136, "yaw": -1.934172511100769}, "local_position": {"x": -2.301363945007324, "y": -0.1864110678434372, "z": 7.841238975524902}, "status": {"flags": 831, "velocity_variance": 0.09449758380651474, "pos_horiz_variance": 0.01688346080482006, "pos_vert_variance": 0.0026226630434393883}}, "errors": []}
{"timestamp": "2026-01-29T12:58:36.854692Z", "telemetry": {"lat": 13.3543284, "lon": 74.864744, "satellites": 11, "altitude_gps_m": 36.040000915527344, "groundspeed_mps": 0.12439777702093124}, "flight": {"mode": "LOITER", "armed": false}, "ekf": {"attitude": {"roll": -0.026017185300588608, "pitch": -0.03117477521300316, "yaw": -1.9345706701278687}, "local_position": {"x": -2.3664982318878174, "y": -0.1109948456287384, "z": 7.811962127685547}, "status": {"flags": 831, "velocity_variance": 0.028611181303858757, "pos_horiz_variance": 0.018558502197265625, "pos_vert_variance": 1.5440606148331426e-05}}, "errors": []}
{"timestamp": "2026-01-29T12:58:37.855109Z", "telemetry": {"lat": 13.3543276, "lon": 74.8647451, "satellites": 11, "altitude_gps_m": 36.06999969482422, "groundspeed_mps": 0.1255965232849121}, "flight": {"mode": "LOITER", "armed": false}, "ekf": {"attitude": {"roll": -0.025924116373062134, "pitch": -0.03181832656264305, "yaw": -1.9344998598098755}, "local_position": {"x": -2.4532506465911865, "y": -0.032885462045669556, "z": 7.785157203674316}, "status": {"flags": 831, "velocity_variance": 0.08180328458547592, "pos_horiz_variance": 0.019984977319836617, "pos_vert_variance": 0.0025712137576192617}}, "errors": []}
{"timestamp": "2026-01-29T12:58:38.855730Z", "telemetry": {"lat": 13.3543273, "lon": 74.8647463, "satellites": 11, "altitude_gps_m": 36.11000061035156, "groundspeed_mps": 0.10717014968395233}, "flight": {"mode": "LOITER", "armed": false}, "ekf": {"attitude": {"roll": -0.02548176795244217, "pitch": -0.031481094658374786, "yaw": -1.9344110488891602}, "local_position": {"x": -2.4780101776123047, "y": 0.06264302879571915, "z": 7.739872455596924}, "status": {"flags": 831, "velocity_variance": 0.029893362894654274, "pos_horiz_variance": 0.021935587748885155, "pos_vert_variance": 0.000791382510215044}}, "errors": []}
{"timestamp": "2026-01-29T12:58:39.856702Z", "telemetry": {"lat": 13.3543239, "lon": 74.8647538, "satellites": 11, "altitude_gps_m": 36.23999786376953, "groundspeed_mps": 0.17667321860790253}, "flight": {"mode": "LOITER", "armed": false}, "ekf": {"attitude": {"roll": -0.02593487873673439, "pitch": -0.031544215977191925, "yaw": -1.9343857765197754}, "local_position": {"x": -2.7118523120880127, "y": 0.5626405477523804, "z": 7.635618686676025}, "status": {"flags": 831, "velocity_variance": 0.07349516451358795, "pos_horiz_variance": 0.038867052644491196, "pos_vert_variance": 0.009428801946341991}}, "errors": []}
{"timestamp": "2026-01-29T12:58:40.856692Z", "telemetry": {"lat": 13.3543239, "lon": 74.864755, "satellites": 11, "altitude_gps_m": 36.30999755859375, "groundspeed_mps": 0.14037930965423584}, "flight": {"mode": "LOITER", "armed": false}, "ekf": {"attitude": {"roll": -0.02516000159084797, "pitch": -0.0318886898458004, "yaw": -1.9345118999481201}, "local_position": {"x": -2.767256498336792, "y": 0.7320185899734497, "z": 7.54840612411499}, "status": {"flags": 831, "velocity_variance": 0.04385192319750786, "pos_horiz_variance": 0.035383518785238266, "pos_vert_variance": 0.005275835283100605}}, "errors": []}
{"timestamp": "2026-01-29T12:58:41.848551Z", "telemetry": {"lat": 13.3543245, "lon": 74.8647551, "satellites": 11, "altitude_gps_m": 36.39999771118164, "groundspeed_mps": 0.0906897559762001}, "flight": {"mode": "LOITER", "armed": false}, "ekf": {"attitude": {"roll": -0.024083293974399567, "pitch": -0.03289102390408516, "yaw": -1.9346956014633179}, "local_position": {"x": -2.7994744777679443, "y": 0.8850705027580261, "z": 7.4667840003967285}, "status": {"flags": 831, "velocity_variance": 0.10855473577976227, "pos_horiz_variance": 0.026906443759799004, "pos_vert_variance": 0.0016636101063340902}}, "errors": []}
{"timestamp": "2026-01-29T12:58:42.840816Z", "telemetry": {"lat": 13.3543235, "lon": 74.864759, "satellites": 11, "altitude_gps_m": 36.46999740600586, "groundspeed_mps": 0.09788625687360764}, "flight": {"mode": "LOITER", "armed": false}, "ekf": {"attitude": {"roll": -0.023976773023605347, "pitch": -0.032380979508161545, "yaw": -1.9348490238189697}, "local_position": {"x": -2.8467516899108887, "y": 1.0726760625839233, "z": 7.403467178344727}, "status": {"flags": 831, "velocity_variance": 0.11402259021997452, "pos_horiz_variance": 0.03672400861978531, "pos_vert_variance": 0.0050809988752007484}}, "errors": []}
{"timestamp": "2026-01-29T12:58:43.832390Z", "telemetry": {"lat": 13.3543226, "lon": 74.8647613, "satellites": 11, "altitude_gps_m": 36.54999923706055, "groundspeed_mps": 0.09467388689517975}, "flight": {"mode": "LOITER", "armed": false}, "ekf": {"attitude": {"roll": -0.023590994998812675, "pitch": -0.03279133141040802, "yaw": -1.9348868131637573}, "local_position": {"x": -2.932551383972168, "y": 1.38706636428833, "z": 7.308230876922607}, "status": {"flags": 831, "velocity_variance": 0.07931069284677505, "pos_horiz_variance": 0.03539830818772316, "pos_vert_variance": 0.0031223681289702654}}, "errors": []}
{"timestamp": "2026-01-29T12:58:44.862215Z", "telemetry": {"lat": 13.3543209, "lon": 74.8647643, "satellites": 11, "altitude_gps_m": 36.71999740600586, "groundspeed_mps": 0.09007756412029266}, "flight": {"mode": "LOITER", "armed": false}, "ekf": {"attitude": {"roll": -0.023330632597208023, "pitch": -0.03279348462820053, "yaw": -1.934780478477478}, "local_position": {"x": -2.9912867546081543, "y": 1.578000783920288, "z": 7.193617343902588}, "status": {"flags": 831, "velocity_variance": 0.0680285319685936, "pos_horiz_variance": 0.04332684352993965, "pos_vert_variance": 0.04948903247714043}}, "errors": []}
{"timestamp": "2026-01-29T12:58:45.854576Z", "telemetry": {"lat": 13.3543209, "lon": 74.864765, "satellites": 11, "altitude_gps_m": 37.029998779296875, "groundspeed_mps": 0.05579696595668793}, "flight": {"mode": "LOITER", "armed": false}, "ekf": {"attitude": {"roll": -0.022531727328896523, "pitch": -0.03338541090488434, "yaw": -1.9348018169403076}, "local_position": {"x": -3.0560896396636963, "y": 1.824640154838562, "z": 6.90034294128418}, "status": {"flags": 831, "velocity_variance": 0.10772860050201416, "pos_horiz_variance": 0.035414986312389374, "pos_vert_variance": 0.05545925348997116}}, "errors": []}
{"timestamp": "2026-01-29T12:58:46.847696Z", "telemetry": {"lat": 13.3543208, "lon": 74.8647621, "satellites": 11, "altitude_gps_m": 37.43000030517578, "groundspeed_mps": 0.014640823006629944}, "flight": {"mode": "LOITER", "armed": false}, "ekf": {"attitude": {"roll": -0.022286714985966682, "pitch": -0.034322500228881836, "yaw": -1.9347399473190308}, "local_position": {"x": -3.035212278366089, "y": 1.8800272941589355, "z": 6.528872966766357}, "status": {"flags": 831, "velocity_variance": 0.03722117096185684, "pos_horiz_variance": 0.024533620104193687, "pos_vert_variance": 0.06932824105024338}}, "errors": []}
{"timestamp": "2026-01-29T12:58:47.841039Z", "telemetry": {"lat": 13.3543215, "lon": 74.8647598, "satellites": 11, "altitude_gps_m": 37.75, "groundspeed_mps": 0.04574161022901535}, "flight": {"mode": "LOITER", "armed": false}, "ekf": {"attitude": {"roll": -0.02167605608701706, "pitch": -0.03445260971784592, "yaw": -1.9347193241119385}, "local_position": {"x": -3.0642220973968506, "y": 1.939145803451538, "z": 6.102148532867432}, "status": {"flags": 831, "velocity_variance": 0.06569080054759979, "pos_horiz_variance": 0.01126907579600811, "pos_vert_variance": 0.05153556913137436}}, "errors": []}
{"timestamp": "2026-01-29T12:58:48.836958Z", "telemetry": {"lat": 13.3543221, "lon": 74.864759, "satellites": 11, "altitude_gps_m": 37.93000030517578, "groundspeed_mps": 0.06984221190214157}, "flight": {"mode": "LOITER", "armed": false}, "ekf": {"attitude": {"roll": -0.022066671401262283, "pitch": -0.03465799242258072, "yaw": -1.9345890283584595}, "local_position": {"x": -3.098421335220337, "y": 1.9128971099853516, "z": 5.958682060241699}, "status": {"flags": 831, "velocity_variance": 0.03609278425574303, "pos_horiz_variance": 0.008464785292744637, "pos_vert_variance": 0.030865458771586418}}, "errors": []}
{"timestamp": "2026-01-29T12:58:49.831897Z", "telemetry": {"lat": 13.354321, "lon": 74.8647594, "satellites": 10, "altitude_gps_m": 38.029998779296875, "groundspeed_mps": 0.0739993155002594}, "flight": {"mode": "LOITER", "armed": false}, "ekf": {"attitude": {"roll": -0.023047523573040962, "pitch": -0.03437814489006996, "yaw": -1.9344749450683594}, "local_position": {"x": -3.1988065242767334, "y": 1.917291283607483, "z": 5.848458290100098}, "status": {"flags": 831, "velocity_variance": 0.08877123892307281, "pos_horiz_variance": 0.008650409057736397, "pos_vert_variance": 0.01842506043612957}}, "errors": []}
{"timestamp": "2026-01-29T12:58:50.842880Z", "telemetry": {"lat": 13.3543203, "lon": 74.8647599, "satellites": 11, "altitude_gps_m": 38.11000061035156, "groundspeed_mps": 0.07861898839473724}, "flight": {"mode": "LOITER", "armed": false}, "ekf": {"attitude": {"roll": -0.023117944598197937, "pitch": -0.03405134379863739, "yaw": -1.9342855215072632}, "local_position": {"x": -3.261101484298706, "y": 1.9034394025802612, "z": 5.741879463195801}, "status": {"flags": 831, "velocity_variance": 0.08735290169715881, "pos_horiz_variance": 0.009443899616599083, "pos_vert_variance": 0.0034964457154273987}}, "errors": []}
{"timestamp": "2026-01-29T12:58:51.841035Z", "telemetry": {"lat": 13.3543199, "lon": 74.8647601, "satellites": 11, "altitude_gps_m": 38.11000061035156, "groundspeed_mps": 0.10233613103628159}, "flight": {"mode": "LOITER", "armed": false}, "ekf": {"attitude": {"roll": -0.02323281392455101, "pitch": -0.03422827646136284, "yaw": -1.934372067451477}, "local_position": {"x": -3.2986581325531006, "y": 1.8699496984481812, "z": 5.745312213897705}, "status": {"flags": 831, "velocity_variance": 0.058015648275613785, "pos_horiz_variance": 0.010021484456956387, "pos_vert_variance": 0.0016913663130253553}}, "errors": []}
{"timestamp": "2026-01-29T12:58:52.834570Z", "telemetry": {"lat": 13.35432, "lon": 74.8647599, "satellites": 10, "altitude_gps_m": 38.13999938964844, "groundspeed_mps": 0.10418549925088882}, "flight": {"mode": "LOITER", "armed": false}, "ekf": {"attitude": {"roll": -0.02357814833521843, "pitch": -0.0338134840130806, "yaw": -1.93442702293396}, "local_position": {"x": -3.3626246452331543, "y": 1.834191083908081, "z": 5.710107326507568}, "status": {"flags": 831, "velocity_variance": 0.04844498634338379, "pos_horiz_variance": 0.006226834841072559, "pos_vert_variance": 0.003663720330223441}}, "errors": []}
{"timestamp": "2026-01-29T12:58:53.847744Z", "telemetry": {"lat": 13.35432, "lon": 74.8647607, "satellites": 10, "altitude_gps_m": 38.20000076293945, "groundspeed_mps": 0.07212979346513748}, "flight": {"mode": "LOITER", "armed": false}, "ekf": {"attitude": {"roll": -0.023675961419939995, "pitch": -0.03284166008234024, "yaw": -1.9342578649520874}, "local_position": {"x": -3.3697619438171387, "y": 1.876939058303833, "z": 5.653594017028809}, "status": {"flags": 831, "velocity_variance": 0.05951467901468277, "pos_horiz_variance": 0.007790563628077507, "pos_vert_variance": 0.001220707781612873}}, "errors": []}
{"timestamp": "2026-01-29T12:58:54.842910Z", "telemetry": {"lat": 13.35432, "lon": 74.8647615, "satellites": 10, "altitude_gps_m": 38.290000915527344, "groundspeed_mps": 0.06695562601089478}, "flight": {"mode": "LOITER", "armed": false}, "ekf": {"attitude": {"roll": -0.024055682122707367, "pitch": -0.032728224992752075, "yaw": -1.934224247932434}, "local_position": {"x": -3.4070851802825928, "y": 1.899803638458252, "z": 5.567716598510742}, "status": {"flags": 831, "velocity_variance": 0.03483416140079498, "pos_horiz_variance": 0.011805527843534946, "pos_vert_variance": 0.0016202739207074046}}, "errors": []}
{"timestamp": "2026-01-29T12:58:55.818922Z", "telemetry": {"lat": 13.3543204, "lon": 74.8647622, "satellites": 11, "altitude_gps_m": 38.30999755859375, "groundspeed_mps": 0.05808763951063156}, "flight": {"mode": "LOITER", "armed": false}, "ekf": {"attitude": {"roll": -0.02409297227859497, "pitch": -0.03216670826077461, "yaw": -1.9342273473739624}, "local_position": {"x": -3.4181928634643555, "y": 1.9294198751449585, "z": 5.545577049255371}, "status": {"flags": 831, "velocity_variance": 0.056652262806892395, "pos_horiz_variance": 0.015456883236765862, "pos_vert_variance": 0.009524371474981308}}, "errors": []}
{"timestamp": "2026-01-29T12:58:56.854861Z", "telemetry": {"lat": 13.3543214, "lon": 74.8647626, "satellites": 11, "altitude_gps_m": 38.349998474121094, "groundspeed_mps": 0.049530379474163055}, "flight": {"mode": "LOITER", "armed": false}, "ekf": {"attitude": {"roll": -0.023588482290506363, "pitch": -0.03191880136728287, "yaw": -1.9341278076171875}, "local_position": {"x": -3.344151258468628, "y": 1.9595195055007935, "z": 5.505331993103027}, "status": {"flags": 831, "velocity_variance": 0.016177210956811905, "pos_horiz_variance": 0.017147187143564224, "pos_vert_variance": 0.009724133647978306}}, "errors": []}
{"timestamp": "2026-01-29T12:58:57.850792Z", "telemetry": {"lat": 13.3543219, "lon": 74.8647636, "satellites": 10, "altitude_gps_m": 38.36000061035156, "groundspeed_mps": 0.02631474658846855}, "flight": {"mode": "LOITER", "armed": false}, "ekf": {"attitude": {"roll": -0.023831665515899658, "pitch": -0.03160262480378151, "yaw": -1.934186577796936}, "local_position": {"x": -3.324875831604004, "y": 2.036811113357544, "z": 5.4922661781311035}, "status": {"flags": 831, "velocity_variance": 0.0518832691013813, "pos_horiz_variance": 0.021367616951465607, "pos_vert_variance": 0.004969319328665733}}, "errors": []}
{"timestamp": "2026-01-29T12:58:58.847359Z", "telemetry": {"lat": 13.3543224, "lon": 74.8647641, "satellites": 11, "altitude_gps_m": 38.40999984741211, "groundspeed_mps": 0.016623694449663162}, "flight": {"mode": "LOITER", "armed": true}, "ekf": {"attitude": {"roll": -0.023977000266313553, "pitch": -0.031476572155952454, "yaw": -1.9339194297790527}, "local_position": {"x": -3.294468879699707, "y": 2.104196548461914, "z": 5.445555210113525}, "status": {"flags": 831, "velocity_variance": 0.04502110183238983, "pos_horiz_variance": 0.02065814658999443, "pos_vert_variance": 0.0024937656708061695}}, "errors": []}
{"timestamp": "2026-01-29T12:58:59.844205Z", "telemetry": {"lat": 13.3543226, "lon": 74.8647641, "satellites": 10, "altitude_gps_m": 38.439998626708984, "groundspeed_mps": 0.02117323875427246}, "flight": {"mode": "LOITER", "armed": true}, "ekf": {"attitude": {"roll": -0.024243969470262527, "pitch": -0.031776558607816696, "yaw": -1.9334900379180908}, "local_position": {"x": -3.276794910430908, "y": 2.1413512229919434, "z": 5.410329341888428}, "status": {"flags": 831, "velocity_variance": 0.053787484765052795, "pos_horiz_variance": 0.019199980422854424, "pos_vert_variance": 0.005496554542332888}}, "errors": []}
{"timestamp": "2026-01-29T12:59:00.843085Z", "telemetry": {"lat": 13.3543229, "lon": 74.8647641, "satellites": 10, "altitude_gps_m": 38.52000045776367, "groundspeed_mps": 0.019798370078206062}, "flight": {"mode": "LOITER", "armed": true}, "ekf": {"attitude": {"roll": -0.024530572816729546, "pitch": -0.031858064234256744, "yaw": -1.9329960346221924}, "local_position": {"x": -3.267637252807617, "y": 2.188142776489258, "z": 5.336936950683594}, "status": {"flags": 831, "velocity_variance": 0.026426490396261215, "pos_horiz_variance": 0.01757105626165867, "pos_vert_variance": 0.01086236722767353}}, "errors": []}
{"timestamp": "2026-01-29T12:59:01.841158Z", "telemetry": {"lat": 13.3543238, "lon": 74.8647641, "satellites": 10, "altitude_gps_m": 38.61000061035156, "groundspeed_mps": 0.017335252836346626}, "flight": {"mode": "LOITER", "armed": true}, "ekf": {"attitude": {"roll": -0.024349752813577652, "pitch": -0.03186646103858948, "yaw": -1.9328219890594482}, "local_position": {"x": -3.213656425476074, "y": 2.234727621078491, "z": 5.24167013168335}, "status": {"flags": 831, "velocity_variance": 0.011190423741936684, "pos_horiz_variance": 0.018272671848535538, "pos_vert_variance": 0.01231670193374157}}, "errors": []}
{"timestamp": "2026-01-29T12:59:02.837170Z", "telemetry": {"lat": 13.3543243, "lon": 74.8647636, "satellites": 10, "altitude_gps_m": 38.689998626708984, "groundspeed_mps": 0.02379668690264225}, "flight": {"mode": "LOITER", "armed": true}, "ekf": {"attitude": {"roll": -0.024401627480983734, "pitch": -0.03221108019351959, "yaw": -1.933043122291565}, "local_position": {"x": -3.170625686645508, "y": 2.2529842853546143, "z": 5.166012763977051}, "status": {"flags": 831, "velocity_variance": 0.030954359099268913, "pos_horiz_variance": 0.016999289393424988, "pos_vert_variance": 0.010421558283269405}}, "errors": []}
{"timestamp": "2026-01-29T12:59:03.834190Z", "telemetry": {"lat": 13.3543249, "lon": 74.8647632, "satellites": 10, "altitude_gps_m": 38.73999786376953, "groundspeed_mps": 0.024008525535464287}, "flight": {"mode": "LOITER", "armed": true}, "ekf": {"attitude": {"roll": -0.02434930019080639, "pitch": -0.032109204679727554, "yaw": -1.9328219890594482}, "local_position": {"x": -3.1298956871032715, "y": 2.2661969661712646, "z": 5.127148151397705}, "status": {"flags": 831, "velocity_variance": 0.04417826980352402, "pos_horiz_variance": 0.019516726955771446, "pos_vert_variance": 0.009517742320895195}}, "errors": []}
{"timestamp": "2026-01-29T12:59:04.833077Z", "telemetry": {"lat": 13.3543263, "lon": 74.8647627, "satellites": 11, "altitude_gps_m": 38.790000915527344, "groundspeed_mps": 0.02946951799094677}, "flight": {"mode": "LOITER", "armed": true}, "ekf": {"attitude": {"roll": -0.02393423765897751, "pitch": -0.03218752518296242, "yaw": -1.9328538179397583}, "local_position": {"x": -3.018113136291504, "y": 2.261359691619873, "z": 5.067185878753662}, "status": {"flags": 831, "velocity_variance": 0.026747634634375572, "pos_horiz_variance": 0.02371010184288025, "pos_vert_variance": 0.008729450404644012}}, "errors": []}
{"timestamp": "2026-01-29T12:59:05.829696Z", "telemetry": {"lat": 13.3543273, "lon": 74.8647626, "satellites": 11, "altitude_gps_m": 38.779998779296875, "groundspeed_mps": 0.03196864575147629}, "flight": {"mode": "LOITER", "armed": true}, "ekf": {"attitude": {"roll": -0.024284495040774345, "pitch": -0.03187930956482887, "yaw": -1.9325748682022095}, "local_position": {"x": -2.912269115447998, "y": 2.2727794647216797, "z": 5.079046726226807}, "status": {"flags": 831, "velocity_variance": 0.0462917722761631, "pos_horiz_variance": 0.0248740054666996, "pos_vert_variance": 0.005026929546147585}}, "errors": []}
{"timestamp": "2026-01-29T12:59:06.864898Z", "telemetry": {"lat": 13.354328, "lon": 74.8647622, "satellites": 11, "altitude_gps_m": 38.73999786376953, "groundspeed_mps": 0.028895363211631775}, "flight": {"mode": "LOITER", "armed": true}, "ekf": {"attitude": {"roll": -0.024393649771809578, "pitch": -0.03227270022034645, "yaw": -1.9326804876327515}, "local_position": {"x": -2.852555990219116, "y": 2.2571918964385986, "z": 5.111382961273193}, "status": {"flags": 831, "velocity_variance": 0.04571591690182686, "pos_horiz_variance": 0.027005277574062347, "pos_vert_variance": 0.004934715572744608}}, "errors": []}
{"timestamp": "2026-01-29T12:59:07.862463Z", "telemetry": {"lat": 13.3543291, "lon": 74.8647616, "satellites": 11, "altitude_gps_m": 38.73999786376953, "groundspeed_mps": 0.05796651914715767}, "flight": {"mode": "LOITER", "armed": true}, "ekf": {"attitude": {"roll": -0.024276984855532646, "pitch": -0.032658278942108154, "yaw": -1.9323716163635254}, "local_position": {"x": -2.7557291984558105, "y": 2.1797776222229004, "z": 5.119462966918945}, "status": {"flags": 831, "velocity_variance": 0.02337929978966713, "pos_horiz_variance": 0.029378799721598625, "pos_vert_variance": 0.0005679984460584819}}, "errors": []}
{"timestamp": "2026-01-29T12:59:08.860751Z", "telemetry": {"lat": 13.3543297, "lon": 74.8647613, "satellites": 10, "altitude_gps_m": 38.70000076293945, "groundspeed_mps": 0.06452128291130066}, "flight": {"mode": "LOITER", "armed": true}, "ekf": {"attitude": {"roll": -0.024716587737202644, "pitch": -0.03273055702447891, "yaw": -1.9323028326034546}, "local_position": {"x": -2.6881587505340576, "y": 2.1412012577056885, "z": 5.146017551422119}, "status": {"flags": 831, "velocity_variance": 0.033472444862127304, "pos_horiz_variance": 0.029614649713039398, "pos_vert_variance": 0.002219354035332799}}, "errors": []}
{"timestamp": "2026-01-29T12:59:09.858591Z", "telemetry": {"lat": 13.3543306, "lon": 74.8647607, "satellites": 10, "altitude_gps_m": 38.64999771118164, "groundspeed_mps": 0.07523000240325928}, "flight": {"mode": "LOITER", "armed": true}, "ekf": {"attitude": {"roll": -0.024712705984711647, "pitch": -0.033126525580883026, "yaw": -1.9322130680084229}, "local_position": {"x": -2.587294101715088, "y": 2.071500301361084, "z": 5.205663681030273}, "status": {"flags": 831, "velocity_variance": 0.05998940020799637, "pos_horiz_variance": 0.02823382429778576, "pos_vert_variance": 0.012469186447560787}}, "errors": []}
{"timestamp": "2026-01-29T12:59:10.856405Z", "telemetry": {"lat": 13.3543313, "lon": 74.8647606, "satellites": 10, "altitude_gps_m": 38.61000061035156, "groundspeed_mps": 0.08460774272680283}, "flight": {"mode": "LOITER", "armed": true}, "ekf": {"attitude": {"roll": -0.024647042155265808, "pitch": -0.03248176723718643, "yaw": -1.9323843717575073}, "local_position": {"x": -2.479825735092163, "y": 2.003983736038208, "z": 5.240236282348633}, "status": {"flags": 831, "velocity_variance": 0.05724593624472618, "pos_horiz_variance": 0.026058224961161613, "pos_vert_variance": 0.024336742237210274}}, "errors": []}
{"timestamp": "2026-01-29T12:59:11.854653Z", "telemetry": {"lat": 13.3543317, "lon": 74.8647605, "satellites": 10, "altitude_gps_m": 38.64999771118164, "groundspeed_mps": 0.08513971418142319}, "flight": {"mode": "LOITER", "armed": true}, "ekf": {"attitude": {"roll": -0.02463286742568016, "pitch": -0.03290791064500809, "yaw": -1.932928204536438}, "local_position": {"x": -2.3844923973083496, "y": 1.9658687114715576, "z": 5.214517116546631}, "status": {"flags": 831, "velocity_variance": 0.04895991459488869, "pos_horiz_variance": 0.02291070483624935, "pos_vert_variance": 0.025968825444579124}}, "errors": []}
{"timestamp": "2026-01-29T12:59:12.852703Z", "telemetry": {"lat": 13.354332, "lon": 74.8647609, "satellites": 10, "altitude_gps_m": 38.66999816894531, "groundspeed_mps": 0.0780106782913208}, "flight": {"mode": "LOITER", "armed": true}, "ekf": {"attitude": {"roll": -0.024726714938879013, "pitch": -0.03234587609767914, "yaw": -1.9323105812072754}, "local_position": {"x": -2.3101859092712402, "y": 1.9502304792404175, "z": 5.182225704193115}, "status": {"flags": 831, "velocity_variance": 0.0208341833204031, "pos_horiz_variance": 0.01951478235423565, "pos_vert_variance": 0.02271752804517746}}, "errors": []}
{"timestamp": "2026-01-29T12:59:13.851146Z", "telemetry": {"lat": 13.3543322, "lon": 74.8647609, "satellites": 9, "altitude_gps_m": 38.709999084472656, "groundspeed_mps": 0.07823711633682251}, "flight": {"mode": "LOITER", "armed": true}, "ekf": {"attitude": {"roll": -0.025366395711898804, "pitch": -0.03189177066087723, "yaw": -1.932534098625183}, "local_position": {"x": -2.246441125869751, "y": 1.935545563697815, "z": 5.146717071533203}, "status": {"flags": 831, "velocity_variance": 0.02153659611940384, "pos_horiz_variance": 0.015863606706261635, "pos_vert_variance": 0.024098072201013565}}, "errors": []}
{"timestamp": "2026-01-29T12:59:14.849578Z", "telemetry": {"lat": 13.3543323, "lon": 74.8647614, "satellites": 9, "altitude_gps_m": 38.779998779296875, "groundspeed_mps": 0.012112144380807877}, "flight": {"mode": "LOITER", "armed": true}, "ekf": {"attitude": {"roll": -0.02168288268148899, "pitch": -0.015741949900984764, "yaw": -1.926235556602478}, "local_position": {"x": -2.2107512950897217, "y": 1.9656246900558472, "z": 5.095714569091797}, "status": {"flags": 831, "velocity_variance": 0.03145112842321396, "pos_horiz_variance": 0.015109888277947903, "pos_vert_variance": 0.026083186268806458}}, "errors": []}
{"timestamp": "2026-01-29T12:59:15.832297Z", "telemetry": {"lat": 13.3543329, "lon": 74.8647626, "satellites": 10, "altitude_gps_m": 39.11000061035156, "groundspeed_mps": 0.29715943336486816}, "flight": {"mode": "LOITER", "armed": true}, "ekf": {"attitude": {"roll": -0.06503220647573471, "pitch": -0.03180418908596039, "yaw": -0.9981240034103394}, "local_position": {"x": -2.1427786350250244, "y": 2.0690014362335205, "z": 4.881100654602051}, "status": {"flags": 831, "velocity_variance": 0.09749322384595871, "pos_horiz_variance": 0.016634780913591385, "pos_vert_variance": 0.0287204347550869}}, "errors": []}
{"timestamp": "2026-01-29T12:59:16.846623Z", "telemetry": {"lat": 13.3543326, "lon": 74.8647649, "satellites": 11, "altitude_gps_m": 39.30999755859375, "groundspeed_mps": 0.3471014201641083}, "flight": {"mode": "LOITER", "armed": true}, "ekf": {"attitude": {"roll": -0.06636504083871841, "pitch": -0.012191465124487877, "yaw": 0.11460261791944504}, "local_position": {"x": -2.1533098220825195, "y": 2.332202434539795, "z": 4.542509078979492}, "status": {"flags": 831, "velocity_variance": 0.0099322609603405, "pos_horiz_variance": 0.008735490962862968, "pos_vert_variance": 0.02855069749057293}}, "errors": []}
{"timestamp": "2026-01-29T12:59:17.864989Z", "telemetry": {"lat": 13.3543291, "lon": 74.8647622, "satellites": 11, "altitude_gps_m": 39.529998779296875, "groundspeed_mps": 0.29919204115867615}, "flight": {"mode": "LOITER", "armed": true}, "ekf": {"attitude": {"roll": -0.028403019532561302, "pitch": -0.06039339303970337, "yaw": 0.776755154132843}, "local_position": {"x": -2.3800458908081055, "y": 2.026266098022461, "z": 4.3866400718688965}, "status": {"flags": 831, "velocity_variance": 0.028761060908436775, "pos_horiz_variance": 0.006030046381056309, "pos_vert_variance": 0.019163234159350395}}, "errors": []}
{"timestamp": "2026-01-29T12:59:18.863702Z", "telemetry": {"lat": 13.3543274, "lon": 74.8647595, "satellites": 11, "altitude_gps_m": 39.65999984741211, "groundspeed_mps": 0.20705746114253998}, "flight": {"mode": "LOITER", "armed": true}, "ekf": {"attitude": {"roll": -0.03519446775317192, "pitch": -0.047575101256370544, "yaw": 1.2810072898864746}, "local_position": {"x": -2.426692247390747, "y": 1.8568644523620605, "z": 4.215033531188965}, "status": {"flags": 831, "velocity_variance": 0.07490888237953186, "pos_horiz_variance": 0.013095508329570293, "pos_vert_variance": 0.011334724724292755}}, "errors": []}
{"timestamp": "2026-01-29T12:59:19.862726Z", "telemetry": {"lat": 13.3543275, "lon": 74.8647585, "satellites": 11, "altitude_gps_m": 39.73999786376953, "groundspeed_mps": 0.23451925814151764}, "flight": {"mode": "LOITER", "armed": true}, "ekf": {"attitude": {"roll": -0.029451442882418633, "pitch": -0.028650078922510147, "yaw": 1.8914238214492798}, "local_position": {"x": -2.3536763191223145, "y": 1.7778921127319336, "z": 4.1157097816467285}, "status": {"flags": 831, "velocity_variance": 0.024950753897428513, "pos_horiz_variance": 0.01501617394387722, "pos_vert_variance": 0.0020192000083625317}}, "errors": []}
{"timestamp": "2026-01-29T12:59:20.861184Z", "telemetry": {"lat": 13.3543283, "lon": 74.8647576, "satellites": 11, "altitude_gps_m": 39.959999084472656, "groundspeed_mps": 0.24102498590946198}, "flight": {"mode": "LOITER", "armed": true}, "ekf": {"attitude": {"roll": -0.02474922500550747, "pitch": -0.03233674168586731, "yaw": 2.4678330421447754}, "local_position": {"x": -2.295950174331665, "y": 1.7706984281539917, "z": 3.9040334224700928}, "status": {"flags": 831, "velocity_variance": 0.0620850995182991, "pos_horiz_variance": 0.016643354669213295, "pos_vert_variance": 0.007180376909673214}}, "errors": []}
{"timestamp": "2026-01-29T12:59:21.860029Z", "telemetry": {"lat": 13.3543298, "lon": 74.8647577, "satellites": 10, "altitude_gps_m": 39.97999954223633, "groundspeed_mps": 0.19560977816581726}, "flight": {"mode": "LOITER", "armed": true}, "ekf": {"attitude": {"roll": -0.02081233635544777, "pitch": -0.04309399053454399, "yaw": 2.492863416671753}, "local_position": {"x": -2.189291477203369, "y": 1.7967925071716309, "z": 3.8711445331573486}, "status": {"flags": 831, "velocity_variance": 0.04290572926402092, "pos_horiz_variance": 0.012663586996495724, "pos_vert_variance": 0.009878063574433327}}, "errors": []}
{"timestamp": "2026-01-29T12:59:22.859077Z", "telemetry": {"lat": 13.3543308, "lon": 74.8647584, "satellites": 10, "altitude_gps_m": 40.09000015258789, "groundspeed_mps": 0.1367693394422531}, "flight": {"mode": "LOITER", "armed": true}, "ekf": {"attitude": {"roll": -0.013328415341675282, "pitch": -0.03435268998146057, "yaw": 2.7717301845550537}, "local_position": {"x": -2.135578155517578, "y": 1.8992321491241455, "z": 3.7687652111053467}, "status": {"flags": 831, "velocity_variance": 0.042178403586149216, "pos_horiz_variance": 0.014269920997321606, "pos_vert_variance": 0.013861658051609993}}, "errors": []}
{"timestamp": "2026-01-29T12:59:23.857926Z", "telemetry": {"lat": 13.3543321, "lon": 74.864758, "satellites": 10, "altitude_gps_m": 40.13999938964844, "groundspeed_mps": 0.0741196870803833}, "flight": {"mode": "LOITER", "armed": true}, "ekf": {"attitude": {"roll": -0.01355130597949028, "pitch": -0.04120560735464096, "yaw": 2.4651050567626953}, "local_position": {"x": -2.1110222339630127, "y": 1.9144130945205688, "z": 3.7115256786346436}, "status": {"flags": 831, "velocity_variance": 0.036920543760061264, "pos_horiz_variance": 0.016135798767209053, "pos_vert_variance": 0.017962489277124405}}, "errors": []}
{"timestamp": "2026-01-29T12:59:24.856606Z", "telemetry": {"lat": 13.354332, "lon": 74.8647581, "satellites": 11, "altitude_gps_m": 40.20000076293945, "groundspeed_mps": 0.07910329103469849}, "flight": {"mode": "LOITER", "armed": true}, "ekf": {"attitude": {"roll": -0.013246857561171055, "pitch": -0.03847348690032959, "yaw": 1.7790096998214722}, "local_position": {"x": -2.145968437194824, "y": 1.8989307880401611, "z": 3.6498780250549316}, "status": {"flags": 831, "velocity_variance": 0.033937472850084305, "pos_horiz_variance": 0.01532779261469841, "pos_vert_variance": 0.01711922511458397}}, "errors": []}
{"timestamp": "2026-01-29T12:59:25.855631Z", "telemetry": {"lat": 13.3543313, "lon": 74.8647574, "satellites": 11, "altitude_gps_m": 40.209999084472656, "groundspeed_mps": 0.14029493927955627}, "flight": {"mode": "LOITER", "armed": true}, "ekf": {"attitude": {"roll": 0.009185632690787315, "pitch": -0.03822082653641701, "yaw": 1.047585129737854}, "local_position": {"x": -2.2017786502838135, "y": 1.8324072360992432, "z": 3.6409413814544678}, "status": {"flags": 831, "velocity_variance": 0.03908895328640938, "pos_horiz_variance": 0.016183938831090927, "pos_vert_variance": 0.024528969079256058}}, "errors": []}
{"timestamp": "2026-01-29T12:59:26.837105Z", "telemetry": {"lat": 13.3543293, "lon": 74.8647575, "satellites": 11, "altitude_gps_m": 40.209999084472656, "groundspeed_mps": 0.19696703553199768}, "flight": {"mode": "LOITER", "armed": true}, "ekf": {"attitude": {"roll": -0.029568800702691078, "pitch": -0.037311360239982605, "yaw": 0.45215100049972534}, "local_position": {"x": -2.3455262184143066, "y": 1.9158923625946045, "z": 3.6419191360473633}, "status": {"flags": 831, "velocity_variance": 0.019367491826415062, "pos_horiz_variance": 0.019604016095399857, "pos_vert_variance": 0.013995355926454067}}, "errors": []}
{"timestamp": "2026-01-29T12:59:27.836919Z", "telemetry": {"lat": 13.3543293, "lon": 74.8647582, "satellites": 11, "altitude_gps_m": 40.209999084472656, "groundspeed_mps": 0.0873991847038269}, "flight": {"mode": "LOITER", "armed": true}, "ekf": {"attitude": {"roll": -0.011129508726298809, "pitch": -0.025435395538806915, "yaw": 0.3982241153717041}, "local_position": {"x": -2.331339120864868, "y": 1.9821971654891968, "z": 3.648658037185669}, "status": {"flags": 831, "velocity_variance": 0.01801784709095955, "pos_horiz_variance": 0.02076171524822712, "pos_vert_variance": 0.01913869008421898}}, "errors": []}
{"timestamp": "2026-01-29T12:59:28.834926Z", "telemetry": {"lat": 13.3543291, "lon": 74.8647576, "satellites": 11, "altitude_gps_m": 40.27000045776367, "groundspeed_mps": 0.44420546293258667}, "flight": {"mode": "LOITER", "armed": true}, "ekf": {"attitude": {"roll": -0.01511914748698473, "pitch": -0.1033196896314621, "yaw": 0.27274706959724426}, "local_position": {"x": -2.1999778747558594, "y": 1.9820826053619385, "z": 3.5850579738616943}, "status": {"flags": 831, "velocity_variance": 0.042298849672079086, "pos_horiz_variance": 0.026831774041056633, "pos_vert_variance": 0.016498833894729614}}, "errors": []}
{"timestamp": "2026-01-29T12:59:29.835631Z", "telemetry": {"lat": 13.354334, "lon": 74.8647586, "satellites": 11, "altitude_gps_m": 40.36000061035156, "groundspeed_mps": 0.8337387442588806}, "flight": {"mode": "LOITER", "armed": true}, "ekf": {"attitude": {"roll": -0.021851690486073494, "pitch": -0.01918712817132473, "yaw": 0.041921406984329224}, "local_position": {"x": -1.5587983131408691, "y": 2.1262338161468506, "z": 3.4934825897216797}, "status": {"flags": 831, "velocity_variance": 0.03696756437420845, "pos_horiz_variance": 0.025996632874011993, "pos_vert_variance": 0.02240426279604435}}, "errors": []}
{"timestamp": "2026-01-29T12:59:30.833510Z", "telemetry": {"lat": 13.3543403, "lon": 74.8647606, "satellites": 11, "altitude_gps_m": 40.39999771118164, "groundspeed_mps": 0.41334956884384155}, "flight": {"mode": "LOITER", "armed": true}, "ekf": {"attitude": {"roll": -0.025004930794239044, "pitch": 0.020007025450468063, "yaw": 0.08937167376279831}, "local_position": {"x": -0.9167412519454956, "y": 2.288151741027832, "z": 3.433431386947632}, "status": {"flags": 831, "velocity_variance": 0.06202958524227142, "pos_horiz_variance": 0.021815797314047813, "pos_vert_variance": 0.02231772616505623}}, "errors": []}
{"timestamp": "2026-01-29T12:59:31.834295Z", "telemetry": {"lat": 13.3543442, "lon": 74.8647619, "satellites": 11, "altitude_gps_m": 40.15999984741211, "groundspeed_mps": 0.17230556905269623}, "flight": {"mode": "LOITER", "armed": true}, "ekf": {"attitude": {"roll": -0.017401166260242462, "pitch": -0.01063007116317749, "yaw": 0.08474867790937424}, "local_position": {"x": -0.6241267919540405, "y": 2.370431900024414, "z": 3.6997318267822266}, "status": {"flags": 831, "velocity_variance": 0.07687776535749435, "pos_horiz_variance": 0.019133618101477623, "pos_vert_variance": 0.023378802463412285}}, "errors": []}
{"timestamp": "2026-01-29T12:59:32.831597Z", "telemetry": {"lat": 13.3543459, "lon": 74.8647632, "satellites": 11, "altitude_gps_m": 40.09000015258789, "groundspeed_mps": 0.4654674530029297}, "flight": {"mode": "LOITER", "armed": true}, "ekf": {"attitude": {"roll": -0.013373059220612049, "pitch": -0.03590303659439087, "yaw": -0.0710032656788826}, "local_position": {"x": -0.33277392387390137, "y": 2.437697410583496, "z": 3.76653790473938}, "status": {"flags": 831, "velocity_variance": 0.04053622856736183, "pos_horiz_variance": 0.015500814653933048, "pos_vert_variance": 0.021885927766561508}}, "errors": []}
{"timestamp": "2026-01-29T12:59:33.832852Z", "telemetry": {"lat": 13.3543492, "lon": 74.8647641, "satellites": 11, "altitude_gps_m": 40.12999725341797, "groundspeed_mps": 0.5114840269088745}, "flight": {"mode": "LOITER", "armed": true}, "ekf": {"attitude": {"roll": -0.024531744420528412, "pitch": -0.04742077365517616, "yaw": -0.2543477416038513}, "local_position": {"x": 0.06402814388275146, "y": 2.5057835578918457, "z": 3.7235820293426514}, "status": {"flags": 831, "velocity_variance": 0.0414188951253891, "pos_horiz_variance": 0.01639830879867077, "pos_vert_variance": 0.011562814004719257}}, "errors": []}
{"timestamp": "2026-01-29T12:59:34.829781Z", "telemetry": {"lat": 13.3543541, "lon": 74.8647638, "satellites": 11, "altitude_gps_m": 40.14999771118164, "groundspeed_mps": 0.6893833875656128}, "flight": {"mode": "LOITER", "armed": true}, "ekf": {"attitude": {"roll": -0.012908421456813812, "pitch": -0.054002054035663605, "yaw": -0.20355182886123657}, "local_position": {"x": 0.6406078338623047, "y": 2.428877115249634, "z": 3.70867919921875}, "status": {"flags": 831, "velocity_variance": 0.04043250530958176, "pos_horiz_variance": 0.013377382420003414, "pos_vert_variance": 0.005339570343494415}}, "errors": []}
{"timestamp": "2026-01-29T12:59:35.830987Z", "telemetry": {"lat": 13.3543603, "lon": 74.8647633, "satellites": 11, "altitude_gps_m": 40.12999725341797, "groundspeed_mps": 0.6862651109695435}, "flight": {"mode": "LOITER", "armed": true}, "ekf": {"attitude": {"roll": -0.03371043503284454, "pitch": -0.01458531804382801, "yaw": -0.41400548815727234}, "local_position": {"x": 1.3321409225463867, "y": 2.35908579826355, "z": 3.7281880378723145}, "status": {"flags": 831, "velocity_variance": 0.02747575007379055, "pos_horiz_variance": 0.01071895007044077, "pos_vert_variance": 0.008796324953436852}}, "errors": []}
{"timestamp": "2026-01-29T12:59:36.828717Z", "telemetry": {"lat": 13.3543652, "lon": 74.8647627, "satellites": 11, "altitude_gps_m": 40.11000061035156, "groundspeed_mps": 0.4765235483646393}, "flight": {"mode": "LOITER", "armed": true}, "ekf": {"attitude": {"roll": -0.01607239805161953, "pitch": -0.011509768664836884, "yaw": -0.2457703948020935}, "local_position": {"x": 1.8978590965270996, "y": 2.264897346496582, "z": 3.7386717796325684}, "status": {"flags": 831, "velocity_variance": 0.03687117248773575, "pos_horiz_variance": 0.014363901689648628, "pos_vert_variance": 0.0047883521765470505}}, "errors": []}
{"timestamp": "2026-01-29T12:59:37.865326Z", "telemetry": {"lat": 13.3543683, "lon": 74.8647621, "satellites": 11, "altitude_gps_m": 40.13999938964844, "groundspeed_mps": 0.40300190448760986}, "flight": {"mode": "LOITER", "armed": true}, "ekf": {"attitude": {"roll": -0.02462947554886341, "pitch": -0.030229873955249786, "yaw": -0.43611058592796326}, "local_position": {"x": 2.1863222122192383, "y": 2.1894614696502686, "z": 3.7189242839813232}, "status": {"flags": 831, "velocity_variance": 0.06709413230419159, "pos_horiz_variance": 0.01264100894331932, "pos_vert_variance": 0.0005086666205897927}}, "errors": []}
{"timestamp": "2026-01-29T12:59:38.825024Z", "telemetry": {"lat": 13.354371, "lon": 74.8647622, "satellites": 10, "altitude_gps_m": 40.14999771118164, "groundspeed_mps": 0.12097124755382538}, "flight": {"mode": "LOITER", "armed": true}, "ekf": {"attitude": {"roll": -0.02855754643678665, "pitch": -0.023051895201206207, "yaw": -0.43787646293640137}, "local_position": {"x": 2.3934133052825928, "y": 2.1795947551727295, "z": 3.704932928085327}, "status": {"flags": 831, "velocity_variance": 0.031793829053640366, "pos_horiz_variance": 0.00868286658078432, "pos_vert_variance": 0.00020780433260370046}}, "errors": []}
{"timestamp": "2026-01-29T12:59:39.844131Z", "telemetry": {"lat": 13.3543724, "lon": 74.8647612, "satellites": 11, "altitude_gps_m": 40.14999771118164, "groundspeed_mps": 0.24183090031147003}, "flight": {"mode": "LOITER", "armed": true}, "ekf": {"attitude": {"roll": -0.02118249237537384, "pitch": -0.06501990556716919, "yaw": -0.41550034284591675}, "local_position": {"x": 2.5947659015655518, "y": 2.073198080062866, "z": 3.716083288192749}, "status": {"flags": 831, "velocity_variance": 0.055960025638341904, "pos_horiz_variance": 0.010582639835774899, "pos_vert_variance": 1.2995772522117477e-05}}, "errors": []}
{"timestamp": "2026-01-29T12:59:40.843334Z", "telemetry": {"lat": 13.354375, "lon": 74.8647597, "satellites": 11, "altitude_gps_m": 40.13999938964844, "groundspeed_mps": 0.4578658938407898}, "flight": {"mode": "LOITER", "armed": true}, "ekf": {"attitude": {"roll": -0.012626852840185165, "pitch": -0.04937686026096344, "yaw": -0.3191673159599304}, "local_position": {"x": 2.9126856327056885, "y": 1.898099422454834, "z": 3.7185914516448975}, "status": {"flags": 831, "velocity_variance": 0.04329380393028259, "pos_horiz_variance": 0.010189449414610863, "pos_vert_variance": 0.005013017915189266}}, "errors": []}
{"timestamp": "2026-01-29T12:59:41.842474Z", "telemetry": {"lat": 13.3543799, "lon": 74.8647584, "satellites": 11, "altitude_gps_m": 40.119998931884766, "groundspeed_mps": 0.8138611912727356}, "flight": {"mode": "LOITER", "armed": true}, "ekf": {"attitude": {"roll": -0.022445544600486755, "pitch": -0.030676662921905518, "yaw": -0.3461955189704895}, "local_position": {"x": 3.5695905685424805, "y": 1.7169365882873535, "z": 3.733217716217041}, "status": {"flags": 831, "velocity_variance": 0.05881265178322792, "pos_horiz_variance": 0.008416315540671349, "pos_vert_variance": 0.007795964367687702}}, "errors": []}
{"timestamp": "2026-01-29T12:59:42.841840Z", "telemetry": {"lat": 13.3543863, "lon": 74.8647569, "satellites": 11, "altitude_gps_m": 40.13999938964844, "groundspeed_mps": 0.7148593068122864}, "flight": {"mode": "LOITER", "armed": true}, "ekf": {"attitude": {"roll": -0.030232882127165794, "pitch": -0.04739881679415703, "yaw": -0.3736281096935272}, "local_position": {"x": 4.240237236022949, "y": 1.5620766878128052, "z": 3.7304399013519287}, "status": {"flags": 831, "velocity_variance": 0.029661457985639572, "pos_horiz_variance": 0.009232372045516968, "pos_vert_variance": 0.006180969532579184}}, "errors": []}
{"timestamp": "2026-01-29T12:59:43.861565Z", "telemetry": {"lat": 13.3543934, "lon": 74.8647538, "satellites": 11, "altitude_gps_m": 40.12999725341797, "groundspeed_mps": 0.6233850717544556}, "flight": {"mode": "LOITER", "armed": true}, "ekf": {"attitude": {"roll": -0.010065227746963501, "pitch": -0.028208516538143158, "yaw": -0.35108453035354614}, "local_position": {"x": 4.892172336578369, "y": 1.2879576683044434, "z": 3.722600221633911}, "status": {"flags": 831, "velocity_variance": 0.021340874955058098, "pos_horiz_variance": 0.009657789021730423, "pos_vert_variance": 0.008174867369234562}}, "errors": []}
{"timestamp": "2026-01-29T12:59:44.860627Z", "telemetry": {"lat": 13.3543962, "lon": 74.8647525, "satellites": 11, "altitude_gps_m": 39.84000015258789, "groundspeed_mps": 0.18316665291786194}, "flight": {"mode": "LOITER", "armed": true}, "ekf": {"attitude": {"roll": -0.022323736920952797, "pitch": -0.015010073781013489, "yaw": -0.3411702811717987}, "local_position": {"x": 5.246644496917725, "y": 1.1385295391082764, "z": 4.029228210449219}, "status": {"flags": 831, "velocity_variance": 0.05711379274725914, "pos_horiz_variance": 0.010828040540218353, "pos_vert_variance": 0.008608664385974407}}, "errors": []}
{"timestamp": "2026-01-29T12:59:45.860053Z", "telemetry": {"lat": 13.3543978, "lon": 74.8647521, "satellites": 11, "altitude_gps_m": 39.459999084472656, "groundspeed_mps": 0.031031986698508263}, "flight": {"mode": "LOITER", "armed": true}, "ekf": {"attitude": {"roll": -0.015970556065440178, "pitch": -0.018706949427723885, "yaw": -0.3274522125720978}, "local_position": {"x": 5.338351249694824, "y": 1.1559704542160034, "z": 4.386002063751221}, "status": {"flags": 831, "velocity_variance": 0.05864886939525604, "pos_horiz_variance": 0.011320438235998154, "pos_vert_variance": 0.019181501120328903}}, "errors": []}
{"timestamp": "2026-01-29T12:59:46.859292Z", "telemetry": {"lat": 13.3543984, "lon": 74.8647509, "satellites": 11, "altitude_gps_m": 39.43000030517578, "groundspeed_mps": 0.052913133054971695}, "flight": {"mode": "LOITER", "armed": true}, "ekf": {"attitude": {"roll": -0.0053596291691064835, "pitch": -0.028665194287896156, "yaw": -0.3324635326862335}, "local_position": {"x": 5.356266975402832, "y": 1.0869828462600708, "z": 4.423414707183838}, "status": {"flags": 831, "velocity_variance": 0.031355079263448715, "pos_horiz_variance": 0.012826892547309399, "pos_vert_variance": 0.017205864191055298}}, "errors": []}
{"timestamp": "2026-01-29T12:59:47.858025Z", "telemetry": {"lat": 13.3543979, "lon": 74.8647524, "satellites": 11, "altitude_gps_m": 39.290000915527344, "groundspeed_mps": 0.07932712882757187}, "flight": {"mode": "LOITER", "armed": true}, "ekf": {"attitude": {"roll": -0.028701309114694595, "pitch": -0.0388532318174839, "yaw": -0.3601404130458832}, "local_position": {"x": 5.325390815734863, "y": 1.1440496444702148, "z": 4.571834564208984}, "status": {"flags": 831, "velocity_variance": 0.015379324555397034, "pos_horiz_variance": 0.007031693588942289, "pos_vert_variance": 0.010585247538983822}}, "errors": []}
{"timestamp": "2026-01-29T12:59:48.857150Z", "telemetry": {"lat": 13.3543981, "lon": 74.8647522, "satellites": 11, "altitude_gps_m": 39.040000915527344, "groundspeed_mps": 0.02291654795408249}, "flight": {"mode": "LOITER", "armed": true}, "ekf": {"attitude": {"roll": -0.024206509813666344, "pitch": -0.027573730796575546, "yaw": -0.36214178800582886}, "local_position": {"x": 5.350879669189453, "y": 1.175649881362915, "z": 4.801090240478516}, "status": {"flags": 831, "velocity_variance": 0.050800621509552, "pos_horiz_variance": 0.010572290979325771, "pos_vert_variance": 0.01912485435605049}}, "errors": []}
{"timestamp": "2026-01-29T12:59:49.856303Z", "telemetry": {"lat": 13.3543983, "lon": 74.8647514, "satellites": 11, "altitude_gps_m": 39.029998779296875, "groundspeed_mps": 0.030546030029654503}, "flight": {"mode": "LOITER", "armed": true}, "ekf": {"attitude": {"roll": -0.01255884300917387, "pitch": -0.034827329218387604, "yaw": -0.38449129462242126}, "local_position": {"x": 5.363121509552002, "y": 1.1162394285202026, "z": 4.822908401489258}, "status": {"flags": 831, "velocity_variance": 0.02406781166791916, "pos_horiz_variance": 0.013388203456997871, "pos_vert_variance": 0.01663513109087944}}, "errors": []}
{"timestamp": "2026-01-29T12:59:50.855274Z", "telemetry": {"lat": 13.3543982, "lon": 74.8647504, "satellites": 11, "altitude_gps_m": 39.040000915527344, "groundspeed_mps": 0.08055668324232101}, "flight": {"mode": "LOITER", "armed": true}, "ekf": {"attitude": {"roll": -0.01235115434974432, "pitch": -0.029710065573453903, "yaw": -0.3536865711212158}, "local_position": {"x": 5.345820903778076, "y": 1.0684105157852173, "z": 4.819349765777588}, "status": {"flags": 831, "velocity_variance": 0.0347599983215332, "pos_horiz_variance": 0.014690961688756943, "pos_vert_variance": 0.013400619849562645}}, "errors": []}
{"timestamp": "2026-01-29T12:59:51.836690Z", "telemetry": {"lat": 13.3543988, "lon": 74.8647506, "satellites": 11, "altitude_gps_m": 39.04999923706055, "groundspeed_mps": 0.042104143649339676}, "flight": {"mode": "LOITER", "armed": true}, "ekf": {"attitude": {"roll": -0.030554022639989853, "pitch": -0.02851518988609314, "yaw": -0.371230810880661}, "local_position": {"x": 5.396641731262207, "y": 1.0931729078292847, "z": 4.812544822692871}, "status": {"flags": 831, "velocity_variance": 0.016718914732336998, "pos_horiz_variance": 0.015510078519582748, "pos_vert_variance": 0.012003840878605843}}, "errors": []}
{"timestamp": "2026-01-29T12:59:52.837835Z", "telemetry": {"lat": 13.354399, "lon": 74.864751, "satellites": 11, "altitude_gps_m": 39.05999755859375, "groundspeed_mps": 0.030806470662355423}, "flight": {"mode": "LOITER", "armed": true}, "ekf": {"attitude": {"roll": -0.02966143935918808, "pitch": -0.03916362673044205, "yaw": -0.37108540534973145}, "local_position": {"x": 5.382739543914795, "y": 1.1188242435455322, "z": 4.7906293869018555}, "status": {"flags": 831, "velocity_variance": 0.016369542106986046, "pos_horiz_variance": 0.01567067578434944, "pos_vert_variance": 0.006514746230095625}}, "errors": []}
{"timestamp": "2026-01-29T12:59:53.852483Z", "telemetry": {"lat": 13.3543993, "lon": 74.8647502, "satellites": 11, "altitude_gps_m": 39.05999755859375, "groundspeed_mps": 0.047181613743305206}, "flight": {"mode": "LOITER", "armed": true}, "ekf": {"attitude": {"roll": -0.01645825244486332, "pitch": -0.024498919025063515, "yaw": -0.3378194272518158}, "local_position": {"x": 5.393949031829834, "y": 1.07850182056427, "z": 4.79021692276001}, "status": {"flags": 831, "velocity_variance": 0.03529147803783417, "pos_horiz_variance": 0.017895063385367393, "pos_vert_variance": 0.011290677823126316}}, "errors": []}
{"timestamp": "2026-01-29T12:59:54.851612Z", "telemetry": {"lat": 13.3543993, "lon": 74.8647496, "satellites": 11, "altitude_gps_m": 39.02000045776367, "groundspeed_mps": 0.0824563130736351}, "flight": {"mode": "LOITER", "armed": true}, "ekf": {"attitude": {"roll": -0.008238676004111767, "pitch": -0.03594273328781128, "yaw": -0.7317458987236023}, "local_position": {"x": 5.3891921043396, "y": 1.0582330226898193, "z": 4.824879169464111}, "status": {"flags": 831, "velocity_variance": 0.04196484386920929, "pos_horiz_variance": 0.019195761531591415, "pos_vert_variance": 0.012017771601676941}}, "errors": []}
{"timestamp": "2026-01-29T12:59:55.834926Z", "telemetry": {"lat": 13.3543992, "lon": 74.8647499, "satellites": 11, "altitude_gps_m": 39.040000915527344, "groundspeed_mps": 0.10680775344371796}, "flight": {"mode": "LOITER", "armed": true}, "ekf": {"attitude": {"roll": -0.018924148753285408, "pitch": -0.031848084181547165, "yaw": -1.217514991760254}, "local_position": {"x": 5.416977882385254, "y": 1.0920443534851074, "z": 4.829279899597168}, "status": {"flags": 831, "velocity_variance": 0.03605836257338524, "pos_horiz_variance": 0.019296828657388687, "pos_vert_variance": 0.007972082123160362}}, "errors": []}
{"timestamp": "2026-01-29T12:59:56.849830Z", "telemetry": {"lat": 13.3544008, "lon": 74.8647498, "satellites": 11, "altitude_gps_m": 39.11000061035156, "groundspeed_mps": 0.11707715690135956}, "flight": {"mode": "LOITER", "armed": true}, "ekf": {"attitude": {"roll": -0.026814136654138565, "pitch": -0.025669699534773827, "yaw": -1.081449031829834}, "local_position": {"x": 5.495507717132568, "y": 1.0890506505966187, "z": 4.746860980987549}, "status": {"flags": 831, "velocity_variance": 0.03844783827662468, "pos_horiz_variance": 0.020934315398335457, "pos_vert_variance": 0.027215594425797462}}, "errors": []}
{"timestamp": "2026-01-29T12:59:57.848766Z", "telemetry": {"lat": 13.3544009, "lon": 74.8647513, "satellites": 11, "altitude_gps_m": 39.38999938964844, "groundspeed_mps": 0.07855694741010666}, "flight": {"mode": "LOITER", "armed": true}, "ekf": {"attitude": {"roll": -0.035628318786621094, "pitch": -0.04862036556005478, "yaw": -1.2545742988586426}, "local_position": {"x": 5.528865814208984, "y": 1.1509389877319336, "z": 4.5124006271362305}, "status": {"flags": 831, "velocity_variance": 0.10265136510133743, "pos_horiz_variance": 0.015950478613376617, "pos_vert_variance": 0.022644080221652985}}, "errors": []}
{"timestamp": "2026-01-29T12:59:58.848364Z", "telemetry": {"lat": 13.3544008, "lon": 74.8647516, "satellites": 11, "altitude_gps_m": 39.47999954223633, "groundspeed_mps": 0.09502822905778885}, "flight": {"mode": "LOITER", "armed": true}, "ekf": {"attitude": {"roll": -0.029596474021673203, "pitch": -0.041008107364177704, "yaw": -1.322689414024353}, "local_position": {"x": 5.509891033172607, "y": 1.167736530303955, "z": 4.390490531921387}, "status": {"flags": 831, "velocity_variance": 0.06496796011924744, "pos_horiz_variance": 0.01350963581353426, "pos_vert_variance": 0.014287352561950684}}, "errors": []}
{"timestamp": "2026-01-29T12:59:59.847998Z", "telemetry": {"lat": 13.3544012, "lon": 74.8647517, "satellites": 11, "altitude_gps_m": 39.52000045776367, "groundspeed_mps": 0.09374172240495682}, "flight": {"mode": "LOITER", "armed": true}, "ekf": {"attitude": {"roll": -0.016399456188082695, "pitch": -0.04056139662861824, "yaw": -1.9276676177978516}, "local_position": {"x": 5.498922348022461, "y": 1.1156237125396729, "z": 4.349940776824951}, "status": {"flags": 831, "velocity_variance": 0.06300616264343262, "pos_horiz_variance": 0.011140722781419754, "pos_vert_variance": 0.010534708388149738}}, "errors": []}
{"timestamp": "2026-01-29T13:00:00.846698Z", "telemetry": {"lat": 13.3544012, "lon": 74.8647507, "satellites": 11, "altitude_gps_m": 39.54999923706055, "groundspeed_mps": 0.07317209988832474}, "flight": {"mode": "LOITER", "armed": true}, "ekf": {"attitude": {"roll": -0.014057278633117676, "pitch": -0.029989093542099, "yaw": -2.6404943466186523}, "local_position": {"x": 5.44784688949585, "y": 1.075851321220398, "z": 4.307237148284912}, "status": {"flags": 831, "velocity_variance": 0.05604935064911842, "pos_horiz_variance": 0.018731573596596718, "pos_vert_variance": 0.006843104492872953}}, "errors": []}
{"timestamp": "2026-01-29T13:00:01.845790Z", "telemetry": {"lat": 13.3544004, "lon": 74.8647489, "satellites": 11, "altitude_gps_m": 39.540000915527344, "groundspeed_mps": 0.38972800970077515}, "flight": {"mode": "LOITER", "armed": true}, "ekf": {"attitude": {"roll": -0.017779449000954628, "pitch": -0.18841499090194702, "yaw": -3.082974910736084}, "local_position": {"x": 5.379880905151367, "y": 0.9616299271583557, "z": 4.325295925140381}, "status": {"flags": 831, "velocity_variance": 0.06422216445207596, "pos_horiz_variance": 0.02211052179336548, "pos_vert_variance": 0.004467770457267761}}, "errors": []}
{"timestamp": "2026-01-29T13:00:02.845094Z", "telemetry": {"lat": 13.3543966, "lon": 74.8647477, "satellites": 11, "altitude_gps_m": 39.62999725341797, "groundspeed_mps": 1.1409298181533813}, "flight": {"mode": "LOITER", "armed": true}, "ekf": {"attitude": {"roll": -0.020754892379045486, "pitch": -0.030818896368145943, "yaw": 2.9365217685699463}, "local_position": {"x": 4.663295745849609, "y": 0.799089252948761, "z": 4.243788719177246}, "status": {"flags": 831, "velocity_variance": 0.030672291293740273, "pos_horiz_variance": 0.020778536796569824, "pos_vert_variance": 0.0047827791422605515}}, "errors": []}
{"timestamp": "2026-01-29T13:00:03.844383Z", "telemetry": {"lat": 13.3543874, "lon": 74.8647468, "satellites": 11, "altitude_gps_m": 39.68000030517578, "groundspeed_mps": 1.0954424142837524}, "flight": {"mode": "LOITER", "armed": true}, "ekf": {"attitude": {"roll": -0.018135372549295425, "pitch": -0.044029366225004196, "yaw": 2.5827794075012207}, "local_position": {"x": 3.6648178100585938, "y": 0.7238126397132874, "z": 4.1728668212890625}, "status": {"flags": 831, "velocity_variance": 0.03800172358751297, "pos_horiz_variance": 0.019119786098599434, "pos_vert_variance": 0.005270423833280802}}, "errors": []}
{"timestamp": "2026-01-29T13:00:04.843584Z", "telemetry": {"lat": 13.3543777, "lon": 74.8647474, "satellites": 11, "altitude_gps_m": 39.73999786376953, "groundspeed_mps": 0.410344660282135}, "flight": {"mode": "LOITER", "armed": true}, "ekf": {"attitude": {"roll": -0.03937060013413429, "pitch": 0.03414506837725639, "yaw": 2.7304277420043945}, "local_position": {"x": 2.7318098545074463, "y": 0.7585566639900208, "z": 4.1206440925598145}, "status": {"flags": 831, "velocity_variance": 0.03651130944490433, "pos_horiz_variance": 0.01673748902976513, "pos_vert_variance": 0.003913490567356348}}, "errors": []}
{"timestamp": "2026-01-29T13:00:05.842820Z", "telemetry": {"lat": 13.3543723, "lon": 74.8647468, "satellites": 11, "altitude_gps_m": 39.790000915527344, "groundspeed_mps": 0.11737340688705444}, "flight": {"mode": "LOITER", "armed": true}, "ekf": {"attitude": {"roll": -0.014418194070458412, "pitch": -0.008145404979586601, "yaw": -2.7941062450408936}, "local_position": {"x": 2.321239709854126, "y": 0.7186239957809448, "z": 4.072418212890625}, "status": {"flags": 831, "velocity_variance": 0.08005032688379288, "pos_horiz_variance": 0.019583506509661674, "pos_vert_variance": 0.01092531718313694}}, "errors": []}
{"timestamp": "2026-01-29T13:00:06.841866Z", "telemetry": {"lat": 13.3543717, "lon": 74.8647466, "satellites": 11, "altitude_gps_m": 39.790000915527344, "groundspeed_mps": 0.24873407185077667}, "flight": {"mode": "LOITER", "armed": true}, "ekf": {"attitude": {"roll": -0.035492442548274994, "pitch": -0.029432263225317, "yaw": -2.3621790409088135}, "local_position": {"x": 2.335125207901001, "y": 0.7509294748306274, "z": 4.068880558013916}, "status": {"flags": 831, "velocity_variance": 0.05021144077181816, "pos_horiz_variance": 0.0190257728099823, "pos_vert_variance": 0.009748478420078754}}, "errors": []}
{"timestamp": "2026-01-29T13:00:07.843394Z", "telemetry": {"lat": 13.3543718, "lon": 74.8647471, "satellites": 11, "altitude_gps_m": 39.779998779296875, "groundspeed_mps": 0.6674440503120422}, "flight": {"mode": "LOITER", "armed": true}, "ekf": {"attitude": {"roll": -0.016298726201057434, "pitch": -0.054477326571941376, "yaw": -2.009490966796875}, "local_position": {"x": 2.1580257415771484, "y": 0.6134930849075317, "z": 4.064791679382324}, "status": {"flags": 831, "velocity_variance": 0.04468689113855362, "pos_horiz_variance": 0.018125228583812714, "pos_vert_variance": 0.001624960103072226}}, "errors": []}
{"timestamp": "2026-01-29T13:00:08.842631Z", "telemetry": {"lat": 13.3543684, "lon": 74.8647425, "satellites": 11, "altitude_gps_m": 39.77000045776367, "groundspeed_mps": 0.6660518646240234}, "flight": {"mode": "LOITER", "armed": true}, "ekf": {"attitude": {"roll": -0.018593570217490196, "pitch": -0.040255218744277954, "yaw": -1.9318844079971313}, "local_position": {"x": 1.717259407043457, "y": 0.05095908045768738, "z": 4.089669227600098}, "status": {"flags": 831, "velocity_variance": 0.04565766081213951, "pos_horiz_variance": 0.017448551952838898, "pos_vert_variance": 0.002925330074504018}}, "errors": []}
