{"timestamp": "2026-01-29T13:19:56.952711Z", "telemetry": {"lat": 13.3543063, "lon": 74.8647507, "satellites": 9, "altitude_gps_m": 35.709999084472656, "groundspeed_mps": 0.21255549788475037}, "flight": {"mode": "STABILIZE", "armed": false}, "ekf": {"attitude": {"roll": 0.011142301373183727, "pitch": -0.006258431822061539, "yaw": -2.4579050540924072}, "local_position": {"x": null, "y": null, "z": null}, "status": {"flags": 167, "velocity_variance": 0.0, "pos_horiz_variance": 0.05943720042705536, "pos_vert_variance": 0.04753158241510391}}, "errors": []}
{"timestamp": "2026-01-29T13:19:57.953464Z", "telemetry": {"lat": 13.3543071, "lon": 74.8647509, "satellites": 9, "altitude_gps_m": 35.72999954223633, "groundspeed_mps": 0.2165972739458084}, "flight": {"mode": "STABILIZE", "armed": false}, "ekf": {"attitude": {"roll": 0.010950900614261627, "pitch": -0.006700441241264343, "yaw": -2.4574122428894043}, "local_position": {"x": null, "y": null, "z": null}, "status": {"flags": 167, "velocity_variance": 0.0, "pos_horiz_variance": 0.06106557324528694, "pos_vert_variance": 0.04797549918293953}}, "errors": []}
{"timestamp": "2026-01-29T13:19:58.953961Z", "telemetry": {"lat": 13.3543075, "lon": 74.8647516, "satellites": 10, "altitude_gps_m": 35.97999954223633, "groundspeed_mps": 0.22046418488025665}, "flight": {"mode": "STABILIZE", "armed": false}, "ekf": {"attitude": {"roll": 0.010947931557893753, "pitch": -0.006482232362031937, "yaw": -2.457550048828125}, "local_position": {"x": null, "y": null, "z": null}, "status": {"flags": 167, "velocity_variance": 0.0, "pos_horiz_variance": 0.062400106340646744, "pos_vert_variance": 0.036290157586336136}}, "errors": []}
{"timestamp": "2026-01-29T13:19:59.953588Z", "telemetry": {"lat": 13.3543087, "lon": 74.8647529, "satellites": 10, "altitude_gps_m": 36.43000030517578, "groundspeed_mps": 0.22581623494625092}, "flight": {"mode": "STABILIZE", "armed": false}, "ekf": {"attitude": {"roll": 0.011116361245512962, "pitch": -0.0063810795545578, "yaw": -2.457362174987793}, "local_position": {"x": null, "y": null, "z": null}, "status": {"flags": 167, "velocity_variance": 0.0, "pos_horiz_variance": 0.06401023268699646, "pos_vert_variance": 0.018677495419979095}}, "errors": []}
{"timestamp": "2026-01-29T13:20:00.953909Z", "telemetry": {"lat": 13.3543099, "lon": 74.8647543, "satellites": 9, "altitude_gps_m": 36.73999786376953, "groundspeed_mps": 0.23013530671596527}, "flight": {"mode": "STABILIZE", "armed": false}, "ekf": {"attitude": {"roll": 0.011342409998178482, "pitch": -0.006061278283596039, "yaw": -2.457348346710205}, "local_position": {"x": null, "y": null, "z": null}, "status": {"flags": 167, "velocity_variance": 0.0, "pos_horiz_variance": 0.06584348529577255, "pos_vert_variance": 0.017637161538004875}}, "errors": []}
{"timestamp": "2026-01-29T13:20:01.953819Z", "telemetry": {"lat": 13.3543107, "lon": 74.864755, "satellites": 9, "altitude_gps_m": 37.13999938964844, "groundspeed_mps": 0.03966210409998894}, "flight": {"mode": "STABILIZE", "armed": false}, "ekf": {"attitude": {"roll": 0.011663408018648624, "pitch": -0.007795214653015137, "yaw": -2.4579617977142334}, "local_position": {"x": 1.7915149927139282, "y": 0.5961928367614746, "z": -0.9299079775810242}, "status": {"flags": 831, "velocity_variance": 0.08602339029312134, "pos_horiz_variance": 0.0008429285371676087, "pos_vert_variance": 0.023531202226877213}}, "errors": ["EKF3 IMU0 is using GPS", "EKF3 IMU1 is using GPS"]}
{"timestamp": "2026-01-29T13:20:02.954949Z", "telemetry": {"lat": 13.3543109, "lon": 74.8647549, "satellites": 9, "altitude_gps_m": 36.97999954223633, "groundspeed_mps": 0.06954120099544525}, "flight": {"mode": "STABILIZE", "armed": false}, "ekf": {"attitude": {"roll": 0.01160949096083641, "pitch": -0.008983658626675606, "yaw": -2.4580793380737305}, "local_position": {"x": 1.7848867177963257, "y": 0.5742399096488953, "z": -0.7293649911880493}, "status": {"flags": 831, "velocity_variance": 0.1280621737241745, "pos_horiz_variance": 0.0015626406529918313, "pos_vert_variance": 0.0168815478682518}}, "errors": ["EKF3 IMU0 is using GPS", "EKF3 IMU1 is using GPS"]}
{"timestamp": "2026-01-29T13:20:03.954064Z", "telemetry": {"lat": 13.3543099, "lon": 74.8647542, "satellites": 9, "altitude_gps_m": 36.849998474121094, "groundspeed_mps": 0.19355691969394684}, "flight": {"mode": "STABILIZE", "armed": false}, "ekf": {"attitude": {"roll": 0.011422518640756607, "pitch": -0.01100468635559082, "yaw": -2.4579501152038574}, "local_position": {"x": 1.687583565711975, "y": 0.5196145176887512, "z": -0.6120179891586304}, "status": {"flags": 831, "velocity_variance": 0.16991904377937317, "pos_horiz_variance": 0.0014299311442300677, "pos_vert_variance": 0.015071266330778599}}, "errors": ["EKF3 IMU0 is using GPS", "EKF3 IMU1 is using GPS"]}
{"timestamp": "2026-01-29T13:20:04.954529Z", "telemetry": {"lat": 13.3543104, "lon": 74.8647545, "satellites": 9, "altitude_gps_m": 36.82999801635742, "groundspeed_mps": 0.2375659942626953}, "flight": {"mode": "STABILIZE", "armed": false}, "ekf": {"attitude": {"roll": 0.011438876390457153, "pitch": -0.011313799768686295, "yaw": -2.457902193069458}, "local_position": {"x": 1.6078988313674927, "y": 0.4385409653186798, "z": -0.5738664865493774}, "status": {"flags": 831, "velocity_variance": 0.11290137469768524, "pos_horiz_variance": 0.007616124115884304, "pos_vert_variance": 0.005441374145448208}}, "errors": ["EKF3 IMU0 is using GPS", "EKF3 IMU1 is using GPS"]}
{"timestamp": "2026-01-29T13:20:05.954738Z", "telemetry": {"lat": 13.3543104, "lon": 74.8647549, "satellites": 9, "altitude_gps_m": 36.869998931884766, "groundspeed_mps": 0.24909164011478424}, "flight": {"mode": "STABILIZE", "armed": false}, "ekf": {"attitude": {"roll": 0.01162612996995449, "pitch": -0.010796954855322838, "yaw": -2.457933187484741}, "local_position": {"x": 1.5919350385665894, "y": 0.4297196865081787, "z": -0.6101132035255432}, "status": {"flags": 831, "velocity_variance": 0.05169229954481125, "pos_horiz_variance": 0.009671051986515522, "pos_vert_variance": 0.012165678665041924}}, "errors": ["EKF3 IMU0 is using GPS", "EKF3 IMU1 is using GPS"]}
{"timestamp": "2026-01-29T13:20:06.955610Z", "telemetry": {"lat": 13.3543105, "lon": 74.864755, "satellites": 11, "altitude_gps_m": 36.86000061035156, "groundspeed_mps": 0.2677358388900757}, "flight": {"mode": "STABILIZE", "armed": false}, "ekf": {"attitude": {"roll": 0.011615927331149578, "pitch": -0.01026899740099907, "yaw": -2.4580674171447754}, "local_position": {"x": 1.5700606107711792, "y": 0.40637335181236267, "z": -0.6138387322425842}, "status": {"flags": 831, "velocity_variance": 0.09917742758989334, "pos_horiz_variance": 0.014616173692047596, "pos_vert_variance": 0.005837994161993265}}, "errors": ["EKF3 IMU0 is using GPS", "EKF3 IMU1 is using GPS"]}
{"timestamp": "2026-01-29T13:20:07.955356Z", "telemetry": {"lat": 13.3543116, "lon": 74.8647559, "satellites": 11, "altitude_gps_m": 36.939998626708984, "groundspeed_mps": 0.2629503607749939}, "flight": {"mode": "STABILIZE", "armed": false}, "ekf": {"attitude": {"roll": 0.011787455528974533, "pitch": -0.009528424590826035, "yaw": -2.4580111503601074}, "local_position": {"x": 1.5531933307647705, "y": 0.407805860042572, "z": -0.6642295122146606}, "status": {"flags": 831, "velocity_variance": 0.05995898321270943, "pos_horiz_variance": 0.022945504635572433, "pos_vert_variance": 0.01855645515024662}}, "errors": ["EKF3 IMU0 is using GPS", "EKF3 IMU1 is using GPS"]}
{"timestamp": "2026-01-29T13:20:08.955458Z", "telemetry": {"lat": 13.3543121, "lon": 74.8647565, "satellites": 11, "altitude_gps_m": 37.05999755859375, "groundspeed_mps": 0.2445216178894043}, "flight": {"mode": "STABILIZE", "armed": false}, "ekf": {"attitude": {"roll": 0.012165432795882225, "pitch": -0.008377756923437119, "yaw": -2.457911491394043}, "local_position": {"x": 1.5555883646011353, "y": 0.40684235095977783, "z": -0.7872291207313538}, "status": {"flags": 831, "velocity_variance": 0.15552334487438202, "pos_horiz_variance": 0.0302342027425766, "pos_vert_variance": 0.02616705559194088}}, "errors": ["EKF3 IMU0 is using GPS", "EKF3 IMU1 is using GPS"]}
{"timestamp": "2026-01-29T13:20:09.955497Z", "telemetry": {"lat": 13.3543137, "lon": 74.8647581, "satellites": 11, "altitude_gps_m": 37.209999084472656, "groundspeed_mps": 0.1790498048067093}, "flight": {"mode": "STABILIZE", "armed": false}, "ekf": {"attitude": {"roll": 0.012626237235963345, "pitch": -0.006839964538812637, "yaw": -2.457895278930664}, "local_position": {"x": 1.6970221996307373, "y": 0.4810486435890198, "z": -0.912667453289032}, "status": {"flags": 831, "velocity_variance": 0.09503979235887527, "pos_horiz_variance": 0.03556517884135246, "pos_vert_variance": 0.04119279980659485}}, "errors": ["EKF3 IMU0 is using GPS", "EKF3 IMU1 is using GPS"]}
{"timestamp": "2026-01-29T13:20:10.955882Z", "telemetry": {"lat": 13.3543143, "lon": 74.8647588, "satellites": 11, "altitude_gps_m": 37.5099983215332, "groundspeed_mps": 0.1446557343006134}, "flight": {"mode": "STABILIZE", "armed": false}, "ekf": {"attitude": {"roll": 0.012443377636373043, "pitch": -0.006303369998931885, "yaw": -2.457724094390869}, "local_position": {"x": 1.831268548965454, "y": 0.5797342658042908, "z": -1.18747878074646}, "status": {"flags": 831, "velocity_variance": 0.08937232941389084, "pos_horiz_variance": 0.037697937339544296, "pos_vert_variance": 0.05334454029798508}}, "errors": ["EKF3 IMU0 is using GPS", "EKF3 IMU1 is using GPS"]}
{"timestamp": "2026-01-29T13:20:11.956528Z", "telemetry": {"lat": 13.3543152, "lon": 74.8647602, "satellites": 11, "altitude_gps_m": 37.84000015258789, "groundspeed_mps": 0.1149127408862114}, "flight": {"mode": "STABILIZE", "armed": false}, "ekf": {"attitude": {"roll": 0.012626031413674355, "pitch": -0.00575917586684227, "yaw": -2.4576773643493652}, "local_position": {"x": 1.9582993984222412, "y": 0.6891244649887085, "z": -1.5213416814804077}, "status": {"flags": 831, "velocity_variance": 0.09077973663806915, "pos_horiz_variance": 0.03737041726708412, "pos_vert_variance": 0.05511580780148506}}, "errors": ["EKF3 IMU0 is using GPS", "EKF3 IMU1 is using GPS"]}
{"timestamp": "2026-01-29T13:20:12.912842Z", "telemetry": {"lat": 13.3543164, "lon": 74.864761, "satellites": 11, "altitude_gps_m": 38.09000015258789, "groundspeed_mps": 0.11806365847587585}, "flight": {"mode": "STABILIZE", "armed": false}, "ekf": {"attitude": {"roll": 0.012707740999758244, "pitch": -0.005850415676832199, "yaw": -2.457658290863037}, "local_position": {"x": 2.076941967010498, "y": 0.7498850226402283, "z": -1.7807995080947876}, "status": {"flags": 831, "velocity_variance": 0.0961424931883812, "pos_horiz_variance": 0.037213947623968124, "pos_vert_variance": 0.06005515530705452}}, "errors": ["EKF3 IMU0 is using GPS", "EKF3 IMU1 is using GPS"]}
{"timestamp": "2026-01-29T13:20:13.956518Z", "telemetry": {"lat": 13.3543165, "lon": 74.8647623, "satellites": 11, "altitude_gps_m": 38.349998474121094, "groundspeed_mps": 0.10862269997596741}, "flight": {"mode": "STABILIZE", "armed": false}, "ekf": {"attitude": {"roll": 0.011880318634212017, "pitch": -0.005996976047754288, "yaw": -2.4575729370117188}, "local_position": {"x": 2.1592466831207275, "y": 0.8856967091560364, "z": -2.0419247150421143}, "status": {"flags": 831, "velocity_variance": 0.0943971648812294, "pos_horiz_variance": 0.037441592663526535, "pos_vert_variance": 0.051769182085990906}}, "errors": ["EKF3 IMU0 is using GPS", "EKF3 IMU1 is using GPS"]}
{"timestamp": "2026-01-29T13:20:14.956954Z", "telemetry": {"lat": 13.3543174, "lon": 74.8647638, "satellites": 11, "altitude_gps_m": 38.61000061035156, "groundspeed_mps": 0.10428270697593689}, "flight": {"mode": "STABILIZE", "armed": false}, "ekf": {"attitude": {"roll": 0.011334910057485104, "pitch": -0.00578920915722847, "yaw": -2.45753812789917}, "local_position": {"x": 2.199357509613037, "y": 1.007523775100708, "z": -2.241814374923706}, "status": {"flags": 831, "velocity_variance": 0.0571177676320076, "pos_horiz_variance": 0.041113417595624924, "pos_vert_variance": 0.049763213843107224}}, "errors": ["EKF3 IMU0 is using GPS", "EKF3 IMU1 is using GPS"]}
{"timestamp": "2026-01-29T13:20:15.957066Z", "telemetry": {"lat": 13.3543179, "lon": 74.8647651, "satellites": 11, "altitude_gps_m": 38.7599983215332, "groundspeed_mps": 0.12878850102424622}, "flight": {"mode": "STABILIZE", "armed": false}, "ekf": {"attitude": {"roll": 0.011598161421716213, "pitch": -0.006521258503198624, "yaw": -2.4573707580566406}, "local_position": {"x": 2.234867811203003, "y": 1.2295234203338623, "z": -2.5717239379882812}, "status": {"flags": 831, "velocity_variance": 0.05980634316802025, "pos_horiz_variance": 0.03876013308763504, "pos_vert_variance": 0.0443393774330616}}, "errors": ["EKF3 IMU0 is using GPS", "EKF3 IMU1 is using GPS"]}
{"timestamp": "2026-01-29T13:20:16.957136Z", "telemetry": {"lat": 13.354319, "lon": 74.8647665, "satellites": 11, "altitude_gps_m": 39.0099983215332, "groundspeed_mps": 0.1326243281364441}, "flight": {"mode": "STABILIZE", "armed": false}, "ekf": {"attitude": {"roll": 0.011646243743598461, "pitch": -0.006476227194070816, "yaw": -2.457258462905884}, "local_position": {"x": 2.2881922721862793, "y": 1.341933250427246, "z": -2.7117512226104736}, "status": {"flags": 831, "velocity_variance": 0.10605203360319138, "pos_horiz_variance": 0.043280839920043945, "pos_vert_variance": 0.04540565237402916}}, "errors": ["EKF3 IMU0 is using GPS", "EKF3 IMU1 is using GPS"]}
{"timestamp": "2026-01-29T13:20:17.957556Z", "telemetry": {"lat": 13.3543197, "lon": 74.8647672, "satellites": 11, "altitude_gps_m": 39.279998779296875, "groundspeed_mps": 0.11475992202758789}, "flight": {"mode": "STABILIZE", "armed": false}, "ekf": {"attitude": {"roll": 0.011956029571592808, "pitch": -0.006605539470911026, "yaw": -2.456991195678711}, "local_position": {"x": 2.4004316329956055, "y": 1.514012098312378, "z": -2.966352939605713}, "status": {"flags": 831, "velocity_variance": 0.08726001530885696, "pos_horiz_variance": 0.0377228707075119, "pos_vert_variance": 0.049649469554424286}}, "errors": ["EKF3 IMU0 is using GPS", "EKF3 IMU1 is using GPS"]}
{"timestamp": "2026-01-29T13:20:18.920629Z", "telemetry": {"lat": 13.3543203, "lon": 74.8647676, "satellites": 11, "altitude_gps_m": 39.529998779296875, "groundspeed_mps": 0.11479903757572174}, "flight": {"mode": "STABILIZE", "armed": false}, "ekf": {"attitude": {"roll": 0.012363540939986706, "pitch": -0.006868615746498108, "yaw": -2.456947088241577}, "local_position": {"x": 2.5187833309173584, "y": 1.6058759689331055, "z": -3.238147020339966}, "status": {"flags": 831, "velocity_variance": 0.08688273280858994, "pos_horiz_variance": 0.03218682482838631, "pos_vert_variance": 0.03868032246828079}}, "errors": ["EKF3 IMU0 is using GPS", "EKF3 IMU1 is using GPS"]}
{"timestamp": "2026-01-29T13:20:19.958232Z", "telemetry": {"lat": 13.3543204, "lon": 74.864768, "satellites": 11, "altitude_gps_m": 39.709999084472656, "groundspeed_mps": 0.12984611093997955}, "flight": {"mode": "STABILIZE", "armed": false}, "ekf": {"attitude": {"roll": 0.01233030203729868, "pitch": -0.007061198353767395, "yaw": -2.4568934440612793}, "local_position": {"x": 2.5768887996673584, "y": 1.7024707794189453, "z": -3.4223639965057373}, "status": {"flags": 831, "velocity_variance": 0.09120787680149078, "pos_horiz_variance": 0.027974547818303108, "pos_vert_variance": 0.028651919215917587}}, "errors": ["EKF3 IMU0 is using GPS", "EKF3 IMU1 is using GPS"]}
{"timestamp": "2026-01-29T13:20:20.922172Z", "telemetry": {"lat": 13.3543209, "lon": 74.8647683, "satellites": 11, "altitude_gps_m": 39.84000015258789, "groundspeed_mps": 0.13895878195762634}, "flight": {"mode": "STABILIZE", "armed": false}, "ekf": {"attitude": {"roll": 0.012587376870214939, "pitch": -0.00725087895989418, "yaw": -2.45660662651062}, "local_position": {"x": 2.6463799476623535, "y": 1.7479054927825928, "z": -3.5632574558258057}, "status": {"flags": 831, "velocity_variance": 0.1006694808602333, "pos_horiz_variance": 0.026078324764966965, "pos_vert_variance": 0.024258941411972046}}, "errors": ["EKF3 IMU0 is using GPS", "EKF3 IMU1 is using GPS"]}
{"timestamp": "2026-01-29T13:20:21.922665Z", "telemetry": {"lat": 13.3543207, "lon": 74.8647691, "satellites": 11, "altitude_gps_m": 39.959999084472656, "groundspeed_mps": 0.1467413753271103}, "flight": {"mode": "LOITER", "armed": false}, "ekf": {"attitude": {"roll": 0.012288927100598812, "pitch": -0.007396411150693893, "yaw": -2.456498384475708}, "local_position": {"x": 2.698551654815674, "y": 1.8218621015548706, "z": -3.7182934284210205}, "status": {"flags": 831, "velocity_variance": 0.07991141080856323, "pos_horiz_variance": 0.023190712556242943, "pos_vert_variance": 0.01677734963595867}}, "errors": ["EKF3 IMU0 is using GPS", "EKF3 IMU1 is using GPS"]}
{"timestamp": "2026-01-29T13:20:22.921234Z", "telemetry": {"lat": 13.3543204, "lon": 74.864769, "satellites": 11, "altitude_gps_m": 40.12999725341797, "groundspeed_mps": 0.19345957040786743}, "flight": {"mode": "LOITER", "armed": false}, "ekf": {"attitude": {"roll": 0.012478591874241829, "pitch": -0.008277462795376778, "yaw": -2.456209897994995}, "local_position": {"x": 2.691713333129883, "y": 1.8509461879730225, "z": -3.854532480239868}, "status": {"flags": 831, "velocity_variance": 0.07448028028011322, "pos_horiz_variance": 0.019891683012247086, "pos_vert_variance": 0.011683088727295399}}, "errors": ["EKF3 IMU0 is using GPS", "EKF3 IMU1 is using GPS"]}
{"timestamp": "2026-01-29T13:20:23.922800Z", "telemetry": {"lat": 13.354321, "lon": 74.8647697, "satellites": 11, "altitude_gps_m": 40.2599983215332, "groundspeed_mps": 0.18201090395450592}, "flight": {"mode": "LOITER", "armed": false}, "ekf": {"attitude": {"roll": 0.012799635529518127, "pitch": -0.007622677832841873, "yaw": -2.456015110015869}, "local_position": {"x": 2.712484121322632, "y": 1.891528844833374, "z": -3.9768319129943848}, "status": {"flags": 831, "velocity_variance": 0.10360066592693329, "pos_horiz_variance": 0.022755857557058334, "pos_vert_variance": 0.015810372307896614}}, "errors": ["EKF3 IMU0 is using GPS", "EKF3 IMU1 is using GPS"]}
{"timestamp": "2026-01-29T13:20:24.921501Z", "telemetry": {"lat": 13.3543216, "lon": 74.8647703, "satellites": 11, "altitude_gps_m": 40.37999725341797, "groundspeed_mps": 0.16247090697288513}, "flight": {"mode": "LOITER", "armed": false}, "ekf": {"attitude": {"roll": 0.013040619902312756, "pitch": -0.007120009511709213, "yaw": -2.455911636352539}, "local_position": {"x": 2.806629180908203, "y": 1.9689191579818726, "z": -4.109177589416504}, "status": {"flags": 831, "velocity_variance": 0.1099754050374031, "pos_horiz_variance": 0.02205764874815941, "pos_vert_variance": 0.007396501023322344}}, "errors": ["EKF3 IMU0 is using GPS", "EKF3 IMU1 is using GPS"]}
{"timestamp": "2026-01-29T13:20:25.923314Z", "telemetry": {"lat": 13.354322, "lon": 74.8647711, "satellites": 11, "altitude_gps_m": 40.54999923706055, "groundspeed_mps": 0.157981276512146}, "flight": {"mode": "LOITER", "armed": false}, "ekf": {"attitude": {"roll": 0.013162899762392044, "pitch": -0.007186874747276306, "yaw": -2.4559216499328613}, "local_position": {"x": 2.8752217292785645, "y": 2.0505545139312744, "z": -4.259356498718262}, "status": {"flags": 831, "velocity_variance": 0.05555705353617668, "pos_horiz_variance": 0.02118600718677044, "pos_vert_variance": 0.005125568713992834}}, "errors": ["EKF3 IMU0 is using GPS", "EKF3 IMU1 is using GPS"]}
{"timestamp": "2026-01-29T13:20:26.922141Z", "telemetry": {"lat": 13.3543218, "lon": 74.8647715, "satellites": 11, "altitude_gps_m": 40.63999938964844, "groundspeed_mps": 0.18782804906368256}, "flight": {"mode": "LOITER", "armed": false}, "ekf": {"attitude": {"roll": 0.012987926602363586, "pitch": -0.00752895325422287, "yaw": -2.455998659133911}, "local_position": {"x": 2.8475284576416016, "y": 2.0985636711120605, "z": -4.387885093688965}, "status": {"flags": 831, "velocity_variance": 0.10254420340061188, "pos_horiz_variance": 0.021416284143924713, "pos_vert_variance": 0.007452080026268959}}, "errors": ["EKF3 IMU0 is using GPS", "EKF3 IMU1 is using GPS"]}
{"timestamp": "2026-01-29T13:20:27.923559Z", "telemetry": {"lat": 13.3543223, "lon": 74.8647716, "satellites": 11, "altitude_gps_m": 40.63999938964844, "groundspeed_mps": 0.21343834698200226}, "flight": {"mode": "LOITER", "armed": false}, "ekf": {"attitude": {"roll": 0.012962725944817066, "pitch": -0.007912706583738327, "yaw": -2.4559550285339355}, "local_position": {"x": 2.838409423828125, "y": 2.1190032958984375, "z": -4.392989635467529}, "status": {"flags": 831, "velocity_variance": 0.11323001235723495, "pos_horiz_variance": 0.02297121286392212, "pos_vert_variance": 0.01584741845726967}}, "errors": ["EKF3 IMU0 is using GPS", "EKF3 IMU1 is using GPS"]}
{"timestamp": "2026-01-29T13:20:28.923676Z", "telemetry": {"lat": 13.3543235, "lon": 74.8647718, "satellites": 11, "altitude_gps_m": 40.59000015258789, "groundspeed_mps": 0.21056000888347626}, "flight": {"mode": "LOITER", "armed": false}, "ekf": {"attitude": {"roll": 0.013089395128190517, "pitch": -0.0075544267892837524, "yaw": -2.4559309482574463}, "local_position": {"x": 2.8773815631866455, "y": 2.1324849128723145, "z": -4.360699653625488}, "status": {"flags": 831, "velocity_variance": 0.09174206107854843, "pos_horiz_variance": 0.027373773977160454, "pos_vert_variance": 0.02066134288907051}}, "errors": ["EKF3 IMU0 is using GPS", "EKF3 IMU1 is using GPS"]}
{"timestamp": "2026-01-29T13:20:29.923867Z", "telemetry": {"lat": 13.3543241, "lon": 74.8647722, "satellites": 11, "altitude_gps_m": 40.52000045776367, "groundspeed_mps": 0.20230652391910553}, "flight": {"mode": "LOITER", "armed": false}, "ekf": {"attitude": {"roll": 0.012979356572031975, "pitch": -0.007305167615413666, "yaw": -2.4559128284454346}, "local_position": {"x": 2.946244239807129, "y": 2.181199312210083, "z": -4.294076442718506}, "status": {"flags": 831, "velocity_variance": 0.07225695252418518, "pos_horiz_variance": 0.027474183589220047, "pos_vert_variance": 0.023052940145134926}}, "errors": ["EKF3 IMU0 is using GPS", "EKF3 IMU1 is using GPS"]}
{"timestamp": "2026-01-29T13:20:30.923116Z", "telemetry": {"lat": 13.3543246, "lon": 74.8647721, "satellites": 11, "altitude_gps_m": 40.5, "groundspeed_mps": 0.18915246427059174}, "flight": {"mode": "LOITER", "armed": false}, "ekf": {"attitude": {"roll": 0.012968886643648148, "pitch": -0.007064267992973328, "yaw": -2.455874443054199}, "local_position": {"x": 3.020033121109009, "y": 2.207827568054199, "z": -4.256857872009277}, "status": {"flags": 831, "velocity_variance": 0.09543879330158234, "pos_horiz_variance": 0.02581857517361641, "pos_vert_variance": 0.026786360889673233}}, "errors": ["EKF3 IMU0 is using GPS", "EKF3 IMU1 is using GPS"]}
{"timestamp": "2026-01-29T13:20:31.924132Z", "telemetry": {"lat": 13.3543254, "lon": 74.8647727, "satellites": 11, "altitude_gps_m": 40.5099983215332, "groundspeed_mps": 0.160625621676445}, "flight": {"mode": "LOITER", "armed": false}, "ekf": {"attitude": {"roll": 0.012774156406521797, "pitch": -0.0065440163016319275, "yaw": -2.4559695720672607}, "local_position": {"x": 3.116849899291992, "y": 2.269172191619873, "z": -4.257793426513672}, "status": {"flags": 831, "velocity_variance": 0.0748775377869606, "pos_horiz_variance": 0.02596731297671795, "pos_vert_variance": 0.02598903514444828}}, "errors": ["EKF3 IMU0 is using GPS", "EKF3 IMU1 is using GPS"]}
{"timestamp": "2026-01-29T13:20:32.922902Z", "telemetry": {"lat": 13.3543246, "lon": 74.8647721, "satellites": 10, "altitude_gps_m": 40.40999984741211, "groundspeed_mps": 0.19346092641353607}, "flight": {"mode": "LOITER", "armed": false}, "ekf": {"attitude": {"roll": 0.012692260555922985, "pitch": -0.007161449640989304, "yaw": -2.4559378623962402}, "local_position": {"x": 3.1264193058013916, "y": 2.276552200317383, "z": -4.197908401489258}, "status": {"flags": 831, "velocity_variance": 0.058269817382097244, "pos_horiz_variance": 0.01658152975142002, "pos_vert_variance": 0.042890772223472595}}, "errors": ["EKF3 IMU0 is using GPS", "EKF3 IMU1 is using GPS"]}
{"timestamp": "2026-01-29T13:20:33.924659Z", "telemetry": {"lat": 13.3543238, "lon": 74.8647714, "satellites": 10, "altitude_gps_m": 40.27000045776367, "groundspeed_mps": 0.2218034416437149}, "flight": {"mode": "LOITER", "armed": false}, "ekf": {"attitude": {"roll": 0.012679113075137138, "pitch": -0.0077156685292720795, "yaw": -2.455970525741577}, "local_position": {"x": 3.067326784133911, "y": 2.2465262413024902, "z": -4.018657684326172}, "status": {"flags": 831, "velocity_variance": 0.05665123090147972, "pos_horiz_variance": 0.012878487817943096, "pos_vert_variance": 0.05234957113862038}}, "errors": ["EKF3 IMU0 is using GPS", "EKF3 IMU1 is using GPS"]}
{"timestamp": "2026-01-29T13:20:34.924498Z", "telemetry": {"lat": 13.3543234, "lon": 74.8647713, "satellites": 10, "altitude_gps_m": 40.02000045776367, "groundspeed_mps": 0.24762403964996338}, "flight": {"mode": "LOITER", "armed": false}, "ekf": {"attitude": {"roll": 0.012632572092115879, "pitch": -0.007814016193151474, "yaw": -2.455996036529541}, "local_position": {"x": 3.0145227909088135, "y": 2.2233846187591553, "z": -3.830078363418579}, "status": {"flags": 831, "velocity_variance": 0.10937362909317017, "pos_horiz_variance": 0.014792466536164284, "pos_vert_variance": 0.05586632341146469}}, "errors": ["EKF3 IMU0 is using GPS", "EKF3 IMU1 is using GPS"]}
{"timestamp": "2026-01-29T13:20:35.925369Z", "telemetry": {"lat": 13.3543231, "lon": 74.864771, "satellites": 10, "altitude_gps_m": 39.779998779296875, "groundspeed_mps": 0.26251888275146484}, "flight": {"mode": "LOITER", "armed": false}, "ekf": {"attitude": {"roll": 0.013025553897023201, "pitch": -0.0078604556620121, "yaw": -2.455839157104492}, "local_position": {"x": 2.9760189056396484, "y": 2.186418056488037, "z": -3.588435649871826}, "status": {"flags": 831, "velocity_variance": 0.08741777390241623, "pos_horiz_variance": 0.013613050803542137, "pos_vert_variance": 0.05477955564856529}}, "errors": ["EKF3 IMU0 is using GPS", "EKF3 IMU1 is using GPS"]}
{"timestamp": "2026-01-29T13:20:36.924131Z", "telemetry": {"lat": 13.3543231, "lon": 74.8647708, "satellites": 10, "altitude_gps_m": 39.540000915527344, "groundspeed_mps": 0.26749786734580994}, "flight": {"mode": "LOITER", "armed": false}, "ekf": {"attitude": {"roll": 0.013034218922257423, "pitch": -0.007728364318609238, "yaw": -2.4558167457580566}, "local_position": {"x": 2.958001136779785, "y": 2.1411311626434326, "z": -3.3465423583984375}, "status": {"flags": 831, "velocity_variance": 0.08776921033859253, "pos_horiz_variance": 0.01545642502605915, "pos_vert_variance": 0.05093058571219444}}, "errors": ["EKF3 IMU0 is using GPS", "EKF3 IMU1 is using GPS"]}
{"timestamp": "2026-01-29T13:20:37.925225Z", "telemetry": {"lat": 13.3543236, "lon": 74.8647711, "satellites": 10, "altitude_gps_m": 39.36000061035156, "groundspeed_mps": 0.2450035959482193}, "flight": {"mode": "LOITER", "armed": false}, "ekf": {"attitude": {"roll": 0.012829066254198551, "pitch": -0.007118247449398041, "yaw": -2.4557437896728516}, "local_position": {"x": 2.9601798057556152, "y": 2.155357837677002, "z": -3.163198947906494}, "status": {"flags": 831, "velocity_variance": 0.08072817325592041, "pos_horiz_variance": 0.01888759434223175, "pos_vert_variance": 0.04556659609079361}}, "errors": ["EKF3 IMU0 is using GPS", "EKF3 IMU1 is using GPS"]}
{"timestamp": "2026-01-29T13:20:38.924337Z", "telemetry": {"lat": 13.3543239, "lon": 74.8647714, "satellites": 10, "altitude_gps_m": 39.14999771118164, "groundspeed_mps": 0.21765172481536865}, "flight": {"mode": "LOITER", "armed": false}, "ekf": {"attitude": {"roll": 0.01268889382481575, "pitch": -0.006473809480667114, "yaw": -2.4557816982269287}, "local_position": {"x": 2.989760160446167, "y": 2.174328565597534, "z": -3.0005760192871094}, "status": {"flags": 831, "velocity_variance": 0.11331185698509216, "pos_horiz_variance": 0.020087862387299538, "pos_vert_variance": 0.04047548770904541}}, "errors": ["EKF3 IMU0 is using GPS", "EKF3 IMU1 is using GPS"]}
{"timestamp": "2026-01-29T13:20:39.925128Z", "telemetry": {"lat": 13.3543244, "lon": 74.864772, "satellites": 10, "altitude_gps_m": 39.0, "groundspeed_mps": 0.19562673568725586}, "flight": {"mode": "LOITER", "armed": false}, "ekf": {"attitude": {"roll": 0.012517220340669155, "pitch": -0.005988709628582001, "yaw": -2.455603837966919}, "local_position": {"x": 3.019901990890503, "y": 2.2400095462799072, "z": -2.791186809539795}, "status": {"flags": 831, "velocity_variance": 0.10971364378929138, "pos_horiz_variance": 0.02262040786445141, "pos_vert_variance": 0.030069133266806602}}, "errors": ["EKF3 IMU0 is using GPS", "EKF3 IMU1 is using GPS"]}
{"timestamp": "2026-01-29T13:20:40.924806Z", "telemetry": {"lat": 13.3543245, "lon": 74.8647711, "satellites": 10, "altitude_gps_m": 38.88999938964844, "groundspeed_mps": 0.19360189139842987}, "flight": {"mode": "LOITER", "armed": false}, "ekf": {"attitude": {"roll": 0.01289562601596117, "pitch": -0.006047151982784271, "yaw": -2.4554128646850586}, "local_position": {"x": 3.072845935821533, "y": 2.239645481109619, "z": -2.67950701713562}, "status": {"flags": 831, "velocity_variance": 0.04691684618592262, "pos_horiz_variance": 0.017182961106300354, "pos_vert_variance": 0.02637537755072117}}, "errors": ["EKF3 IMU0 is using GPS", "EKF3 IMU1 is using GPS"]}
{"timestamp": "2026-01-29T13:20:41.926617Z", "telemetry": {"lat": 13.3543253, "lon": 74.8647714, "satellites": 10, "altitude_gps_m": 38.82999801635742, "groundspeed_mps": 0.18268054723739624}, "flight": {"mode": "LOITER", "armed": false}, "ekf": {"attitude": {"roll": 0.012945197522640228, "pitch": -0.0058778636157512665, "yaw": -2.455292224884033}, "local_position": {"x": 3.1180784702301025, "y": 2.232174873352051, "z": -2.603228807449341}, "status": {"flags": 831, "velocity_variance": 0.05814148113131523, "pos_horiz_variance": 0.020550625398755074, "pos_vert_variance": 0.019045330584049225}}, "errors": ["EKF3 IMU0 is using GPS", "EKF3 IMU1 is using GPS"]}
{"timestamp": "2026-01-29T13:20:42.926972Z", "telemetry": {"lat": 13.3543254, "lon": 74.8647711, "satellites": 10, "altitude_gps_m": 38.72999954223633, "groundspeed_mps": 0.18767230212688446}, "flight": {"mode": "LOITER", "armed": false}, "ekf": {"attitude": {"roll": 0.012872384861111641, "pitch": -0.0061069056391716, "yaw": -2.455197811126709}, "local_position": {"x": 3.151311159133911, "y": 2.2067959308624268, "z": -2.5023458003997803}, "status": {"flags": 831, "velocity_variance": 0.07527262717485428, "pos_horiz_variance": 0.01976712793111801, "pos_vert_variance": 0.020887719467282295}}, "errors": ["EKF3 IMU0 is using GPS", "EKF3 IMU1 is using GPS"]}
{"timestamp": "2026-01-29T13:20:43.926358Z", "telemetry": {"lat": 13.3543247, "lon": 74.8647701, "satellites": 10, "altitude_gps_m": 38.71999740600586, "groundspeed_mps": 0.20468324422836304}, "flight": {"mode": "LOITER", "armed": false}, "ekf": {"attitude": {"roll": 0.012824974954128265, "pitch": -0.006517592817544937, "yaw": -2.4552745819091797}, "local_position": {"x": 3.14455246925354, "y": 2.179741144180298, "z": -2.471856117248535}, "status": {"flags": 831, "velocity_variance": 0.04180265963077545, "pos_horiz_variance": 0.013155604712665081, "pos_vert_variance": 0.02138334885239601}}, "errors": ["EKF3 IMU0 is using GPS", "EKF3 IMU1 is using GPS"]}
{"timestamp": "2026-01-29T13:20:44.926042Z", "telemetry": {"lat": 13.3543247, "lon": 74.8647694, "satellites": 10, "altitude_gps_m": 38.56999969482422, "groundspeed_mps": 0.20764054358005524}, "flight": {"mode": "LOITER", "armed": false}, "ekf": {"attitude": {"roll": 0.013045798987150192, "pitch": -0.006243143230676651, "yaw": -2.4551899433135986}, "local_position": {"x": 3.1550748348236084, "y": 2.142247200012207, "z": -2.351205348968506}, "status": {"flags": 831, "velocity_variance": 0.08630470931529999, "pos_horiz_variance": 0.011712241917848587, "pos_vert_variance": 0.01703311689198017}}, "errors": ["EKF3 IMU0 is using GPS", "EKF3 IMU1 is using GPS"]}
{"timestamp": "2026-01-29T13:20:45.926801Z", "telemetry": {"lat": 13.354325, "lon": 74.8647686, "satellites": 10, "altitude_gps_m": 38.48999786376953, "groundspeed_mps": 0.21587930619716644}, "flight": {"mode": "LOITER", "armed": false}, "ekf": {"attitude": {"roll": 0.013453486375510693, "pitch": -0.006268005818128586, "yaw": -2.4550914764404297}, "local_position": {"x": 3.175704002380371, "y": 2.0567688941955566, "z": -2.2593932151794434}, "status": {"flags": 831, "velocity_variance": 0.0859965905547142, "pos_horiz_variance": 0.012866835109889507, "pos_vert_variance": 0.009130218997597694}}, "errors": ["EKF3 IMU0 is using GPS", "EKF3 IMU1 is using GPS", "PreArm: Hardware safety switch"]}
{"timestamp": "2026-01-29T13:20:46.926523Z", "telemetry": {"lat": 13.3543244, "lon": 74.8647676, "satellites": 10, "altitude_gps_m": 38.439998626708984, "groundspeed_mps": 0.20119531452655792}, "flight": {"mode": "LOITER", "armed": false}, "ekf": {"attitude": {"roll": 0.013545633293688297, "pitch": -0.005872685462236404, "yaw": -2.4548733234405518}, "local_position": {"x": 3.213099241256714, "y": 2.0047924518585205, "z": -2.202282428741455}, "status": {"flags": 831, "velocity_variance": 0.07644996792078018, "pos_horiz_variance": 0.0079072630032897, "pos_vert_variance": 0.011696121655404568}}, "errors": ["EKF3 IMU0 is using GPS", "EKF3 IMU1 is using GPS", "PreArm: Hardware safety switch"]}
{"timestamp": "2026-01-29T13:20:47.927008Z", "telemetry": {"lat": 13.3543237, "lon": 74.8647666, "satellites": 9, "altitude_gps_m": 38.40999984741211, "groundspeed_mps": 0.20367778837680817}, "flight": {"mode": "LOITER", "armed": false}, "ekf": {"attitude": {"roll": 0.013487542979419231, "pitch": -0.005852218717336655, "yaw": -2.4547858238220215}, "local_position": {"x": 3.207812786102295, "y": 1.952275276184082, "z": -2.180854320526123}, "status": {"flags": 831, "velocity_variance": 0.10973497480154037, "pos_horiz_variance": 0.008820842951536179, "pos_vert_variance": 0.017434876412153244}}, "errors": ["EKF3 IMU0 is using GPS", "EKF3 IMU1 is using GPS", "PreArm: Hardware safety switch"]}
{"timestamp": "2026-01-29T13:20:48.927076Z", "telemetry": {"lat": 13.3543227, "lon": 74.8647656, "satellites": 9, "altitude_gps_m": 38.34000015258789, "groundspeed_mps": 0.20203189551830292}, "flight": {"mode": "LOITER", "armed": false}, "ekf": {"attitude": {"roll": 0.01299800630658865, "pitch": -0.005461733788251877, "yaw": -2.4548120498657227}, "local_position": {"x": 3.176389217376709, "y": 1.890060305595398, "z": -2.120762825012207}, "status": {"flags": 831, "velocity_variance": 0.048391684889793396, "pos_horiz_variance": 0.013416880741715431, "pos_vert_variance": 0.02240023948252201}}, "errors": ["EKF3 IMU0 is using GPS", "EKF3 IMU1 is using GPS", "PreArm: Hardware safety switch"]}
{"timestamp": "2026-01-29T13:20:49.928593Z", "telemetry": {"lat": 13.3543215, "lon": 74.8647645, "satellites": 10, "altitude_gps_m": 38.22999954223633, "groundspeed_mps": 0.2115219235420227}, "flight": {"mode": "LOITER", "armed": false}, "ekf": {"attitude": {"roll": 0.012844559736549854, "pitch": -0.005269777029752731, "yaw": -2.454770565032959}, "local_position": {"x": 3.090299606323242, "y": 1.788875699043274, "z": -1.979327917098999}, "status": {"flags": 831, "velocity_variance": 0.08760552108287811, "pos_horiz_variance": 0.015690766274929047, "pos_vert_variance": 0.014382683672010899}}, "errors": ["EKF3 IMU0 is using GPS", "EKF3 IMU1 is using GPS", "PreArm: Hardware safety switch"]}
{"timestamp": "2026-01-29T13:20:50.927679Z", "telemetry": {"lat": 13.3543209, "lon": 74.8647639, "satellites": 10, "altitude_gps_m": 38.16999816894531, "groundspeed_mps": 0.21092931926250458}, "flight": {"mode": "LOITER", "armed": false}, "ekf": {"attitude": {"roll": 0.012843604199588299, "pitch": -0.004832949489355087, "yaw": -2.4545812606811523}, "local_position": {"x": 3.0297844409942627, "y": 1.7135236263275146, "z": -1.926188349723816}, "status": {"flags": 831, "velocity_variance": 0.08743555843830109, "pos_horiz_variance": 0.015429170802235603, "pos_vert_variance": 0.007969413883984089}}, "errors": ["EKF3 IMU0 is using GPS", "EKF3 IMU1 is using GPS", "PreArm: Hardware safety switch"]}
{"timestamp": "2026-01-29T13:20:51.929859Z", "telemetry": {"lat": 13.3543208, "lon": 74.8647632, "satellites": 10, "altitude_gps_m": 38.16999816894531, "groundspeed_mps": 0.20553770661354065}, "flight": {"mode": "LOITER", "armed": false}, "ekf": {"attitude": {"roll": 0.012602737173438072, "pitch": -0.0048142485320568085, "yaw": -2.4544975757598877}, "local_position": {"x": 2.99711275100708, "y": 1.6379308700561523, "z": -1.929307222366333}, "status": {"flags": 831, "velocity_variance": 0.05450811609625816, "pos_horiz_variance": 0.012805106118321419, "pos_vert_variance": 0.005147128831595182}}, "errors": ["EKF3 IMU0 is using GPS", "EKF3 IMU1 is using GPS", "PreArm: Hardware safety switch"]}
{"timestamp": "2026-01-29T13:20:52.928264Z", "telemetry": {"lat": 13.3543203, "lon": 74.8647628, "satellites": 10, "altitude_gps_m": 38.15999984741211, "groundspeed_mps": 0.21280865371227264}, "flight": {"mode": "LOITER", "armed": false}, "ekf": {"attitude": {"roll": 0.012512896209955215, "pitch": -0.004942417144775391, "yaw": -2.454514503479004}, "local_position": {"x": 2.9488754272460938, "y": 1.5916025638580322, "z": -1.9123835563659668}, "status": {"flags": 831, "velocity_variance": 0.07894938439130783, "pos_horiz_variance": 0.013971175998449326, "pos_vert_variance": 0.0075438800267875195}}, "errors": ["EKF3 IMU0 is using GPS", "EKF3 IMU1 is using GPS", "PreArm: Hardware safety switch"]}
{"timestamp": "2026-01-29T13:20:53.930678Z", "telemetry": {"lat": 13.3543203, "lon": 74.8647627, "satellites": 10, "altitude_gps_m": 38.07999801635742, "groundspeed_mps": 0.20025749504566193}, "flight": {"mode": "LOITER", "armed": false}, "ekf": {"attitude": {"roll": 0.01222284696996212, "pitch": -0.004333999007940292, "yaw": -2.4543797969818115}, "local_position": {"x": 2.855661392211914, "y": 1.5070925951004028, "z": -1.8392009735107422}, "status": {"flags": 831, "velocity_variance": 0.08258212357759476, "pos_horiz_variance": 0.0076858969405293465, "pos_vert_variance": 0.000885301036760211}}, "errors": ["EKF3 IMU0 is using GPS", "EKF3 IMU1 is using GPS", "PreArm: Hardware safety switch"]}
{"timestamp": "2026-01-29T13:20:54.928528Z", "telemetry": {"lat": 13.354319, "lon": 74.8647619, "satellites": 10, "altitude_gps_m": 38.09000015258789, "groundspeed_mps": 0.21835218369960785}, "flight": {"mode": "LOITER", "armed": false}, "ekf": {"attitude": {"roll": 0.012313530780375004, "pitch": -0.004598379135131836, "yaw": -2.4544200897216797}, "local_position": {"x": 2.7761995792388916, "y": 1.4278115034103394, "z": -1.8476732969284058}, "status": {"flags": 831, "velocity_variance": 0.04193964973092079, "pos_horiz_variance": 0.007652821019291878, "pos_vert_variance": 0.007314747665077448}}, "errors": ["EKF3 IMU0 is using GPS", "EKF3 IMU1 is using GPS", "PreArm: Hardware safety switch"]}
{"timestamp": "2026-01-29T13:20:55.929798Z", "telemetry": {"lat": 13.3543187, "lon": 74.8647612, "satellites": 10, "altitude_gps_m": 38.05999755859375, "groundspeed_mps": 0.22430334985256195}, "flight": {"mode": "LOITER", "armed": false}, "ekf": {"attitude": {"roll": 0.012788154184818268, "pitch": -0.004623573273420334, "yaw": -2.4543116092681885}, "local_position": {"x": 2.699733257293701, "y": 1.3267982006072998, "z": -1.810364007949829}, "status": {"flags": 831, "velocity_variance": 0.10823746770620346, "pos_horiz_variance": 0.007380853407084942, "pos_vert_variance": 0.01239061076194048}}, "errors": ["EKF3 IMU0 is using GPS", "EKF3 IMU1 is using GPS", "PreArm: Hardware safety switch"]}
{"timestamp": "2026-01-29T13:20:56.929272Z", "telemetry": {"lat": 13.3543187, "lon": 74.8647615, "satellites": 10, "altitude_gps_m": 38.12999725341797, "groundspeed_mps": 0.18258893489837646}, "flight": {"mode": "LOITER", "armed": false}, "ekf": {"attitude": {"roll": 0.01269423495978117, "pitch": -0.00363830104470253, "yaw": -2.454343318939209}, "local_position": {"x": 2.689487934112549, "y": 1.3117426633834839, "z": -1.854614496231079}, "status": {"flags": 831, "velocity_variance": 0.0753086730837822, "pos_horiz_variance": 0.0018479183781892061, "pos_vert_variance": 0.0013632657937705517}}, "errors": ["EKF3 IMU0 is using GPS", "EKF3 IMU1 is using GPS", "PreArm: Hardware safety switch"]}
{"timestamp": "2026-01-29T13:20:57.929780Z", "telemetry": {"lat": 13.3543183, "lon": 74.8647613, "satellites": 10, "altitude_gps_m": 38.20000076293945, "groundspeed_mps": 0.17148235440254211}, "flight": {"mode": "LOITER", "armed": false}, "ekf": {"attitude": {"roll": 0.012876841239631176, "pitch": -0.0036461614072322845, "yaw": -2.4543631076812744}, "local_position": {"x": 2.663396120071411, "y": 1.2990978956222534, "z": -1.9405639171600342}, "status": {"flags": 831, "velocity_variance": 0.07171247899532318, "pos_horiz_variance": 0.0032722654286772013, "pos_vert_variance": 0.002885737456381321}}, "errors": ["EKF3 IMU0 is using GPS", "EKF3 IMU1 is using GPS", "PreArm: Hardware safety switch"]}
{"timestamp": "2026-01-29T13:20:58.929950Z", "telemetry": {"lat": 13.3543178, "lon": 74.8647616, "satellites": 10, "altitude_gps_m": 38.21999740600586, "groundspeed_mps": 0.1768324226140976}, "flight": {"mode": "LOITER", "armed": false}, "ekf": {"attitude": {"roll": 0.012952479533851147, "pitch": -0.0037046708166599274, "yaw": -2.454349994659424}, "local_position": {"x": 2.5942022800445557, "y": 1.2658077478408813, "z": -1.9790451526641846}, "status": {"flags": 831, "velocity_variance": 0.06186619773507118, "pos_horiz_variance": 0.002934808610007167, "pos_vert_variance": 0.0006039880681782961}}, "errors": ["EKF3 IMU0 is using GPS", "EKF3 IMU1 is using GPS", "PreArm: Hardware safety switch"]}
{"timestamp": "2026-01-29T13:20:59.934865Z", "telemetry": {"lat": 13.3543169, "lon": 74.8647613, "satellites": 10, "altitude_gps_m": 38.290000915527344, "groundspeed_mps": 0.18497347831726074}, "flight": {"mode": "LOITER", "armed": false}, "ekf": {"attitude": {"roll": 0.013324235565960407, "pitch": -0.0039240047335624695, "yaw": -2.4542598724365234}, "local_position": {"x": 2.525470018386841, "y": 1.2240580320358276, "z": -2.04363751411438}, "status": {"flags": 831, "velocity_variance": 0.01679168827831745, "pos_horiz_variance": 0.005609027110040188, "pos_vert_variance": 0.0052205962128937244}}, "errors": ["EKF3 IMU0 is using GPS", "EKF3 IMU1 is using GPS", "PreArm: Hardware safety switch"]}
{"timestamp": "2026-01-29T13:21:00.932357Z", "telemetry": {"lat": 13.3543158, "lon": 74.8647604, "satellites": 10, "altitude_gps_m": 38.2599983215332, "groundspeed_mps": 0.21541619300842285}, "flight": {"mode": "LOITER", "armed": false}, "ekf": {"attitude": {"roll": 0.013425716198980808, "pitch": -0.004594266414642334, "yaw": -2.454047918319702}, "local_position": {"x": 2.42219877243042, "y": 1.1526846885681152, "z": -2.0365262031555176}, "status": {"flags": 831, "velocity_variance": 0.09230468422174454, "pos_horiz_variance": 0.006658331491053104, "pos_vert_variance": 0.014674502424895763}}, "errors": ["EKF3 IMU0 is using GPS", "EKF3 IMU1 is using GPS", "PreArm: Hardware safety switch"]}
{"timestamp": "2026-01-29T13:21:01.936778Z", "telemetry": {"lat": 13.3543154, "lon": 74.8647603, "satellites": 10, "altitude_gps_m": 38.23999786376953, "groundspeed_mps": 0.2207166999578476}, "flight": {"mode": "LOITER", "armed": false}, "ekf": {"attitude": {"roll": 0.013533658348023891, "pitch": -0.0045426711440086365, "yaw": -2.4537911415100098}, "local_position": {"x": 2.3379790782928467, "y": 1.088878870010376, "z": -1.9971305131912231}, "status": {"flags": 831, "velocity_variance": 0.09133895486593246, "pos_horiz_variance": 0.005004738923162222, "pos_vert_variance": 0.0017198059940710664}}, "errors": ["EKF3 IMU0 is using GPS", "EKF3 IMU1 is using GPS", "PreArm: Hardware safety switch"]}
{"timestamp": "2026-01-29T13:21:02.931405Z", "telemetry": {"lat": 13.3543149, "lon": 74.8647599, "satellites": 10, "altitude_gps_m": 38.27000045776367, "groundspeed_mps": 0.20101170241832733}, "flight": {"mode": "LOITER", "armed": false}, "ekf": {"attitude": {"roll": 0.013636373914778233, "pitch": -0.0038728639483451843, "yaw": -2.4535272121429443}, "local_position": {"x": 2.28776478767395, "y": 1.0443251132965088, "z": -2.0060229301452637}, "status": {"flags": 831, "velocity_variance": 0.09194085001945496, "pos_horiz_variance": 0.005473093595355749, "pos_vert_variance": 0.0111392792314291}}, "errors": ["EKF3 IMU0 is using GPS", "EKF3 IMU1 is using GPS", "PreArm: Hardware safety switch"]}
{"timestamp": "2026-01-29T13:21:03.933380Z", "telemetry": {"lat": 13.3543146, "lon": 74.8647597, "satellites": 10, "altitude_gps_m": 38.34000015258789, "groundspeed_mps": 0.1934346705675125}, "flight": {"mode": "LOITER", "armed": false}, "ekf": {"attitude": {"roll": 0.013445192016661167, "pitch": -0.003731846809387207, "yaw": -2.453502893447876}, "local_position": {"x": 2.254194974899292, "y": 1.0278122425079346, "z": -2.075638771057129}, "status": {"flags": 831, "velocity_variance": 0.08822359889745712, "pos_horiz_variance": 0.00494050607085228, "pos_vert_variance": 0.010406729765236378}}, "errors": ["EKF3 IMU0 is using GPS", "EKF3 IMU1 is using GPS", "PreArm: Hardware safety switch"]}
{"timestamp": "2026-01-29T13:21:04.932162Z", "telemetry": {"lat": 13.3543141, "lon": 74.8647598, "satellites": 10, "altitude_gps_m": 38.43000030517578, "groundspeed_mps": 0.195414736866951}, "flight": {"mode": "LOITER", "armed": false}, "ekf": {"attitude": {"roll": 0.013219939544796944, "pitch": -0.0038227252662181854, "yaw": -2.4535129070281982}, "local_position": {"x": 2.178994655609131, "y": 1.0059254169464111, "z": -2.191516876220703}, "status": {"flags": 831, "velocity_variance": 0.0899667739868164, "pos_horiz_variance": 0.00666771037504077, "pos_vert_variance": 0.011641382239758968}}, "errors": ["EKF3 IMU0 is using GPS", "EKF3 IMU1 is using GPS", "PreArm: Hardware safety switch"]}
{"timestamp": "2026-01-29T13:21:05.932581Z", "telemetry": {"lat": 13.3543142, "lon": 74.8647602, "satellites": 10, "altitude_gps_m": 38.54999923706055, "groundspeed_mps": 0.17755132913589478}, "flight": {"mode": "LOITER", "armed": false}, "ekf": {"attitude": {"roll": 0.013368644751608372, "pitch": -0.003377143293619156, "yaw": -2.4535045623779297}, "local_position": {"x": 2.1323153972625732, "y": 0.995928168296814, "z": -2.278719425201416}, "status": {"flags": 831, "velocity_variance": 0.0877077504992485, "pos_horiz_variance": 0.008731748908758163, "pos_vert_variance": 0.0059570083394646645}}, "errors": ["EKF3 IMU0 is using GPS", "EKF3 IMU1 is using GPS", "PreArm: Hardware safety switch"]}
{"timestamp": "2026-01-29T13:21:06.932936Z", "telemetry": {"lat": 13.3543139, "lon": 74.86476, "satellites": 10, "altitude_gps_m": 38.56999969482422, "groundspeed_mps": 0.14258241653442383}, "flight": {"mode": "LOITER", "armed": false}, "ekf": {"attitude": {"roll": 0.013357608579099178, "pitch": -0.00297652930021286, "yaw": -2.453425645828247}, "local_position": {"x": 2.1442410945892334, "y": 1.0137393474578857, "z": -2.3227217197418213}, "status": {"flags": 831, "velocity_variance": 0.10358534008264542, "pos_horiz_variance": 0.0070812576450407505, "pos_vert_variance": 0.001229040790349245}}, "errors": ["EKF3 IMU0 is using GPS", "EKF3 IMU1 is using GPS", "PreArm: Hardware safety switch"]}
{"timestamp": "2026-01-29T13:21:07.932296Z", "telemetry": {"lat": 13.3543135, "lon": 74.8647597, "satellites": 10, "altitude_gps_m": 38.59000015258789, "groundspeed_mps": 0.15050871670246124}, "flight": {"mode": "LOITER", "armed": false}, "ekf": {"attitude": {"roll": 0.01330928411334753, "pitch": -0.003397412598133087, "yaw": -2.4533302783966064}, "local_position": {"x": 2.1259567737579346, "y": 1.0320628881454468, "z": -2.327756643295288}, "status": {"flags": 831, "velocity_variance": 0.06473440676927567, "pos_horiz_variance": 0.004811188206076622, "pos_vert_variance": 0.009476816281676292}}, "errors": ["EKF3 IMU0 is using GPS", "EKF3 IMU1 is using GPS", "PreArm: Hardware safety switch"]}
{"timestamp": "2026-01-29T13:21:08.933084Z", "telemetry": {"lat": 13.3543132, "lon": 74.86476, "satellites": 10, "altitude_gps_m": 38.619998931884766, "groundspeed_mps": 0.15520422160625458}, "flight": {"mode": "LOITER", "armed": false}, "ekf": {"attitude": {"roll": 0.013160144910216331, "pitch": -0.0035033896565437317, "yaw": -2.453253984451294}, "local_position": {"x": 2.058304786682129, "y": 1.0520044565200806, "z": -2.373089551925659}, "status": {"flags": 831, "velocity_variance": 0.06726054102182388, "pos_horiz_variance": 0.005266109947115183, "pos_vert_variance": 0.012421018444001675}}, "errors": ["EKF3 IMU0 is using GPS", "EKF3 IMU1 is using GPS", "PreArm: Hardware safety switch"]}
{"timestamp": "2026-01-29T13:21:09.932739Z", "telemetry": {"lat": 13.3543127, "lon": 74.8647595, "satellites": 10, "altitude_gps_m": 38.599998474121094, "groundspeed_mps": 0.16934886574745178}, "flight": {"mode": "LOITER", "armed": false}, "ekf": {"attitude": {"roll": 0.013248106464743614, "pitch": -0.003774888813495636, "yaw": -2.4530744552612305}, "local_position": {"x": 1.995388388633728, "y": 1.0267791748046875, "z": -2.3678393363952637}, "status": {"flags": 831, "velocity_variance": 0.06885574758052826, "pos_horiz_variance": 0.0030557166319340467, "pos_vert_variance": 0.019671116024255753}}, "errors": ["EKF3 IMU0 is using GPS", "EKF3 IMU1 is using GPS", "PreArm: Hardware safety switch"]}
{"timestamp": "2026-01-29T13:21:10.933721Z", "telemetry": {"lat": 13.3543115, "lon": 74.864759, "satellites": 10, "altitude_gps_m": 38.47999954223633, "groundspeed_mps": 0.17860561609268188}, "flight": {"mode": "LOITER", "armed": false}, "ekf": {"attitude": {"roll": 0.013185502961277962, "pitch": -0.00391041487455368, "yaw": -2.4530282020568848}, "local_position": {"x": 1.928700566291809, "y": 1.006400465965271, "z": -2.274925708770752}, "status": {"flags": 831, "velocity_variance": 0.08198340982198715, "pos_horiz_variance": 0.005234184674918652, "pos_vert_variance": 0.025835346430540085}}, "errors": ["EKF3 IMU0 is using GPS", "EKF3 IMU1 is using GPS", "PreArm: Hardware safety switch"]}
{"timestamp": "2026-01-29T13:21:11.932945Z", "telemetry": {"lat": 13.3543109, "lon": 74.8647586, "satellites": 10, "altitude_gps_m": 38.349998474121094, "groundspeed_mps": 0.18499134480953217}, "flight": {"mode": "LOITER", "armed": false}, "ekf": {"attitude": {"roll": 0.013283825479447842, "pitch": -0.004219435155391693, "yaw": -2.4529547691345215}, "local_position": {"x": 1.863649845123291, "y": 0.9851046204566956, "z": -2.1334457397460938}, "status": {"flags": 831, "velocity_variance": 0.06351020187139511, "pos_horiz_variance": 0.004503291565924883, "pos_vert_variance": 0.021621955558657646}}, "errors": ["EKF3 IMU0 is using GPS", "EKF3 IMU1 is using GPS", "PreArm: Hardware safety switch"]}
{"timestamp": "2026-01-29T13:21:12.934204Z", "telemetry": {"lat": 13.3543102, "lon": 74.864758, "satellites": 10, "altitude_gps_m": 38.25, "groundspeed_mps": 0.20767812430858612}, "flight": {"mode": "LOITER", "armed": false}, "ekf": {"attitude": {"roll": 0.013580325059592724, "pitch": -0.004738707095384598, "yaw": -2.4528143405914307}, "local_position": {"x": 1.7612252235412598, "y": 0.9591853618621826, "z": -2.0266029834747314}, "status": {"flags": 831, "velocity_variance": 0.07203122973442078, "pos_horiz_variance": 0.005847647786140442, "pos_vert_variance": 0.02236827090382576}}, "errors": ["EKF3 IMU0 is using GPS", "EKF3 IMU1 is using GPS", "PreArm: Hardware safety switch"]}
{"timestamp": "2026-01-29T13:21:13.934305Z", "telemetry": {"lat": 13.3543097, "lon": 74.864757, "satellites": 11, "altitude_gps_m": 38.13999938964844, "groundspeed_mps": 0.21626190841197968}, "flight": {"mode": "LOITER", "armed": false}, "ekf": {"attitude": {"roll": 0.013561679981648922, "pitch": -0.0046806372702121735, "yaw": -2.452791213989258}, "local_position": {"x": 1.6713966131210327, "y": 0.8535457253456116, "z": -1.914326548576355}, "status": {"flags": 831, "velocity_variance": 0.10881529748439789, "pos_horiz_variance": 0.004777643363922834, "pos_vert_variance": 0.0263957716524601}}, "errors": ["EKF3 IMU0 is using GPS", "EKF3 IMU1 is using GPS", "PreArm: Hardware safety switch"]}
{"timestamp": "2026-01-29T13:21:14.934285Z", "telemetry": {"lat": 13.3543088, "lon": 74.8647563, "satellites": 11, "altitude_gps_m": 38.22999954223633, "groundspeed_mps": 0.19693656265735626}, "flight": {"mode": "LOITER", "armed": false}, "ekf": {"attitude": {"roll": 0.01354584563523531, "pitch": -0.0041120536625385284, "yaw": -2.4527173042297363}, "local_position": {"x": 1.6189160346984863, "y": 0.8375486731529236, "z": -1.9853630065917969}, "status": {"flags": 831, "velocity_variance": 0.22123461961746216, "pos_horiz_variance": 0.008651372976601124, "pos_vert_variance": 0.043508078902959824}}, "errors": ["EKF3 IMU0 is using GPS", "EKF3 IMU1 is using GPS", "PreArm: Hardware safety switch"]}
{"timestamp": "2026-01-29T13:21:15.934547Z", "telemetry": {"lat": 13.3543089, "lon": 74.864756, "satellites": 11, "altitude_gps_m": 38.27000045776367, "groundspeed_mps": 0.187327042222023}, "flight": {"mode": "LOITER", "armed": false}, "ekf": {"attitude": {"roll": 0.013387360610067844, "pitch": -0.003870692104101181, "yaw": -2.4526827335357666}, "local_position": {"x": 1.5888290405273438, "y": 0.812942385673523, "z": -2.013108491897583}, "status": {"flags": 831, "velocity_variance": 0.14412516355514526, "pos_horiz_variance": 0.008888250216841698, "pos_vert_variance": 0.036871783435344696}}, "errors": ["EKF3 IMU0 is using GPS", "EKF3 IMU1 is using GPS", "PreArm: Hardware safety switch", "PreArm: Hardware safety switch"]}
{"timestamp": "2026-01-29T13:21:16.933602Z", "telemetry": {"lat": 13.3543089, "lon": 74.8647557, "satellites": 11, "altitude_gps_m": 38.20000076293945, "groundspeed_mps": 0.18376833200454712}, "flight": {"mode": "LOITER", "armed": false}, "ekf": {"attitude": {"roll": 0.013089478015899658, "pitch": -0.0036500170826911926, "yaw": -2.4527177810668945}, "local_position": {"x": 1.5460169315338135, "y": 0.7620826959609985, "z": -1.9874696731567383}, "status": {"flags": 831, "velocity_variance": 0.10298266261816025, "pos_horiz_variance": 0.008141236379742622, "pos_vert_variance": 0.042372625321149826}}, "errors": ["EKF3 IMU0 is using GPS", "EKF3 IMU1 is using GPS", "PreArm: Hardware safety switch", "PreArm: Hardware safety switch"]}
{"timestamp": "2026-01-29T13:21:17.933705Z", "telemetry": {"lat": 13.3543092, "lon": 74.8647558, "satellites": 11, "altitude_gps_m": 38.04999923706055, "groundspeed_mps": 0.18398872017860413}, "flight": {"mode": "LOITER", "armed": false}, "ekf": {"attitude": {"roll": 0.013099556788802147, "pitch": -0.0036141537129878998, "yaw": -2.452533006668091}, "local_position": {"x": 1.476884126663208, "y": 0.7155357599258423, "z": -1.8048124313354492}, "status": {"flags": 831, "velocity_variance": 0.11558309197425842, "pos_horiz_variance": 0.00932574737817049, "pos_vert_variance": 0.03362368792295456}}, "errors": ["EKF3 IMU0 is using GPS", "EKF3 IMU1 is using GPS", "PreArm: Hardware safety switch", "PreArm: Hardware safety switch"]}
{"timestamp": "2026-01-29T13:21:18.934848Z", "telemetry": {"lat": 13.3543101, "lon": 74.8647558, "satellites": 11, "altitude_gps_m": 37.939998626708984, "groundspeed_mps": 0.15130400657653809}, "flight": {"mode": "LOITER", "armed": false}, "ekf": {"attitude": {"roll": 0.013352540321648121, "pitch": -0.0031807459890842438, "yaw": -2.452327013015747}, "local_position": {"x": 1.5365886688232422, "y": 0.7111091613769531, "z": -1.730590581893921}, "status": {"flags": 831, "velocity_variance": 0.051479022949934006, "pos_horiz_variance": 0.01142352819442749, "pos_vert_variance": 0.03599366173148155}}, "errors": ["EKF3 IMU0 is using GPS", "EKF3 IMU1 is using GPS", "PreArm: Hardware safety switch", "PreArm: Hardware safety switch"]}
{"timestamp": "2026-01-29T13:21:19.935673Z", "telemetry": {"lat": 13.3543094, "lon": 74.8647548, "satellites": 11, "altitude_gps_m": 37.86000061035156, "groundspeed_mps": 0.16483117640018463}, "flight": {"mode": "LOITER", "armed": false}, "ekf": {"attitude": {"roll": 0.013374618254601955, "pitch": -0.003634277731180191, "yaw": -2.452373743057251}, "local_position": {"x": 1.5101206302642822, "y": 0.6472449898719788, "z": -1.6143635511398315}, "status": {"flags": 831, "velocity_variance": 0.062078770250082016, "pos_horiz_variance": 0.010214793495833874, "pos_vert_variance": 0.04054439440369606}}, "errors": ["EKF3 IMU0 is using GPS", "EKF3 IMU1 is using GPS", "PreArm: Hardware safety switch", "PreArm: Hardware safety switch"]}
{"timestamp": "2026-01-29T13:21:20.934542Z", "telemetry": {"lat": 13.3543094, "lon": 74.864753, "satellites": 11, "altitude_gps_m": 37.56999969482422, "groundspeed_mps": 0.22309283912181854}, "flight": {"mode": "LOITER", "armed": false}, "ekf": {"attitude": {"roll": 0.014012600295245647, "pitch": -0.004533998668193817, "yaw": -2.4522342681884766}, "local_position": {"x": 1.4324727058410645, "y": 0.44741976261138916, "z": -1.3177324533462524}, "status": {"flags": 831, "velocity_variance": 0.07181914150714874, "pos_horiz_variance": 0.015323201194405556, "pos_vert_variance": 0.03093498758971691}}, "errors": ["EKF3 IMU0 is using GPS", "EKF3 IMU1 is using GPS", "PreArm: Hardware safety switch", "PreArm: Hardware safety switch"]}
{"timestamp": "2026-01-29T13:21:21.935831Z", "telemetry": {"lat": 13.354309, "lon": 74.8647523, "satellites": 11, "altitude_gps_m": 37.40999984741211, "groundspeed_mps": 0.2344217151403427}, "flight": {"mode": "LOITER", "armed": false}, "ekf": {"attitude": {"roll": 0.013650001026690006, "pitch": -0.0045323967933654785, "yaw": -2.452240228652954}, "local_position": {"x": 1.398383617401123, "y": 0.36115264892578125, "z": -1.2049660682678223}, "status": {"flags": 831, "velocity_variance": 0.07558836042881012, "pos_horiz_variance": 0.01381491869688034, "pos_vert_variance": 0.031255535781383514}}, "errors": ["EKF3 IMU0 is using GPS", "EKF3 IMU1 is using GPS", "PreArm: Hardware safety switch", "PreArm: Hardware safety switch"]}
{"timestamp": "2026-01-29T13:21:22.935252Z", "telemetry": {"lat": 13.3543087, "lon": 74.8647512, "satellites": 10, "altitude_gps_m": 37.2599983215332, "groundspeed_mps": 0.23126289248466492}, "flight": {"mode": "LOITER", "armed": false}, "ekf": {"attitude": {"roll": 0.013942870311439037, "pitch": -0.004336804151535034, "yaw": -2.4521899223327637}, "local_position": {"x": 1.3650051355361938, "y": 0.27471742033958435, "z": -1.0656167268753052}, "status": {"flags": 831, "velocity_variance": 0.0784638524055481, "pos_horiz_variance": 0.015361486002802849, "pos_vert_variance": 0.03742690756917}}, "errors": ["EKF3 IMU0 is using GPS", "EKF3 IMU1 is using GPS", "PreArm: Hardware safety switch", "PreArm: Hardware safety switch"]}
{"timestamp": "2026-01-29T13:21:23.935359Z", "telemetry": {"lat": 13.3543091, "lon": 74.8647497, "satellites": 10, "altitude_gps_m": 37.099998474121094, "groundspeed_mps": 0.2327033430337906}, "flight": {"mode": "LOITER", "armed": false}, "ekf": {"attitude": {"roll": 0.013900325633585453, "pitch": -0.004085671156644821, "yaw": -2.4520745277404785}, "local_position": {"x": 1.3848106861114502, "y": 0.13162539899349213, "z": -0.8831034302711487}, "status": {"flags": 831, "velocity_variance": 0.07883515954017639, "pos_horiz_variance": 0.017158258706331253, "pos_vert_variance": 0.03871044144034386}}, "errors": ["EKF3 IMU0 is using GPS", "EKF3 IMU1 is using GPS", "PreArm: Hardware safety switch", "PreArm: Hardware safety switch"]}
