{"timestamp": "2026-01-24T21:17:29.858614Z", "telemetry": {"lat": 28.753262, "lon": 77.1173369, "satellites": 9, "altitude_gps_m": 203.25999450683594, "groundspeed_mps": 0.02873734012246132}, "flight": {"mode": "STABILIZE", "armed": false}, "ekf": {"attitude": {"roll": 0.015422317199409008, "pitch": -0.07227394729852676, "yaw": 2.9417736530303955}, "local_position": {"x": 18.375991821289062, "y": -44.099430084228516, "z": 5.258763790130615}, "status": {"flags": 831, "velocity_variance": 0.03574439138174057, "pos_horiz_variance": 0.010426181368529797, "pos_vert_variance": 0.0003999296168331057}}, "errors": []}
{"timestamp": "2026-01-24T21:17:30.927165Z", "telemetry": {"lat": 28.7532624, "lon": 77.1173382, "satellites": 9, "altitude_gps_m": 203.3000030517578, "groundspeed_mps": 0.03430897742509842}, "flight": {"mode": "STABILIZE", "armed": false}, "ekf": {"attitude": {"roll": 0.015387204475700855, "pitch": -0.07224768400192261, "yaw": 2.941894769668579}, "local_position": {"x": 18.377452850341797, "y": -44.06528854370117, "z": 5.213353157043457}, "status": {"flags": 831, "velocity_variance": 0.03716104105114937, "pos_horiz_variance": 0.015715084969997406, "pos_vert_variance": 0.004630549810826778}}, "errors": []}
{"timestamp": "2026-01-24T21:17:31.955452Z", "telemetry": {"lat": 28.7532627, "lon": 77.1173391, "satellites": 9, "altitude_gps_m": 203.36000061035156, "groundspeed_mps": 0.039999816566705704}, "flight": {"mode": "STABILIZE", "armed": false}, "ekf": {"attitude": {"roll": 0.015295690856873989, "pitch": -0.07234042137861252, "yaw": 2.9420318603515625}, "local_position": {"x": 18.383028030395508, "y": -43.9963264465332, "z": 5.154066562652588}, "status": {"flags": 831, "velocity_variance": 0.03780430182814598, "pos_horiz_variance": 0.016477394849061966, "pos_vert_variance": 0.003673657076433301}}, "errors": []}
{"timestamp": "2026-01-24T21:17:32.955329Z", "telemetry": {"lat": 28.753263, "lon": 77.1173393, "satellites": 9, "altitude_gps_m": 203.47999572753906, "groundspeed_mps": 0.039549436420202255}, "flight": {"mode": "STABILIZE", "armed": false}, "ekf": {"attitude": {"roll": 0.015505646355450153, "pitch": -0.07256922125816345, "yaw": 2.9421818256378174}, "local_position": {"x": 18.41046714782715, "y": -43.95237731933594, "z": 5.063643455505371}, "status": {"flags": 831, "velocity_variance": 0.05178754776716232, "pos_horiz_variance": 0.014834047295153141, "pos_vert_variance": 0.014688899740576744}}, "errors": []}
{"timestamp": "2026-01-24T21:17:33.955408Z", "telemetry": {"lat": 28.7532635, "lon": 77.1173396, "satellites": 9, "altitude_gps_m": 203.61000061035156, "groundspeed_mps": 0.04423663765192032}, "flight": {"mode": "STABILIZE", "armed": false}, "ekf": {"attitude": {"roll": 0.01589544117450714, "pitch": -0.07241567969322205, "yaw": 2.942307710647583}, "local_position": {"x": 18.41688346862793, "y": -43.95537185668945, "z": 4.9023756980896}, "status": {"flags": 831, "velocity_variance": 0.0246848464012146, "pos_horiz_variance": 0.01776895858347416, "pos_vert_variance": 0.013904925435781479}}, "errors": []}
{"timestamp": "2026-01-24T21:17:34.955142Z", "telemetry": {"lat": 28.7532637, "lon": 77.1173398, "satellites": 9, "altitude_gps_m": 203.739990234375, "groundspeed_mps": 0.04365570843219757}, "flight": {"mode": "STABILIZE", "armed": false}, "ekf": {"attitude": {"roll": 0.015408405102789402, "pitch": -0.07266935706138611, "yaw": 2.9426350593566895}, "local_position": {"x": 18.449512481689453, "y": -43.893436431884766, "z": 4.7764081954956055}, "status": {"flags": 831, "velocity_variance": 0.03359069675207138, "pos_horiz_variance": 0.01384544838219881, "pos_vert_variance": 0.023408524692058563}}, "errors": []}
{"timestamp": "2026-01-24T21:17:35.925410Z", "telemetry": {"lat": 28.7532636, "lon": 77.1173404, "satellites": 9, "altitude_gps_m": 203.9199981689453, "groundspeed_mps": 0.03477763757109642}, "flight": {"mode": "STABILIZE", "armed": false}, "ekf": {"attitude": {"roll": 0.015456692315638065, "pitch": -0.0728776752948761, "yaw": 2.9428844451904297}, "local_position": {"x": 18.466611862182617, "y": -43.83583450317383, "z": 4.633927822113037}, "status": {"flags": 831, "velocity_variance": 0.049567364156246185, "pos_horiz_variance": 0.01329187210649252, "pos_vert_variance": 0.026738062500953674}}, "errors": []}
{"timestamp": "2026-01-24T21:17:36.926004Z", "telemetry": {"lat": 28.7532637, "lon": 77.1173404, "satellites": 9, "altitude_gps_m": 204.0800018310547, "groundspeed_mps": 0.03772571682929993}, "flight": {"mode": "STABILIZE", "armed": false}, "ekf": {"attitude": {"roll": 0.015553995035588741, "pitch": -0.07272803038358688, "yaw": 2.942927360534668}, "local_position": {"x": 18.47666358947754, "y": -43.81306838989258, "z": 4.436911106109619}, "status": {"flags": 831, "velocity_variance": 0.02467373013496399, "pos_horiz_variance": 0.01218634843826294, "pos_vert_variance": 0.03297191485762596}}, "errors": []}
{"timestamp": "2026-01-24T21:17:37.955361Z", "telemetry": {"lat": 28.7532642, "lon": 77.1173402, "satellites": 9, "altitude_gps_m": 204.27999877929688, "groundspeed_mps": 0.04743679240345955}, "flight": {"mode": "STABILIZE", "armed": false}, "ekf": {"attitude": {"roll": 0.015581709332764149, "pitch": -0.07273504137992859, "yaw": 2.9432151317596436}, "local_position": {"x": 18.516963958740234, "y": -43.791961669921875, "z": 4.230471134185791}, "status": {"flags": 831, "velocity_variance": 0.051120128482580185, "pos_horiz_variance": 0.008970796130597591, "pos_vert_variance": 0.037712886929512024}}, "errors": []}
{"timestamp": "2026-01-24T21:17:38.955315Z", "telemetry": {"lat": 28.7532644, "lon": 77.11734, "satellites": 9, "altitude_gps_m": 204.5500030517578, "groundspeed_mps": 0.050362054258584976}, "flight": {"mode": "STABILIZE", "armed": false}, "ekf": {"attitude": {"roll": 0.015789050608873367, "pitch": -0.07283374667167664, "yaw": 2.9435508251190186}, "local_position": {"x": 18.566011428833008, "y": -43.78687286376953, "z": 4.020320415496826}, "status": {"flags": 831, "velocity_variance": 0.04777247831225395, "pos_horiz_variance": 0.006734174210578203, "pos_vert_variance": 0.04726478084921837}}, "errors": ["Arm: Compasses inconsistent"]}
{"timestamp": "2026-01-24T21:17:39.923003Z", "telemetry": {"lat": 28.7532644, "lon": 77.1173399, "satellites": 9, "altitude_gps_m": 204.739990234375, "groundspeed_mps": 0.03549898415803909}, "flight": {"mode": "STABILIZE", "armed": false}, "ekf": {"attitude": {"roll": 0.015727488324046135, "pitch": -0.07315891981124878, "yaw": 2.9437499046325684}, "local_position": {"x": 18.55177116394043, "y": -43.78627395629883, "z": 3.7762179374694824}, "status": {"flags": 831, "velocity_variance": 0.05001779645681381, "pos_horiz_variance": 0.005745127331465483, "pos_vert_variance": 0.04562214016914368}}, "errors": ["Arm: Compasses inconsistent"]}
{"timestamp": "2026-01-24T21:17:40.955074Z", "telemetry": {"lat": 28.7532639, "lon": 77.1173398, "satellites": 9, "altitude_gps_m": 204.97000122070312, "groundspeed_mps": 0.03512393310666084}, "flight": {"mode": "STABILIZE", "armed": false}, "ekf": {"attitude": {"roll": 0.015927711501717567, "pitch": -0.07330914586782455, "yaw": 2.9439857006073}, "local_position": {"x": 18.545059204101562, "y": -43.80183410644531, "z": 3.5451600551605225}, "status": {"flags": 831, "velocity_variance": 0.05679986998438835, "pos_horiz_variance": 0.0062900143675506115, "pos_vert_variance": 0.047878820449113846}}, "errors": ["Arm: Compasses inconsistent"]}
{"timestamp": "2026-01-24T21:17:41.955330Z", "telemetry": {"lat": 28.7532633, "lon": 77.1173402, "satellites": 9, "altitude_gps_m": 205.29998779296875, "groundspeed_mps": 0.03527173399925232}, "flight": {"mode": "STABILIZE", "armed": false}, "ekf": {"attitude": {"roll": 0.01594390906393528, "pitch": -0.07368214428424835, "yaw": 2.944190740585327}, "local_position": {"x": 18.52052879333496, "y": -43.827598571777344, "z": 3.2698841094970703}, "status": {"flags": 831, "velocity_variance": 0.01785966195166111, "pos_horiz_variance": 0.011524103581905365, "pos_vert_variance": 0.040368903428316116}}, "errors": ["Arm: Compasses inconsistent"]}
{"timestamp": "2026-01-24T21:17:42.956272Z", "telemetry": {"lat": 28.7532628, "lon": 77.1173403, "satellites": 9, "altitude_gps_m": 205.4199981689453, "groundspeed_mps": 0.017834216356277466}, "flight": {"mode": "STABILIZE", "armed": false}, "ekf": {"attitude": {"roll": 0.015618550591170788, "pitch": -0.07392437756061554, "yaw": 2.944401741027832}, "local_position": {"x": 18.47800064086914, "y": -43.791465759277344, "z": 3.0914056301116943}, "status": {"flags": 831, "velocity_variance": 0.06836819648742676, "pos_horiz_variance": 0.011494692414999008, "pos_vert_variance": 0.03685564920306206}}, "errors": ["Arm: Compasses inconsistent", "Arm: Compasses inconsistent"]}
{"timestamp": "2026-01-24T21:17:43.926371Z", "telemetry": {"lat": 28.7532621, "lon": 77.1173399, "satellites": 9, "altitude_gps_m": 205.5800018310547, "groundspeed_mps": 0.009587486274540424}, "flight": {"mode": "STABILIZE", "armed": false}, "ekf": {"attitude": {"roll": 0.01529224868863821, "pitch": -0.07409825921058655, "yaw": 2.944732904434204}, "local_position": {"x": 18.430925369262695, "y": -43.751399993896484, "z": 2.928933620452881}, "status": {"flags": 831, "velocity_variance": 0.053907521069049835, "pos_horiz_variance": 0.009630858898162842, "pos_vert_variance": 0.045952145010232925}}, "errors": ["Arm: Compasses inconsistent", "Arm: Compasses inconsistent"]}
{"timestamp": "2026-01-24T21:17:44.955915Z", "telemetry": {"lat": 28.7532617, "lon": 77.1173396, "satellites": 9, "altitude_gps_m": 205.77999877929688, "groundspeed_mps": 0.012221681885421276}, "flight": {"mode": "STABILIZE", "armed": false}, "ekf": {"attitude": {"roll": 0.015474324114620686, "pitch": -0.0741959661245346, "yaw": 2.9449567794799805}, "local_position": {"x": 18.394601821899414, "y": -43.76073455810547, "z": 2.7367570400238037}, "status": {"flags": 831, "velocity_variance": 0.017840269953012466, "pos_horiz_variance": 0.010244468227028847, "pos_vert_variance": 0.04730462655425072}}, "errors": ["Arm: Compasses inconsistent", "Arm: Compasses inconsistent"]}
{"timestamp": "2026-01-24T21:17:45.954783Z", "telemetry": {"lat": 28.7532618, "lon": 77.1173397, "satellites": 9, "altitude_gps_m": 206.00999450683594, "groundspeed_mps": 0.028068168088793755}, "flight": {"mode": "STABILIZE", "armed": false}, "ekf": {"attitude": {"roll": 0.015779804438352585, "pitch": -0.07406046241521835, "yaw": 2.9450671672821045}, "local_position": {"x": 18.33972930908203, "y": -43.79453659057617, "z": 2.504016876220703}, "status": {"flags": 831, "velocity_variance": 0.06895218789577484, "pos_horiz_variance": 0.00625249557197094, "pos_vert_variance": 0.039272941648960114}}, "errors": ["Arm: Compasses inconsistent", "Arm: Compasses inconsistent", "Arm: Compasses inconsistent"]}
{"timestamp": "2026-01-24T21:17:46.954993Z", "telemetry": {"lat": 28.7532615, "lon": 77.1173388, "satellites": 9, "altitude_gps_m": 206.17999267578125, "groundspeed_mps": 0.026808900758624077}, "flight": {"mode": "STABILIZE", "armed": false}, "ekf": {"attitude": {"roll": 0.015691719949245453, "pitch": -0.07368271052837372, "yaw": 2.9455461502075195}, "local_position": {"x": 18.344324111938477, "y": -43.822608947753906, "z": 2.3314287662506104}, "status": {"flags": 831, "velocity_variance": 0.0635056123137474, "pos_horiz_variance": 0.008014022372663021, "pos_vert_variance": 0.04614444822072983}}, "errors": ["Arm: Compasses inconsistent", "Arm: Compasses inconsistent", "Arm: Compasses inconsistent"]}
{"timestamp": "2026-01-24T21:17:47.955140Z", "telemetry": {"lat": 28.7532597, "lon": 77.1173367, "satellites": 9, "altitude_gps_m": 206.4199981689453, "groundspeed_mps": 0.0410614088177681}, "flight": {"mode": "STABILIZE", "armed": false}, "ekf": {"attitude": {"roll": 0.01713993400335312, "pitch": -0.07116560637950897, "yaw": 2.9488537311553955}, "local_position": {"x": 18.314695358276367, "y": -43.8889045715332, "z": 2.0928893089294434}, "status": {"flags": 831, "velocity_variance": 0.07244701683521271, "pos_horiz_variance": 0.025133702903985977, "pos_vert_variance": 0.07258106768131256}}, "errors": ["Arm: Compasses inconsistent", "Arm: Compasses inconsistent", "Arm: Compasses inconsistent"]}
{"timestamp": "2026-01-24T21:17:48.925804Z", "telemetry": {"lat": 28.7532582, "lon": 77.1173359, "satellites": 9, "altitude_gps_m": 206.6699981689453, "groundspeed_mps": 0.04276984557509422}, "flight": {"mode": "STABILIZE", "armed": false}, "ekf": {"attitude": {"roll": 0.017031854018568993, "pitch": -0.07046720385551453, "yaw": 2.9493250846862793}, "local_position": {"x": 18.201126098632812, "y": -43.94422912597656, "z": 1.8465222120285034}, "status": {"flags": 831, "velocity_variance": 0.06828282028436661, "pos_horiz_variance": 0.029354196041822433, "pos_vert_variance": 0.0657961368560791}}, "errors": ["Arm: Compasses inconsistent", "Arm: Compasses inconsistent", "Arm: Compasses inconsistent", "Arm: Compasses inconsistent"]}
{"timestamp": "2026-01-24T21:17:49.954756Z", "telemetry": {"lat": 28.7532573, "lon": 77.1173351, "satellites": 9, "altitude_gps_m": 206.8699951171875, "groundspeed_mps": 0.057367559522390366}, "flight": {"mode": "STABILIZE", "armed": false}, "ekf": {"attitude": {"roll": 0.01889270916581154, "pitch": -0.06284834444522858, "yaw": 2.9558629989624023}, "local_position": {"x": 18.09139060974121, "y": -44.00841522216797, "z": 1.6404386758804321}, "status": {"flags": 831, "velocity_variance": 0.0397028885781765, "pos_horiz_variance": 0.029672283679246902, "pos_vert_variance": 0.054356105625629425}}, "errors": ["Arm: Compasses inconsistent", "Arm: Compasses inconsistent", "Arm: Compasses inconsistent", "Arm: Compasses inconsistent"]}
{"timestamp": "2026-01-24T21:17:50.954909Z", "telemetry": {"lat": 28.753257, "lon": 77.1173345, "satellites": 9, "altitude_gps_m": 207.0800018310547, "groundspeed_mps": 0.04559053108096123}, "flight": {"mode": "STABILIZE", "armed": false}, "ekf": {"attitude": {"roll": 0.01532758679240942, "pitch": -0.06824390590190887, "yaw": 2.9492619037628174}, "local_position": {"x": 18.0541934967041, "y": -44.08062744140625, "z": 1.430448055267334}, "status": {"flags": 831, "velocity_variance": 0.05964720621705055, "pos_horiz_variance": 0.02814139425754547, "pos_vert_variance": 0.04275479540228844}}, "errors": ["Arm: Compasses inconsistent", "Arm: Compasses inconsistent", "Arm: Compasses inconsistent", "Arm: Compasses inconsistent"]}
{"timestamp": "2026-01-24T21:17:51.955132Z", "telemetry": {"lat": 28.7532564, "lon": 77.1173339, "satellites": 9, "altitude_gps_m": 207.25999450683594, "groundspeed_mps": 0.05411377549171448}, "flight": {"mode": "STABILIZE", "armed": false}, "ekf": {"attitude": {"roll": 0.015072743408381939, "pitch": -0.06876417249441147, "yaw": 2.9480812549591064}, "local_position": {"x": 17.942476272583008, "y": -44.15328598022461, "z": 1.2577838897705078}, "status": {"flags": 831, "velocity_variance": 0.03199383243918419, "pos_horiz_variance": 0.02436094731092453, "pos_vert_variance": 0.025553669780492783}}, "errors": ["Arm: Compasses inconsistent", "Arm: Compasses inconsistent", "Arm: Compasses inconsistent", "Arm: Compasses inconsistent", "PreArm: Compasses inconsistent"]}
{"timestamp": "2026-01-24T21:17:52.954977Z", "telemetry": {"lat": 28.7532562, "lon": 77.1173331, "satellites": 9, "altitude_gps_m": 207.37998962402344, "groundspeed_mps": 0.04995601996779442}, "flight": {"mode": "STABILIZE", "armed": false}, "ekf": {"attitude": {"roll": 0.014760938473045826, "pitch": -0.06932372599840164, "yaw": 2.947880983352661}, "local_position": {"x": 17.871217727661133, "y": -44.22296142578125, "z": 1.1374074220657349}, "status": {"flags": 831, "velocity_variance": 0.07037068158388138, "pos_horiz_variance": 0.021664934232831, "pos_vert_variance": 0.007456309627741575}}, "errors": ["Arm: Compasses inconsistent", "Arm: Compasses inconsistent", "Arm: Compasses inconsistent", "Arm: Compasses inconsistent", "PreArm: Compasses inconsistent"]}
{"timestamp": "2026-01-24T21:17:53.950460Z", "telemetry": {"lat": 28.7532556, "lon": 77.1173317, "satellites": 9, "altitude_gps_m": 207.4099884033203, "groundspeed_mps": 0.033794574439525604}, "flight": {"mode": "STABILIZE", "armed": false}, "ekf": {"attitude": {"roll": 0.016313018277287483, "pitch": -0.06638403236865997, "yaw": 2.9505867958068848}, "local_position": {"x": 17.819469451904297, "y": -44.28693389892578, "z": 1.1056528091430664}, "status": {"flags": 831, "velocity_variance": 0.04415494203567505, "pos_horiz_variance": 0.02560141123831272, "pos_vert_variance": 0.0055811479687690735}}, "errors": ["Arm: Compasses inconsistent", "Arm: Compasses inconsistent", "Arm: Compasses inconsistent", "Arm: Compasses inconsistent", "PreArm: Compasses inconsistent"]}
{"timestamp": "2026-01-24T21:17:54.909681Z", "telemetry": {"lat": 28.7532556, "lon": 77.1173317, "satellites": 9, "altitude_gps_m": 207.4099884033203, "groundspeed_mps": 0.033794574439525604}, "flight": {"mode": "STABILIZE", "armed": false}, "ekf": {"attitude": {"roll": 0.016313018277287483, "pitch": -0.06638403236865997, "yaw": 2.9505867958068848}, "local_position": {"x": 17.819469451904297, "y": -44.28693389892578, "z": 1.1056528091430664}, "status": {"flags": 831, "velocity_variance": 0.04415494203567505, "pos_horiz_variance": 0.02560141123831272, "pos_vert_variance": 0.0055811479687690735}}, "errors": ["Arm: Compasses inconsistent", "Arm: Compasses inconsistent", "Arm: Compasses inconsistent", "Arm: Compasses inconsistent", "PreArm: Compasses inconsistent"]}
{"timestamp": "2026-01-24T21:17:55.909669Z", "telemetry": {"lat": 28.7532556, "lon": 77.1173317, "satellites": 9, "altitude_gps_m": 207.4099884033203, "groundspeed_mps": 0.033794574439525604}, "flight": {"mode": "STABILIZE", "armed": false}, "ekf": {"attitude": {"roll": 0.016313018277287483, "pitch": -0.06638403236865997, "yaw": 2.9505867958068848}, "local_position": {"x": 17.819469451904297, "y": -44.28693389892578, "z": 1.1056528091430664}, "status": {"flags": 831, "velocity_variance": 0.04415494203567505, "pos_horiz_variance": 0.02560141123831272, "pos_vert_variance": 0.0055811479687690735}}, "errors": ["Arm: Compasses inconsistent", "Arm: Compasses inconsistent", "Arm: Compasses inconsistent", "Arm: Compasses inconsistent", "PreArm: Compasses inconsistent"]}
{"timestamp": "2026-01-24T21:17:56.926266Z", "telemetry": {"lat": 28.7532556, "lon": 77.1173317, "satellites": 9, "altitude_gps_m": 207.4099884033203, "groundspeed_mps": 0.033794574439525604}, "flight": {"mode": "STABILIZE", "armed": false}, "ekf": {"attitude": {"roll": 0.016313018277287483, "pitch": -0.06638403236865997, "yaw": 2.9505867958068848}, "local_position": {"x": 17.819469451904297, "y": -44.28693389892578, "z": 1.1056528091430664}, "status": {"flags": 831, "velocity_variance": 0.04415494203567505, "pos_horiz_variance": 0.02560141123831272, "pos_vert_variance": 0.0055811479687690735}}, "errors": ["Arm: Compasses inconsistent", "Arm: Compasses inconsistent", "Arm: Compasses inconsistent", "Arm: Compasses inconsistent", "PreArm: Compasses inconsistent"]}
{"timestamp": "2026-01-24T21:17:57.909785Z", "telemetry": {"lat": 28.7532556, "lon": 77.1173317, "satellites": 9, "altitude_gps_m": 207.4099884033203, "groundspeed_mps": 0.033794574439525604}, "flight": {"mode": "STABILIZE", "armed": false}, "ekf": {"attitude": {"roll": 0.016313018277287483, "pitch": -0.06638403236865997, "yaw": 2.9505867958068848}, "local_position": {"x": 17.819469451904297, "y": -44.28693389892578, "z": 1.1056528091430664}, "status": {"flags": 831, "velocity_variance": 0.04415494203567505, "pos_horiz_variance": 0.02560141123831272, "pos_vert_variance": 0.0055811479687690735}}, "errors": ["Arm: Compasses inconsistent", "Arm: Compasses inconsistent", "Arm: Compasses inconsistent", "Arm: Compasses inconsistent", "PreArm: Compasses inconsistent"]}
{"timestamp": "2026-01-24T21:17:58.916189Z", "telemetry": {"lat": 28.7532556, "lon": 77.1173317, "satellites": 9, "altitude_gps_m": 207.4099884033203, "groundspeed_mps": 0.033794574439525604}, "flight": {"mode": "STABILIZE", "armed": false}, "ekf": {"attitude": {"roll": 0.016313018277287483, "pitch": -0.06638403236865997, "yaw": 2.9505867958068848}, "local_position": {"x": 17.819469451904297, "y": -44.28693389892578, "z": 1.1056528091430664}, "status": {"flags": 831, "velocity_variance": 0.04415494203567505, "pos_horiz_variance": 0.02560141123831272, "pos_vert_variance": 0.0055811479687690735}}, "errors": ["Arm: Compasses inconsistent", "Arm: Compasses inconsistent", "Arm: Compasses inconsistent", "Arm: Compasses inconsistent", "PreArm: Compasses inconsistent"]}
{"timestamp": "2026-01-24T21:17:59.918882Z", "telemetry": {"lat": 28.7532556, "lon": 77.1173317, "satellites": 9, "altitude_gps_m": 207.4099884033203, "groundspeed_mps": 0.033794574439525604}, "flight": {"mode": "STABILIZE", "armed": false}, "ekf": {"attitude": {"roll": 0.016313018277287483, "pitch": -0.06638403236865997, "yaw": 2.9505867958068848}, "local_position": {"x": 17.819469451904297, "y": -44.28693389892578, "z": 1.1056528091430664}, "status": {"flags": 831, "velocity_variance": 0.04415494203567505, "pos_horiz_variance": 0.02560141123831272, "pos_vert_variance": 0.0055811479687690735}}, "errors": ["Arm: Compasses inconsistent", "Arm: Compasses inconsistent", "Arm: Compasses inconsistent", "Arm: Compasses inconsistent", "PreArm: Compasses inconsistent"]}
{"timestamp": "2026-01-24T21:18:00.946753Z", "telemetry": {"lat": 28.7532556, "lon": 77.1173317, "satellites": 9, "altitude_gps_m": 207.4099884033203, "groundspeed_mps": 0.033794574439525604}, "flight": {"mode": "STABILIZE", "armed": false}, "ekf": {"attitude": {"roll": 0.016313018277287483, "pitch": -0.06638403236865997, "yaw": 2.9505867958068848}, "local_position": {"x": 17.819469451904297, "y": -44.28693389892578, "z": 1.1056528091430664}, "status": {"flags": 831, "velocity_variance": 0.04415494203567505, "pos_horiz_variance": 0.02560141123831272, "pos_vert_variance": 0.0055811479687690735}}, "errors": ["Arm: Compasses inconsistent", "Arm: Compasses inconsistent", "Arm: Compasses inconsistent", "Arm: Compasses inconsistent", "PreArm: Compasses inconsistent"]}
{"timestamp": "2026-01-24T21:18:01.946419Z", "telemetry": {"lat": 28.7532556, "lon": 77.1173317, "satellites": 9, "altitude_gps_m": 207.4099884033203, "groundspeed_mps": 0.033794574439525604}, "flight": {"mode": "STABILIZE", "armed": false}, "ekf": {"attitude": {"roll": 0.016313018277287483, "pitch": -0.06638403236865997, "yaw": 2.9505867958068848}, "local_position": {"x": 17.819469451904297, "y": -44.28693389892578, "z": 1.1056528091430664}, "status": {"flags": 831, "velocity_variance": 0.04415494203567505, "pos_horiz_variance": 0.02560141123831272, "pos_vert_variance": 0.0055811479687690735}}, "errors": ["Arm: Compasses inconsistent", "Arm: Compasses inconsistent", "Arm: Compasses inconsistent", "Arm: Compasses inconsistent", "PreArm: Compasses inconsistent"]}
{"timestamp": "2026-01-24T21:18:02.946744Z", "telemetry": {"lat": 28.7532556, "lon": 77.1173317, "satellites": 9, "altitude_gps_m": 207.4099884033203, "groundspeed_mps": 0.033794574439525604}, "flight": {"mode": "STABILIZE", "armed": false}, "ekf": {"attitude": {"roll": 0.016313018277287483, "pitch": -0.06638403236865997, "yaw": 2.9505867958068848}, "local_position": {"x": 17.819469451904297, "y": -44.28693389892578, "z": 1.1056528091430664}, "status": {"flags": 831, "velocity_variance": 0.04415494203567505, "pos_horiz_variance": 0.02560141123831272, "pos_vert_variance": 0.0055811479687690735}}, "errors": ["Arm: Compasses inconsistent", "Arm: Compasses inconsistent", "Arm: Compasses inconsistent", "Arm: Compasses inconsistent", "PreArm: Compasses inconsistent"]}
{"timestamp": "2026-01-24T21:18:03.946598Z", "telemetry": {"lat": 28.7532556, "lon": 77.1173317, "satellites": 9, "altitude_gps_m": 207.4099884033203, "groundspeed_mps": 0.033794574439525604}, "flight": {"mode": "STABILIZE", "armed": false}, "ekf": {"attitude": {"roll": 0.016313018277287483, "pitch": -0.06638403236865997, "yaw": 2.9505867958068848}, "local_position": {"x": 17.819469451904297, "y": -44.28693389892578, "z": 1.1056528091430664}, "status": {"flags": 831, "velocity_variance": 0.04415494203567505, "pos_horiz_variance": 0.02560141123831272, "pos_vert_variance": 0.0055811479687690735}}, "errors": ["Arm: Compasses inconsistent", "Arm: Compasses inconsistent", "Arm: Compasses inconsistent", "Arm: Compasses inconsistent", "PreArm: Compasses inconsistent", "RCInput: decoding PPM(1)"]}
{"timestamp": "2026-01-24T21:18:04.946879Z", "telemetry": {"lat": 28.7532556, "lon": 77.1173317, "satellites": 9, "altitude_gps_m": 207.4099884033203, "groundspeed_mps": 0.033794574439525604}, "flight": {"mode": "STABILIZE", "armed": false}, "ekf": {"attitude": {"roll": 0.016313018277287483, "pitch": -0.06638403236865997, "yaw": 2.9505867958068848}, "local_position": {"x": 17.819469451904297, "y": -44.28693389892578, "z": 1.1056528091430664}, "status": {"flags": 831, "velocity_variance": 0.04415494203567505, "pos_horiz_variance": 0.02560141123831272, "pos_vert_variance": 0.0055811479687690735}}, "errors": ["Arm: Compasses inconsistent", "Arm: Compasses inconsistent", "Arm: Compasses inconsistent", "Arm: Compasses inconsistent", "PreArm: Compasses inconsistent", "RCInput: decoding PPM(1)", "Calibrating barometer"]}
{"timestamp": "2026-01-24T21:18:05.945847Z", "telemetry": {"lat": 28.7532556, "lon": 77.1173317, "satellites": 9, "altitude_gps_m": 207.4099884033203, "groundspeed_mps": 0.033794574439525604}, "flight": {"mode": "STABILIZE", "armed": false}, "ekf": {"attitude": {"roll": 0.016313018277287483, "pitch": -0.06638403236865997, "yaw": 2.9505867958068848}, "local_position": {"x": 17.819469451904297, "y": -44.28693389892578, "z": 1.1056528091430664}, "status": {"flags": 831, "velocity_variance": 0.04415494203567505, "pos_horiz_variance": 0.02560141123831272, "pos_vert_variance": 0.0055811479687690735}}, "errors": ["Arm: Compasses inconsistent", "Arm: Compasses inconsistent", "Arm: Compasses inconsistent", "Arm: Compasses inconsistent", "PreArm: Compasses inconsistent", "RCInput: decoding PPM(1)", "Calibrating barometer", "Barometer 1 calibration complete"]}
{"timestamp": "2026-01-24T21:18:06.945625Z", "telemetry": {"lat": 28.7532556, "lon": 77.1173317, "satellites": 9, "altitude_gps_m": 207.4099884033203, "groundspeed_mps": 0.033794574439525604}, "flight": {"mode": "STABILIZE", "armed": false}, "ekf": {"attitude": {"roll": 0.016313018277287483, "pitch": -0.06638403236865997, "yaw": 2.9505867958068848}, "local_position": {"x": 17.819469451904297, "y": -44.28693389892578, "z": 1.1056528091430664}, "status": {"flags": 831, "velocity_variance": 0.04415494203567505, "pos_horiz_variance": 0.02560141123831272, "pos_vert_variance": 0.0055811479687690735}}, "errors": ["Arm: Compasses inconsistent", "Arm: Compasses inconsistent", "Arm: Compasses inconsistent", "Arm: Compasses inconsistent", "PreArm: Compasses inconsistent", "RCInput: decoding PPM(1)", "Calibrating barometer", "Barometer 1 calibration complete", "Initialising ArduPilot"]}
{"timestamp": "2026-01-24T21:18:07.918753Z", "telemetry": {"lat": 0.0, "lon": 0.0, "satellites": 0, "altitude_gps_m": 207.4099884033203, "groundspeed_mps": 0.033794574439525604}, "flight": {"mode": "STABILIZE", "armed": false}, "ekf": {"attitude": {"roll": 0.016313018277287483, "pitch": -0.06638403236865997, "yaw": 2.9505867958068848}, "local_position": {"x": 17.819469451904297, "y": -44.28693389892578, "z": 1.1056528091430664}, "status": {"flags": 831, "velocity_variance": 0.04415494203567505, "pos_horiz_variance": 0.02560141123831272, "pos_vert_variance": 0.0055811479687690735}}, "errors": ["Arm: Compasses inconsistent", "Arm: Compasses inconsistent", "Arm: Compasses inconsistent", "Arm: Compasses inconsistent", "PreArm: Compasses inconsistent", "RCInput: decoding PPM(1)", "Calibrating barometer", "Barometer 1 calibration complete", "Initialising ArduPilot", "ArduPilot Ready", "AHRS: DCM active", "RCOut: PWM:1-14"]}
{"timestamp": "2026-01-24T21:18:08.914194Z", "telemetry": {"lat": 0.0, "lon": 0.0, "satellites": 0, "altitude_gps_m": 207.4099884033203, "groundspeed_mps": 0.033794574439525604}, "flight": {"mode": "STABILIZE", "armed": false}, "ekf": {"attitude": {"roll": 0.016313018277287483, "pitch": -0.06638403236865997, "yaw": 2.9505867958068848}, "local_position": {"x": 17.819469451904297, "y": -44.28693389892578, "z": 1.1056528091430664}, "status": {"flags": 1024, "velocity_variance": 0.0, "pos_horiz_variance": 0.0, "pos_vert_variance": 0.0}}, "errors": ["Arm: Compasses inconsistent", "Arm: Compasses inconsistent", "Arm: Compasses inconsistent", "Arm: Compasses inconsistent", "PreArm: Compasses inconsistent", "RCInput: decoding PPM(1)", "Calibrating barometer", "Barometer 1 calibration complete", "Initialising ArduPilot", "ArduPilot Ready", "AHRS: DCM active", "RCOut: PWM:1-14"]}
{"timestamp": "2026-01-24T21:18:09.945505Z", "telemetry": {"lat": 0.0, "lon": 0.0, "satellites": 0, "altitude_gps_m": 207.4099884033203, "groundspeed_mps": 0.033794574439525604}, "flight": {"mode": "STABILIZE", "armed": false}, "ekf": {"attitude": {"roll": 0.016313018277287483, "pitch": -0.06638403236865997, "yaw": 2.9505867958068848}, "local_position": {"x": 17.819469451904297, "y": -44.28693389892578, "z": 1.1056528091430664}, "status": {"flags": 1024, "velocity_variance": 0.0, "pos_horiz_variance": 8.575526589993387e-05, "pos_vert_variance": 0.029560187831521034}}, "errors": ["Arm: Compasses inconsistent", "Arm: Compasses inconsistent", "Arm: Compasses inconsistent", "Arm: Compasses inconsistent", "PreArm: Compasses inconsistent", "RCInput: decoding PPM(1)", "Calibrating barometer", "Barometer 1 calibration complete", "Initialising ArduPilot", "ArduPilot Ready", "AHRS: DCM active", "RCOut: PWM:1-14", "EKF3 IMU0 initialised", "EKF3 IMU1 initialised", "AHRS: EKF3 active"]}
{"timestamp": "2026-01-24T21:18:10.945286Z", "telemetry": {"lat": 0.0, "lon": 0.0, "satellites": 0, "altitude_gps_m": 207.4099884033203, "groundspeed_mps": 0.033794574439525604}, "flight": {"mode": "STABILIZE", "armed": false}, "ekf": {"attitude": {"roll": 0.016313018277287483, "pitch": -0.06638403236865997, "yaw": 2.9505867958068848}, "local_position": {"x": 17.819469451904297, "y": -44.28693389892578, "z": 1.1056528091430664}, "status": {"flags": 0, "velocity_variance": 0.0, "pos_horiz_variance": 0.000692049041390419, "pos_vert_variance": 0.003360738977789879}}, "errors": ["Arm: Compasses inconsistent", "Arm: Compasses inconsistent", "Arm: Compasses inconsistent", "Arm: Compasses inconsistent", "PreArm: Compasses inconsistent", "RCInput: decoding PPM(1)", "Calibrating barometer", "Barometer 1 calibration complete", "Initialising ArduPilot", "ArduPilot Ready", "AHRS: DCM active", "RCOut: PWM:1-14", "EKF3 IMU0 initialised", "EKF3 IMU1 initialised", "AHRS: EKF3 active", "EKF3 IMU0 tilt alignment complete", "EKF3 IMU1 tilt alignment complete", "EKF3 IMU0 MAG0 initial yaw alignment complete", "EKF3 IMU1 MAG0 initial yaw alignment complete"]}
{"timestamp": "2026-01-24T21:18:11.945275Z", "telemetry": {"lat": 0.0, "lon": 0.0, "satellites": 0, "altitude_gps_m": 207.4099884033203, "groundspeed_mps": 0.033794574439525604}, "flight": {"mode": "STABILIZE", "armed": false}, "ekf": {"attitude": {"roll": 0.016313018277287483, "pitch": -0.06638403236865997, "yaw": 2.9505867958068848}, "local_position": {"x": 17.819469451904297, "y": -44.28693389892578, "z": 1.1056528091430664}, "status": {"flags": 135, "velocity_variance": 0.0, "pos_horiz_variance": 0.00043023849138990045, "pos_vert_variance": 0.016273746266961098}}, "errors": ["Arm: Compasses inconsistent", "Arm: Compasses inconsistent", "Arm: Compasses inconsistent", "Arm: Compasses inconsistent", "PreArm: Compasses inconsistent", "RCInput: decoding PPM(1)", "Calibrating barometer", "Barometer 1 calibration complete", "Initialising ArduPilot", "ArduPilot Ready", "AHRS: DCM active", "RCOut: PWM:1-14", "EKF3 IMU0 initialised", "EKF3 IMU1 initialised", "AHRS: EKF3 active", "EKF3 IMU0 tilt alignment complete", "EKF3 IMU1 tilt alignment complete", "EKF3 IMU0 MAG0 initial yaw alignment complete", "EKF3 IMU1 MAG0 initial yaw alignment complete"]}
{"timestamp": "2026-01-24T21:18:12.945400Z", "telemetry": {"lat": 0.0, "lon": 0.0, "satellites": 0, "altitude_gps_m": 207.4099884033203, "groundspeed_mps": 0.033794574439525604}, "flight": {"mode": "STABILIZE", "armed": false}, "ekf": {"attitude": {"roll": 0.016313018277287483, "pitch": -0.06638403236865997, "yaw": 2.9505867958068848}, "local_position": {"x": 17.819469451904297, "y": -44.28693389892578, "z": 1.1056528091430664}, "status": {"flags": 135, "velocity_variance": 0.0, "pos_horiz_variance": 0.000573673052713275, "pos_vert_variance": 0.02023668773472309}}, "errors": ["Arm: Compasses inconsistent", "Arm: Compasses inconsistent", "Arm: Compasses inconsistent", "Arm: Compasses inconsistent", "PreArm: Compasses inconsistent", "RCInput: decoding PPM(1)", "Calibrating barometer", "Barometer 1 calibration complete", "Initialising ArduPilot", "ArduPilot Ready", "AHRS: DCM active", "RCOut: PWM:1-14", "EKF3 IMU0 initialised", "EKF3 IMU1 initialised", "AHRS: EKF3 active", "EKF3 IMU0 tilt alignment complete", "EKF3 IMU1 tilt alignment complete", "EKF3 IMU0 MAG0 initial yaw alignment complete", "EKF3 IMU1 MAG0 initial yaw alignment complete"]}
{"timestamp": "2026-01-24T21:18:13.945478Z", "telemetry": {"lat": 0.0, "lon": 0.0, "satellites": 0, "altitude_gps_m": 207.4099884033203, "groundspeed_mps": 0.033794574439525604}, "flight": {"mode": "STABILIZE", "armed": false}, "ekf": {"attitude": {"roll": 0.016313018277287483, "pitch": -0.06638403236865997, "yaw": 2.9505867958068848}, "local_position": {"x": 17.819469451904297, "y": -44.28693389892578, "z": 1.1056528091430664}, "status": {"flags": 135, "velocity_variance": 0.0, "pos_horiz_variance": 0.0011569272028282285, "pos_vert_variance": 0.02744895964860916}}, "errors": ["Arm: Compasses inconsistent", "Arm: Compasses inconsistent", "Arm: Compasses inconsistent", "Arm: Compasses inconsistent", "PreArm: Compasses inconsistent", "RCInput: decoding PPM(1)", "Calibrating barometer", "Barometer 1 calibration complete", "Initialising ArduPilot", "ArduPilot Ready", "AHRS: DCM active", "RCOut: PWM:1-14", "EKF3 IMU0 initialised", "EKF3 IMU1 initialised", "AHRS: EKF3 active", "EKF3 IMU0 tilt alignment complete", "EKF3 IMU1 tilt alignment complete", "EKF3 IMU0 MAG0 initial yaw alignment complete", "EKF3 IMU1 MAG0 initial yaw alignment complete"]}
{"timestamp": "2026-01-24T21:18:14.913723Z", "telemetry": {"lat": 0.0, "lon": 0.0, "satellites": 0, "altitude_gps_m": 207.4099884033203, "groundspeed_mps": 0.033794574439525604}, "flight": {"mode": "STABILIZE", "armed": false}, "ekf": {"attitude": {"roll": 0.016313018277287483, "pitch": -0.06638403236865997, "yaw": 2.9505867958068848}, "local_position": {"x": 17.819469451904297, "y": -44.28693389892578, "z": 1.1056528091430664}, "status": {"flags": 135, "velocity_variance": 0.0, "pos_horiz_variance": 0.0014067229349166155, "pos_vert_variance": 0.023469258099794388}}, "errors": ["Arm: Compasses inconsistent", "Arm: Compasses inconsistent", "Arm: Compasses inconsistent", "PreArm: Compasses inconsistent", "RCInput: decoding PPM(1)", "Calibrating barometer", "Barometer 1 calibration complete", "Initialising ArduPilot", "ArduPilot Ready", "AHRS: DCM active", "RCOut: PWM:1-14", "EKF3 IMU0 initialised", "EKF3 IMU1 initialised", "AHRS: EKF3 active", "EKF3 IMU0 tilt alignment complete", "EKF3 IMU1 tilt alignment complete", "EKF3 IMU0 MAG0 initial yaw alignment complete", "EKF3 IMU1 MAG0 initial yaw alignment complete", "GPS 1: probing for u-blox at 230400 baud", "GPS 1: detected u-blox"]}
{"timestamp": "2026-01-24T21:18:15.945082Z", "telemetry": {"lat": 28.7532618, "lon": 77.1173317, "satellites": 9, "altitude_gps_m": 207.4099884033203, "groundspeed_mps": 0.033794574439525604}, "flight": {"mode": "STABILIZE", "armed": false}, "ekf": {"attitude": {"roll": 0.016313018277287483, "pitch": -0.06638403236865997, "yaw": 2.9505867958068848}, "local_position": {"x": 17.819469451904297, "y": -44.28693389892578, "z": 1.1056528091430664}, "status": {"flags": 135, "velocity_variance": 0.0, "pos_horiz_variance": 0.00127915118355304, "pos_vert_variance": 0.026989104226231575}}, "errors": ["Arm: Compasses inconsistent", "Arm: Compasses inconsistent", "Arm: Compasses inconsistent", "PreArm: Compasses inconsistent", "RCInput: decoding PPM(1)", "Calibrating barometer", "Barometer 1 calibration complete", "Initialising ArduPilot", "ArduPilot Ready", "AHRS: DCM active", "RCOut: PWM:1-14", "EKF3 IMU0 initialised", "EKF3 IMU1 initialised", "AHRS: EKF3 active", "EKF3 IMU0 tilt alignment complete", "EKF3 IMU1 tilt alignment complete", "EKF3 IMU0 MAG0 initial yaw alignment complete", "EKF3 IMU1 MAG0 initial yaw alignment complete", "GPS 1: probing for u-blox at 230400 baud", "GPS 1: detected u-blox"]}
{"timestamp": "2026-01-24T21:18:16.945087Z", "telemetry": {"lat": 28.7532624, "lon": 77.1173311, "satellites": 9, "altitude_gps_m": 207.4099884033203, "groundspeed_mps": 0.033794574439525604}, "flight": {"mode": "STABILIZE", "armed": false}, "ekf": {"attitude": {"roll": 0.016313018277287483, "pitch": -0.06638403236865997, "yaw": 2.9505867958068848}, "local_position": {"x": 17.819469451904297, "y": -44.28693389892578, "z": 1.1056528091430664}, "status": {"flags": 135, "velocity_variance": 0.0, "pos_horiz_variance": 0.0009642849327065051, "pos_vert_variance": 0.052437786012887955}}, "errors": ["Arm: Compasses inconsistent", "PreArm: Compasses inconsistent", "RCInput: decoding PPM(1)", "Calibrating barometer", "Barometer 1 calibration complete", "Initialising ArduPilot", "ArduPilot Ready", "AHRS: DCM active", "RCOut: PWM:1-14", "EKF3 IMU0 initialised", "EKF3 IMU1 initialised", "AHRS: EKF3 active", "EKF3 IMU0 tilt alignment complete", "EKF3 IMU1 tilt alignment complete", "EKF3 IMU0 MAG0 initial yaw alignment complete", "EKF3 IMU1 MAG0 initial yaw alignment complete", "GPS 1: probing for u-blox at 230400 baud", "GPS 1: detected u-blox", "Arm: Accels inconsistent", "Arm: Compasses inconsistent"]}
{"timestamp": "2026-01-24T21:18:17.945162Z", "telemetry": {"lat": 28.7532639, "lon": 77.1173305, "satellites": 9, "altitude_gps_m": 210.1999969482422, "groundspeed_mps": 0.023242684081196785}, "flight": {"mode": "STABILIZE", "armed": false}, "ekf": {"attitude": {"roll": 0.0035183557774871588, "pitch": -0.07513775676488876, "yaw": -3.0504260063171387}, "local_position": {"x": 17.819469451904297, "y": -44.28693389892578, "z": 1.1056528091430664}, "status": {"flags": 135, "velocity_variance": 0.0, "pos_horiz_variance": 0.0020762651693075895, "pos_vert_variance": 0.011523392051458359}}, "errors": ["Arm: Compasses inconsistent", "PreArm: Compasses inconsistent", "RCInput: decoding PPM(1)", "Calibrating barometer", "Barometer 1 calibration complete", "Initialising ArduPilot", "ArduPilot Ready", "AHRS: DCM active", "RCOut: PWM:1-14", "EKF3 IMU0 initialised", "EKF3 IMU1 initialised", "AHRS: EKF3 active", "EKF3 IMU0 tilt alignment complete", "EKF3 IMU1 tilt alignment complete", "EKF3 IMU0 MAG0 initial yaw alignment complete", "EKF3 IMU1 MAG0 initial yaw alignment complete", "GPS 1: probing for u-blox at 230400 baud", "GPS 1: detected u-blox", "Arm: Accels inconsistent", "Arm: Compasses inconsistent"]}
{"timestamp": "2026-01-24T21:18:18.945087Z", "telemetry": {"lat": 28.7532645, "lon": 77.1173315, "satellites": 9, "altitude_gps_m": 209.5399932861328, "groundspeed_mps": 0.024008991196751595}, "flight": {"mode": "STABILIZE", "armed": false}, "ekf": {"attitude": {"roll": 0.0035058206412941217, "pitch": -0.07473748922348022, "yaw": -3.0477750301361084}, "local_position": {"x": 17.819469451904297, "y": -44.28693389892578, "z": 1.1056528091430664}, "status": {"flags": 135, "velocity_variance": 0.0, "pos_horiz_variance": 0.0028211805038154125, "pos_vert_variance": 0.026359781622886658}}, "errors": ["PreArm: Compasses inconsistent", "RCInput: decoding PPM(1)", "Calibrating barometer", "Barometer 1 calibration complete", "Initialising ArduPilot", "ArduPilot Ready", "AHRS: DCM active", "RCOut: PWM:1-14", "EKF3 IMU0 initialised", "EKF3 IMU1 initialised", "AHRS: EKF3 active", "EKF3 IMU0 tilt alignment complete", "EKF3 IMU1 tilt alignment complete", "EKF3 IMU0 MAG0 initial yaw alignment complete", "EKF3 IMU1 MAG0 initial yaw alignment complete", "GPS 1: probing for u-blox at 230400 baud", "GPS 1: detected u-blox", "Arm: Accels inconsistent", "Arm: Compasses inconsistent", "GPS 1: u-blox saving config"]}
{"timestamp": "2026-01-24T21:18:19.944835Z", "telemetry": {"lat": 28.7532666, "lon": 77.1173349, "satellites": 9, "altitude_gps_m": 208.80999755859375, "groundspeed_mps": 0.02312229573726654}, "flight": {"mode": "STABILIZE", "armed": false}, "ekf": {"attitude": {"roll": 0.0037014444824308157, "pitch": -0.07459428906440735, "yaw": -3.04557204246521}, "local_position": {"x": 17.819469451904297, "y": -44.28693389892578, "z": 1.1056528091430664}, "status": {"flags": 135, "velocity_variance": 0.0, "pos_horiz_variance": 0.0030668792314827442, "pos_vert_variance": 0.02181730791926384}}, "errors": ["PreArm: Compasses inconsistent", "RCInput: decoding PPM(1)", "Calibrating barometer", "Barometer 1 calibration complete", "Initialising ArduPilot", "ArduPilot Ready", "AHRS: DCM active", "RCOut: PWM:1-14", "EKF3 IMU0 initialised", "EKF3 IMU1 initialised", "AHRS: EKF3 active", "EKF3 IMU0 tilt alignment complete", "EKF3 IMU1 tilt alignment complete", "EKF3 IMU0 MAG0 initial yaw alignment complete", "EKF3 IMU1 MAG0 initial yaw alignment complete", "GPS 1: probing for u-blox at 230400 baud", "GPS 1: detected u-blox", "Arm: Accels inconsistent", "Arm: Compasses inconsistent", "GPS 1: u-blox saving config"]}
{"timestamp": "2026-01-24T21:18:20.944944Z", "telemetry": {"lat": 28.7532684, "lon": 77.1173365, "satellites": 9, "altitude_gps_m": 208.4499969482422, "groundspeed_mps": 0.023327192291617393}, "flight": {"mode": "STABILIZE", "armed": false}, "ekf": {"attitude": {"roll": 0.0037971807178109884, "pitch": -0.07445497810840607, "yaw": -3.0448949337005615}, "local_position": {"x": 17.819469451904297, "y": -44.28693389892578, "z": 1.1056528091430664}, "status": {"flags": 135, "velocity_variance": 0.0, "pos_horiz_variance": 0.003595371963456273, "pos_vert_variance": 0.02524777315557003}}, "errors": ["PreArm: Compasses inconsistent", "RCInput: decoding PPM(1)", "Calibrating barometer", "Barometer 1 calibration complete", "Initialising ArduPilot", "ArduPilot Ready", "AHRS: DCM active", "RCOut: PWM:1-14", "EKF3 IMU0 initialised", "EKF3 IMU1 initialised", "AHRS: EKF3 active", "EKF3 IMU0 tilt alignment complete", "EKF3 IMU1 tilt alignment complete", "EKF3 IMU0 MAG0 initial yaw alignment complete", "EKF3 IMU1 MAG0 initial yaw alignment complete", "GPS 1: probing for u-blox at 230400 baud", "GPS 1: detected u-blox", "Arm: Accels inconsistent", "Arm: Compasses inconsistent", "GPS 1: u-blox saving config"]}
{"timestamp": "2026-01-24T21:18:21.945632Z", "telemetry": {"lat": 28.7532691, "lon": 77.1173372, "satellites": 9, "altitude_gps_m": 208.17999267578125, "groundspeed_mps": 0.022225383669137955}, "flight": {"mode": "STABILIZE", "armed": false}, "ekf": {"attitude": {"roll": 0.0038428085390478373, "pitch": -0.07422944903373718, "yaw": -3.04371976852417}, "local_position": {"x": 17.819469451904297, "y": -44.28693389892578, "z": 1.1056528091430664}, "status": {"flags": 135, "velocity_variance": 0.0, "pos_horiz_variance": 0.0038102557882666588, "pos_vert_variance": 0.007174322847276926}}, "errors": ["PreArm: Compasses inconsistent", "RCInput: decoding PPM(1)", "Calibrating barometer", "Barometer 1 calibration complete", "Initialising ArduPilot", "ArduPilot Ready", "AHRS: DCM active", "RCOut: PWM:1-14", "EKF3 IMU0 initialised", "EKF3 IMU1 initialised", "AHRS: EKF3 active", "EKF3 IMU0 tilt alignment complete", "EKF3 IMU1 tilt alignment complete", "EKF3 IMU0 MAG0 initial yaw alignment complete", "EKF3 IMU1 MAG0 initial yaw alignment complete", "GPS 1: probing for u-blox at 230400 baud", "GPS 1: detected u-blox", "Arm: Accels inconsistent", "Arm: Compasses inconsistent", "GPS 1: u-blox saving config"]}
{"timestamp": "2026-01-24T21:18:22.944778Z", "telemetry": {"lat": 28.7532697, "lon": 77.1173384, "satellites": 9, "altitude_gps_m": 207.6199951171875, "groundspeed_mps": 0.02355751022696495}, "flight": {"mode": "STABILIZE", "armed": false}, "ekf": {"attitude": {"roll": 0.0039991047233343124, "pitch": -0.0740194022655487, "yaw": -3.042579174041748}, "local_position": {"x": 17.819469451904297, "y": -44.28693389892578, "z": 1.1056528091430664}, "status": {"flags": 135, "velocity_variance": 0.0, "pos_horiz_variance": 0.004181812051683664, "pos_vert_variance": 0.02013024501502514}}, "errors": ["RCInput: decoding PPM(1)", "Calibrating barometer", "Barometer 1 calibration complete", "Initialising ArduPilot", "ArduPilot Ready", "AHRS: DCM active", "RCOut: PWM:1-14", "EKF3 IMU0 initialised", "EKF3 IMU1 initialised", "AHRS: EKF3 active", "EKF3 IMU0 tilt alignment complete", "EKF3 IMU1 tilt alignment complete", "EKF3 IMU0 MAG0 initial yaw alignment complete", "EKF3 IMU1 MAG0 initial yaw alignment complete", "GPS 1: probing for u-blox at 230400 baud", "GPS 1: detected u-blox", "Arm: Accels inconsistent", "Arm: Compasses inconsistent", "GPS 1: u-blox saving config", "u-blox 1 HW: 00070000 SW: 1.00 (59842)"]}
{"timestamp": "2026-01-24T21:18:23.917286Z", "telemetry": {"lat": 28.7532698, "lon": 77.1173415, "satellites": 9, "altitude_gps_m": 207.30999755859375, "groundspeed_mps": 0.02372884191572666}, "flight": {"mode": "STABILIZE", "armed": false}, "ekf": {"attitude": {"roll": 0.003987245261669159, "pitch": -0.0737745463848114, "yaw": -3.0420706272125244}, "local_position": {"x": 17.819469451904297, "y": -44.28693389892578, "z": 1.1056528091430664}, "status": {"flags": 135, "velocity_variance": 0.0, "pos_horiz_variance": 0.004779753740876913, "pos_vert_variance": 0.012541143223643303}}, "errors": ["RCInput: decoding PPM(1)", "Calibrating barometer", "Barometer 1 calibration complete", "Initialising ArduPilot", "ArduPilot Ready", "AHRS: DCM active", "RCOut: PWM:1-14", "EKF3 IMU0 initialised", "EKF3 IMU1 initialised", "AHRS: EKF3 active", "EKF3 IMU0 tilt alignment complete", "EKF3 IMU1 tilt alignment complete", "EKF3 IMU0 MAG0 initial yaw alignment complete", "EKF3 IMU1 MAG0 initial yaw alignment complete", "GPS 1: probing for u-blox at 230400 baud", "GPS 1: detected u-blox", "Arm: Accels inconsistent", "Arm: Compasses inconsistent", "GPS 1: u-blox saving config", "u-blox 1 HW: 00070000 SW: 1.00 (59842)"]}
{"timestamp": "2026-01-24T21:18:24.913497Z", "telemetry": {"lat": 28.7532711, "lon": 77.1173441, "satellites": 9, "altitude_gps_m": 206.76998901367188, "groundspeed_mps": 0.025694590061903}, "flight": {"mode": "STABILIZE", "armed": false}, "ekf": {"attitude": {"roll": 0.004090684466063976, "pitch": -0.07363186776638031, "yaw": -3.041179895401001}, "local_position": {"x": 17.819469451904297, "y": -44.28693389892578, "z": 1.1056528091430664}, "status": {"flags": 135, "velocity_variance": 0.0, "pos_horiz_variance": 0.0051794471219182014, "pos_vert_variance": 0.05105780065059662}}, "errors": ["RCInput: decoding PPM(1)", "Calibrating barometer", "Barometer 1 calibration complete", "Initialising ArduPilot", "ArduPilot Ready", "AHRS: DCM active", "RCOut: PWM:1-14", "EKF3 IMU0 initialised", "EKF3 IMU1 initialised", "AHRS: EKF3 active", "EKF3 IMU0 tilt alignment complete", "EKF3 IMU1 tilt alignment complete", "EKF3 IMU0 MAG0 initial yaw alignment complete", "EKF3 IMU1 MAG0 initial yaw alignment complete", "GPS 1: probing for u-blox at 230400 baud", "GPS 1: detected u-blox", "Arm: Accels inconsistent", "Arm: Compasses inconsistent", "GPS 1: u-blox saving config", "u-blox 1 HW: 00070000 SW: 1.00 (59842)"]}
{"timestamp": "2026-01-24T21:18:25.945072Z", "telemetry": {"lat": 28.7532707, "lon": 77.1173441, "satellites": 9, "altitude_gps_m": 206.38999938964844, "groundspeed_mps": 0.029991567134857178}, "flight": {"mode": "STABILIZE", "armed": false}, "ekf": {"attitude": {"roll": 0.004209965467453003, "pitch": -0.07338076829910278, "yaw": -3.0407936573028564}, "local_position": {"x": 17.819469451904297, "y": -44.28693389892578, "z": 1.1056528091430664}, "status": {"flags": 135, "velocity_variance": 0.0, "pos_horiz_variance": 0.00565471313893795, "pos_vert_variance": 0.011952199041843414}}, "errors": ["RCInput: decoding PPM(1)", "Calibrating barometer", "Barometer 1 calibration complete", "Initialising ArduPilot", "ArduPilot Ready", "AHRS: DCM active", "RCOut: PWM:1-14", "EKF3 IMU0 initialised", "EKF3 IMU1 initialised", "AHRS: EKF3 active", "EKF3 IMU0 tilt alignment complete", "EKF3 IMU1 tilt alignment complete", "EKF3 IMU0 MAG0 initial yaw alignment complete", "EKF3 IMU1 MAG0 initial yaw alignment complete", "GPS 1: probing for u-blox at 230400 baud", "GPS 1: detected u-blox", "Arm: Accels inconsistent", "Arm: Compasses inconsistent", "GPS 1: u-blox saving config", "u-blox 1 HW: 00070000 SW: 1.00 (59842)"]}
{"timestamp": "2026-01-24T21:18:26.944221Z", "telemetry": {"lat": 28.7532676, "lon": 77.1173465, "satellites": 9, "altitude_gps_m": 206.09999084472656, "groundspeed_mps": 0.042318690568208694}, "flight": {"mode": "STABILIZE", "armed": false}, "ekf": {"attitude": {"roll": 0.004414960741996765, "pitch": -0.07370255887508392, "yaw": -3.040365219116211}, "local_position": {"x": 17.819469451904297, "y": -44.28693389892578, "z": 1.1056528091430664}, "status": {"flags": 135, "velocity_variance": 0.0, "pos_horiz_variance": 0.0068825967609882355, "pos_vert_variance": 0.019913269206881523}}, "errors": ["RCInput: decoding PPM(1)", "Calibrating barometer", "Barometer 1 calibration complete", "Initialising ArduPilot", "ArduPilot Ready", "AHRS: DCM active", "RCOut: PWM:1-14", "EKF3 IMU0 initialised", "EKF3 IMU1 initialised", "AHRS: EKF3 active", "EKF3 IMU0 tilt alignment complete", "EKF3 IMU1 tilt alignment complete", "EKF3 IMU0 MAG0 initial yaw alignment complete", "EKF3 IMU1 MAG0 initial yaw alignment complete", "GPS 1: probing for u-blox at 230400 baud", "GPS 1: detected u-blox", "Arm: Accels inconsistent", "Arm: Compasses inconsistent", "GPS 1: u-blox saving config", "u-blox 1 HW: 00070000 SW: 1.00 (59842)"]}
{"timestamp": "2026-01-24T21:18:27.916902Z", "telemetry": {"lat": 28.7532676, "lon": 77.1173479, "satellites": 9, "altitude_gps_m": 206.20999145507812, "groundspeed_mps": 0.2807956635951996}, "flight": {"mode": "STABILIZE", "armed": false}, "ekf": {"attitude": {"roll": 0.20036634802818298, "pitch": 0.06340497732162476, "yaw": -2.8406178951263428}, "local_position": {"x": 17.819469451904297, "y": -44.28693389892578, "z": 1.1056528091430664}, "status": {"flags": 167, "velocity_variance": 0.0, "pos_horiz_variance": 0.03681414946913719, "pos_vert_variance": 0.006391544826328754}}, "errors": ["Initialising ArduPilot", "ArduPilot Ready", "AHRS: DCM active", "RCOut: PWM:1-14", "EKF3 IMU0 initialised", "EKF3 IMU1 initialised", "AHRS: EKF3 active", "EKF3 IMU0 tilt alignment complete", "EKF3 IMU1 tilt alignment complete", "EKF3 IMU0 MAG0 initial yaw alignment complete", "EKF3 IMU1 MAG0 initial yaw alignment complete", "GPS 1: probing for u-blox at 230400 baud", "GPS 1: detected u-blox", "Arm: Accels inconsistent", "Arm: Compasses inconsistent", "GPS 1: u-blox saving config", "u-blox 1 HW: 00070000 SW: 1.00 (59842)", "EKF3 IMU0 origin set", "EKF3 IMU1 origin set", "Field Elevation Set: 206m"]}
{"timestamp": "2026-01-24T21:18:28.912529Z", "telemetry": {"lat": 28.7532669, "lon": 77.1173479, "satellites": 9, "altitude_gps_m": 206.6999969482422, "groundspeed_mps": 0.4988284707069397}, "flight": {"mode": "STABILIZE", "armed": false}, "ekf": {"attitude": {"roll": 0.5295368432998657, "pitch": -0.09242168068885803, "yaw": 3.0109305381774902}, "local_position": {"x": 17.819469451904297, "y": -44.28693389892578, "z": 1.1056528091430664}, "status": {"flags": 167, "velocity_variance": 0.0, "pos_horiz_variance": 0.04159067943692207, "pos_vert_variance": 0.015873979777097702}}, "errors": ["Initialising ArduPilot", "ArduPilot Ready", "AHRS: DCM active", "RCOut: PWM:1-14", "EKF3 IMU0 initialised", "EKF3 IMU1 initialised", "AHRS: EKF3 active", "EKF3 IMU0 tilt alignment complete", "EKF3 IMU1 tilt alignment complete", "EKF3 IMU0 MAG0 initial yaw alignment complete", "EKF3 IMU1 MAG0 initial yaw alignment complete", "GPS 1: probing for u-blox at 230400 baud", "GPS 1: detected u-blox", "Arm: Accels inconsistent", "Arm: Compasses inconsistent", "GPS 1: u-blox saving config", "u-blox 1 HW: 00070000 SW: 1.00 (59842)", "EKF3 IMU0 origin set", "EKF3 IMU1 origin set", "Field Elevation Set: 206m"]}
{"timestamp": "2026-01-24T21:18:29.916920Z", "telemetry": {"lat": 28.753266, "lon": 77.1173437, "satellites": 9, "altitude_gps_m": 207.14999389648438, "groundspeed_mps": 0.5629390478134155}, "flight": {"mode": "STABILIZE", "armed": false}, "ekf": {"attitude": {"roll": -0.5230645537376404, "pitch": 0.46843424439430237, "yaw": 2.715789318084717}, "local_position": {"x": 17.819469451904297, "y": -44.28693389892578, "z": 1.1056528091430664}, "status": {"flags": 167, "velocity_variance": 0.0, "pos_horiz_variance": 0.012093830853700638, "pos_vert_variance": 0.011520551517605782}}, "errors": ["Initialising ArduPilot", "ArduPilot Ready", "AHRS: DCM active", "RCOut: PWM:1-14", "EKF3 IMU0 initialised", "EKF3 IMU1 initialised", "AHRS: EKF3 active", "EKF3 IMU0 tilt alignment complete", "EKF3 IMU1 tilt alignment complete", "EKF3 IMU0 MAG0 initial yaw alignment complete", "EKF3 IMU1 MAG0 initial yaw alignment complete", "GPS 1: probing for u-blox at 230400 baud", "GPS 1: detected u-blox", "Arm: Accels inconsistent", "Arm: Compasses inconsistent", "GPS 1: u-blox saving config", "u-blox 1 HW: 00070000 SW: 1.00 (59842)", "EKF3 IMU0 origin set", "EKF3 IMU1 origin set", "Field Elevation Set: 206m"]}
{"timestamp": "2026-01-24T21:18:30.944820Z", "telemetry": {"lat": 28.7532644, "lon": 77.1173401, "satellites": 9, "altitude_gps_m": 208.04998779296875, "groundspeed_mps": 0.4767189621925354}, "flight": {"mode": "STABILIZE", "armed": false}, "ekf": {"attitude": {"roll": 0.20038308203220367, "pitch": -0.23821018636226654, "yaw": 3.1176321506500244}, "local_position": {"x": 17.819469451904297, "y": -44.28693389892578, "z": 1.1056528091430664}, "status": {"flags": 167, "velocity_variance": 0.0, "pos_horiz_variance": 0.03423604741692543, "pos_vert_variance": 0.04230029508471489}}, "errors": ["Initialising ArduPilot", "ArduPilot Ready", "AHRS: DCM active", "RCOut: PWM:1-14", "EKF3 IMU0 initialised", "EKF3 IMU1 initialised", "AHRS: EKF3 active", "EKF3 IMU0 tilt alignment complete", "EKF3 IMU1 tilt alignment complete", "EKF3 IMU0 MAG0 initial yaw alignment complete", "EKF3 IMU1 MAG0 initial yaw alignment complete", "GPS 1: probing for u-blox at 230400 baud", "GPS 1: detected u-blox", "Arm: Accels inconsistent", "Arm: Compasses inconsistent", "GPS 1: u-blox saving config", "u-blox 1 HW: 00070000 SW: 1.00 (59842)", "EKF3 IMU0 origin set", "EKF3 IMU1 origin set", "Field Elevation Set: 206m"]}
{"timestamp": "2026-01-24T21:18:31.944883Z", "telemetry": {"lat": 28.7532611, "lon": 77.1173354, "satellites": 9, "altitude_gps_m": 207.9099884033203, "groundspeed_mps": 0.38007673621177673}, "flight": {"mode": "STABILIZE", "armed": false}, "ekf": {"attitude": {"roll": -0.09676465392112732, "pitch": 0.903464138507843, "yaw": 2.561704397201538}, "local_position": {"x": 17.819469451904297, "y": -44.28693389892578, "z": 1.1056528091430664}, "status": {"flags": 167, "velocity_variance": 0.0, "pos_horiz_variance": 0.04128602147102356, "pos_vert_variance": 0.05053533613681793}}, "errors": ["Initialising ArduPilot", "ArduPilot Ready", "AHRS: DCM active", "RCOut: PWM:1-14", "EKF3 IMU0 initialised", "EKF3 IMU1 initialised", "AHRS: EKF3 active", "EKF3 IMU0 tilt alignment complete", "EKF3 IMU1 tilt alignment complete", "EKF3 IMU0 MAG0 initial yaw alignment complete", "EKF3 IMU1 MAG0 initial yaw alignment complete", "GPS 1: probing for u-blox at 230400 baud", "GPS 1: detected u-blox", "Arm: Accels inconsistent", "Arm: Compasses inconsistent", "GPS 1: u-blox saving config", "u-blox 1 HW: 00070000 SW: 1.00 (59842)", "EKF3 IMU0 origin set", "EKF3 IMU1 origin set", "Field Elevation Set: 206m"]}
{"timestamp": "2026-01-24T21:18:32.944289Z", "telemetry": {"lat": 28.7532601, "lon": 77.1173333, "satellites": 9, "altitude_gps_m": 208.62998962402344, "groundspeed_mps": 0.6320595145225525}, "flight": {"mode": "STABILIZE", "armed": false}, "ekf": {"attitude": {"roll": 0.14509308338165283, "pitch": -0.27923068404197693, "yaw": 3.0429205894470215}, "local_position": {"x": 17.819469451904297, "y": -44.28693389892578, "z": 1.1056528091430664}, "status": {"flags": 167, "velocity_variance": 0.0, "pos_horiz_variance": 0.03372684866189957, "pos_vert_variance": 0.05772899463772774}}, "errors": ["AHRS: DCM active", "RCOut: PWM:1-14", "EKF3 IMU0 initialised", "EKF3 IMU1 initialised", "AHRS: EKF3 active", "EKF3 IMU0 tilt alignment complete", "EKF3 IMU1 tilt alignment complete", "EKF3 IMU0 MAG0 initial yaw alignment complete", "EKF3 IMU1 MAG0 initial yaw alignment complete", "GPS 1: probing for u-blox at 230400 baud", "GPS 1: detected u-blox", "Arm: Accels inconsistent", "Arm: Compasses inconsistent", "GPS 1: u-blox saving config", "u-blox 1 HW: 00070000 SW: 1.00 (59842)", "EKF3 IMU0 origin set", "EKF3 IMU1 origin set", "Field Elevation Set: 206m", "PreArm: Gyros inconsistent", "PreArm: Compasses inconsistent"]}
{"timestamp": "2026-01-24T21:18:33.920290Z", "telemetry": {"lat": 28.7532516, "lon": 77.1173248, "satellites": 9, "altitude_gps_m": 208.989990234375, "groundspeed_mps": 0.8956264853477478}, "flight": {"mode": "STABILIZE", "armed": false}, "ekf": {"attitude": {"roll": -0.014703144319355488, "pitch": 0.13111628592014313, "yaw": 1.2740975618362427}, "local_position": {"x": 17.819469451904297, "y": -44.28693389892578, "z": 1.1056528091430664}, "status": {"flags": 167, "velocity_variance": 0.0, "pos_horiz_variance": 0.16667132079601288, "pos_vert_variance": 0.0628492534160614}}, "errors": ["AHRS: DCM active", "RCOut: PWM:1-14", "EKF3 IMU0 initialised", "EKF3 IMU1 initialised", "AHRS: EKF3 active", "EKF3 IMU0 tilt alignment complete", "EKF3 IMU1 tilt alignment complete", "EKF3 IMU0 MAG0 initial yaw alignment complete", "EKF3 IMU1 MAG0 initial yaw alignment complete", "GPS 1: probing for u-blox at 230400 baud", "GPS 1: detected u-blox", "Arm: Accels inconsistent", "Arm: Compasses inconsistent", "GPS 1: u-blox saving config", "u-blox 1 HW: 00070000 SW: 1.00 (59842)", "EKF3 IMU0 origin set", "EKF3 IMU1 origin set", "Field Elevation Set: 206m", "PreArm: Gyros inconsistent", "PreArm: Compasses inconsistent"]}
{"timestamp": "2026-01-24T21:18:34.944543Z", "telemetry": {"lat": 28.7532468, "lon": 77.1173168, "satellites": 9, "altitude_gps_m": 208.79998779296875, "groundspeed_mps": 0.6857593655586243}, "flight": {"mode": "STABILIZE", "armed": false}, "ekf": {"attitude": {"roll": 0.03066321834921837, "pitch": 0.0615781731903553, "yaw": 1.6215389966964722}, "local_position": {"x": 17.819469451904297, "y": -44.28693389892578, "z": 1.1056528091430664}, "status": {"flags": 167, "velocity_variance": 0.0, "pos_horiz_variance": 0.19940252602100372, "pos_vert_variance": 0.03298868238925934}}, "errors": ["AHRS: DCM active", "RCOut: PWM:1-14", "EKF3 IMU0 initialised", "EKF3 IMU1 initialised", "AHRS: EKF3 active", "EKF3 IMU0 tilt alignment complete", "EKF3 IMU1 tilt alignment complete", "EKF3 IMU0 MAG0 initial yaw alignment complete", "EKF3 IMU1 MAG0 initial yaw alignment complete", "GPS 1: probing for u-blox at 230400 baud", "GPS 1: detected u-blox", "Arm: Accels inconsistent", "Arm: Compasses inconsistent", "GPS 1: u-blox saving config", "u-blox 1 HW: 00070000 SW: 1.00 (59842)", "EKF3 IMU0 origin set", "EKF3 IMU1 origin set", "Field Elevation Set: 206m", "PreArm: Gyros inconsistent", "PreArm: Compasses inconsistent"]}
