{"timestamp": "2026-01-25T11:05:04.591930Z", "telemetry": {"lat": 0.0, "lon": 0.0, "satellites": 0, "altitude_gps_m": 0.5699999928474426, "groundspeed_mps": 0.04064739868044853}, "flight": {"mode": "STABILIZE", "armed": false}, "ekf": {"attitude": {"roll": 0.015455176122486591, "pitch": -0.014263814315199852, "yaw": 3.059582233428955}, "local_position": {"x": null, "y": null, "z": null}, "status": {"flags": 135, "velocity_variance": 0.0, "pos_horiz_variance": 0.010701469145715237, "pos_vert_variance": 0.0024939589202404022}}, "errors": []}
{"timestamp": "2026-01-25T11:05:05.592590Z", "telemetry": {"lat": 0.0, "lon": 0.0, "satellites": 0, "altitude_gps_m": 0.5699999928474426, "groundspeed_mps": 0.04113013297319412}, "flight": {"mode": "STABILIZE", "armed": false}, "ekf": {"attitude": {"roll": 0.01545186247676611, "pitch": -0.014224231243133545, "yaw": 3.0594844818115234}, "local_position": {"x": null, "y": null, "z": null}, "status": {"flags": 135, "velocity_variance": 0.0, "pos_horiz_variance": 0.01020359992980957, "pos_vert_variance": 0.06455132365226746}}, "errors": []}
{"timestamp": "2026-01-25T11:05:06.592070Z", "telemetry": {"lat": 0.0, "lon": 0.0, "satellites": 0, "altitude_gps_m": 0.5699999928474426, "groundspeed_mps": 0.03866541013121605}, "flight": {"mode": "STABILIZE", "armed": false}, "ekf": {"attitude": {"roll": 0.015388819389045238, "pitch": -0.014100136235356331, "yaw": 3.0593934059143066}, "local_position": {"x": null, "y": null, "z": null}, "status": {"flags": 135, "velocity_variance": 0.0, "pos_horiz_variance": 0.009918258525431156, "pos_vert_variance": 0.010554112493991852}}, "errors": []}
{"timestamp": "2026-01-25T11:05:07.592543Z", "telemetry": {"lat": 0.0, "lon": 0.0, "satellites": 0, "altitude_gps_m": 0.5699999928474426, "groundspeed_mps": 0.03846462443470955}, "flight": {"mode": "STABILIZE", "armed": false}, "ekf": {"attitude": {"roll": 0.015434485860168934, "pitch": -0.014046411961317062, "yaw": 3.0593414306640625}, "local_position": {"x": null, "y": null, "z": null}, "status": {"flags": 135, "velocity_variance": 0.0, "pos_horiz_variance": 0.009634540416300297, "pos_vert_variance": 0.10484305024147034}}, "errors": []}
{"timestamp": "2026-01-25T11:05:08.592235Z", "telemetry": {"lat": 0.0, "lon": 0.0, "satellites": 0, "altitude_gps_m": 0.5699999928474426, "groundspeed_mps": 0.036797527223825455}, "flight": {"mode": "STABILIZE", "armed": false}, "ekf": {"attitude": {"roll": 0.015634488314390182, "pitch": -0.013808205723762512, "yaw": 3.059457778930664}, "local_position": {"x": null, "y": null, "z": null}, "status": {"flags": 135, "velocity_variance": 0.0, "pos_horiz_variance": 0.009452109225094318, "pos_vert_variance": 0.04303436726331711}}, "errors": []}
{"timestamp": "2026-01-25T11:05:09.593445Z", "telemetry": {"lat": 0.0, "lon": 0.0, "satellites": 0, "altitude_gps_m": 0.5699999928474426, "groundspeed_mps": 0.031008310616016388}, "flight": {"mode": "STABILIZE", "armed": false}, "ekf": {"attitude": {"roll": 0.01598931849002838, "pitch": -0.013295074924826622, "yaw": 3.059591770172119}, "local_position": {"x": null, "y": null, "z": null}, "status": {"flags": 135, "velocity_variance": 0.0, "pos_horiz_variance": 0.008992497809231281, "pos_vert_variance": 0.0674363374710083}}, "errors": []}
{"timestamp": "2026-01-25T11:05:10.592645Z", "telemetry": {"lat": 0.0, "lon": 0.0, "satellites": 0, "altitude_gps_m": 0.5699999928474426, "groundspeed_mps": 0.03707031160593033}, "flight": {"mode": "STABILIZE", "armed": false}, "ekf": {"attitude": {"roll": 0.015520845539867878, "pitch": -0.013794323429465294, "yaw": 3.0591604709625244}, "local_position": {"x": null, "y": null, "z": null}, "status": {"flags": 135, "velocity_variance": 0.0, "pos_horiz_variance": 0.00827776174992323, "pos_vert_variance": 0.004823644179850817}}, "errors": []}
{"timestamp": "2026-01-25T11:05:11.593423Z", "telemetry": {"lat": 0.0, "lon": 0.0, "satellites": 0, "altitude_gps_m": 0.5699999928474426, "groundspeed_mps": 0.02836420014500618}, "flight": {"mode": "STABILIZE", "armed": false}, "ekf": {"attitude": {"roll": 0.01574314385652542, "pitch": -0.013313103467226028, "yaw": 3.0593881607055664}, "local_position": {"x": null, "y": null, "z": null}, "status": {"flags": 135, "velocity_variance": 0.0, "pos_horiz_variance": 0.007809400092810392, "pos_vert_variance": 0.03203820064663887}}, "errors": []}
{"timestamp": "2026-01-25T11:05:12.592633Z", "telemetry": {"lat": 0.0, "lon": 0.0, "satellites": 0, "altitude_gps_m": 0.5699999928474426, "groundspeed_mps": 0.029756013303995132}, "flight": {"mode": "STABILIZE", "armed": false}, "ekf": {"attitude": {"roll": 0.016458500176668167, "pitch": -0.012507513165473938, "yaw": 3.0597710609436035}, "local_position": {"x": null, "y": null, "z": null}, "status": {"flags": 135, "velocity_variance": 0.0, "pos_horiz_variance": 0.007917693816125393, "pos_vert_variance": 0.01605604588985443}}, "errors": []}
{"timestamp": "2026-01-25T11:05:13.593860Z", "telemetry": {"lat": 0.0, "lon": 0.0, "satellites": 0, "altitude_gps_m": 0.5699999928474426, "groundspeed_mps": 0.03611863777041435}, "flight": {"mode": "STABILIZE", "armed": false}, "ekf": {"attitude": {"roll": 0.016240928322076797, "pitch": -0.013272242620587349, "yaw": 3.0593507289886475}, "local_position": {"x": null, "y": null, "z": null}, "status": {"flags": 135, "velocity_variance": 0.0, "pos_horiz_variance": 0.008235380053520203, "pos_vert_variance": 0.01736864633858204}}, "errors": []}
{"timestamp": "2026-01-25T11:05:14.592907Z", "telemetry": {"lat": 0.0, "lon": 0.0, "satellites": 0, "altitude_gps_m": 0.5699999928474426, "groundspeed_mps": 0.03873516619205475}, "flight": {"mode": "STABILIZE", "armed": false}, "ekf": {"attitude": {"roll": 0.016353435814380646, "pitch": -0.013127217069268227, "yaw": 3.0593416690826416}, "local_position": {"x": null, "y": null, "z": null}, "status": {"flags": 135, "velocity_variance": 0.0, "pos_horiz_variance": 0.008693309500813484, "pos_vert_variance": 0.02545851841568947}}, "errors": []}
{"timestamp": "2026-01-25T11:05:15.593920Z", "telemetry": {"lat": 0.0, "lon": 0.0, "satellites": 0, "altitude_gps_m": 0.5699999928474426, "groundspeed_mps": 0.041053906083106995}, "flight": {"mode": "STABILIZE", "armed": false}, "ekf": {"attitude": {"roll": 0.01616266556084156, "pitch": -0.013520916923880577, "yaw": 3.0591628551483154}, "local_position": {"x": null, "y": null, "z": null}, "status": {"flags": 135, "velocity_variance": 0.0, "pos_horiz_variance": 0.00918229203671217, "pos_vert_variance": 0.019159898161888123}}, "errors": []}
{"timestamp": "2026-01-25T11:05:16.592957Z", "telemetry": {"lat": 0.0, "lon": 0.0, "satellites": 0, "altitude_gps_m": 0.5699999928474426, "groundspeed_mps": 0.03772832080721855}, "flight": {"mode": "STABILIZE", "armed": false}, "ekf": {"attitude": {"roll": 0.015567419119179249, "pitch": -0.014000127092003822, "yaw": 3.058863878250122}, "local_position": {"x": null, "y": null, "z": null}, "status": {"flags": 135, "velocity_variance": 0.0, "pos_horiz_variance": 0.009514947421848774, "pos_vert_variance": 0.03906518220901489}}, "errors": []}
{"timestamp": "2026-01-25T11:05:17.594132Z", "telemetry": {"lat": 0.0, "lon": 0.0, "satellites": 0, "altitude_gps_m": 0.5699999928474426, "groundspeed_mps": 0.03465097025036812}, "flight": {"mode": "STABILIZE", "armed": false}, "ekf": {"attitude": {"roll": 0.015681955963373184, "pitch": -0.014032658189535141, "yaw": 3.0588438510894775}, "local_position": {"x": null, "y": null, "z": null}, "status": {"flags": 135, "velocity_variance": 0.0, "pos_horiz_variance": 0.009018359705805779, "pos_vert_variance": 0.011160717345774174}}, "errors": []}
{"timestamp": "2026-01-25T11:05:18.555058Z", "telemetry": {"lat": 0.0, "lon": 0.0, "satellites": 0, "altitude_gps_m": 0.5699999928474426, "groundspeed_mps": 0.034404654055833817}, "flight": {"mode": "STABILIZE", "armed": false}, "ekf": {"attitude": {"roll": 0.015724940225481987, "pitch": -0.014045294374227524, "yaw": 3.058804512023926}, "local_position": {"x": null, "y": null, "z": null}, "status": {"flags": 135, "velocity_variance": 0.0, "pos_horiz_variance": 0.008645936846733093, "pos_vert_variance": 0.044070784002542496}}, "errors": []}
{"timestamp": "2026-01-25T11:05:19.555088Z", "telemetry": {"lat": 0.0, "lon": 0.0, "satellites": 0, "altitude_gps_m": 0.5699999928474426, "groundspeed_mps": 0.03750468045473099}, "flight": {"mode": "STABILIZE", "armed": false}, "ekf": {"attitude": {"roll": 0.015757394954562187, "pitch": -0.014087611809372902, "yaw": 3.058753490447998}, "local_position": {"x": null, "y": null, "z": null}, "status": {"flags": 135, "velocity_variance": 0.0, "pos_horiz_variance": 0.008443735539913177, "pos_vert_variance": 0.041776783764362335}}, "errors": []}
{"timestamp": "2026-01-25T11:05:20.554911Z", "telemetry": {"lat": 0.0, "lon": 0.0, "satellites": 0, "altitude_gps_m": 0.5699999928474426, "groundspeed_mps": 0.04034719243645668}, "flight": {"mode": "STABILIZE", "armed": false}, "ekf": {"attitude": {"roll": 0.015717141330242157, "pitch": -0.01415671780705452, "yaw": 3.0586090087890625}, "local_position": {"x": null, "y": null, "z": null}, "status": {"flags": 135, "velocity_variance": 0.0, "pos_horiz_variance": 0.009034177288413048, "pos_vert_variance": 0.06381583213806152}}, "errors": []}
{"timestamp": "2026-01-25T11:05:21.555223Z", "telemetry": {"lat": 0.0, "lon": 0.0, "satellites": 0, "altitude_gps_m": 0.5699999928474426, "groundspeed_mps": 0.04060562700033188}, "flight": {"mode": "STABILIZE", "armed": false}, "ekf": {"attitude": {"roll": 0.015669280663132668, "pitch": -0.014245778322219849, "yaw": 3.0585732460021973}, "local_position": {"x": null, "y": null, "z": null}, "status": {"flags": 135, "velocity_variance": 0.0, "pos_horiz_variance": 0.00959128886461258, "pos_vert_variance": 0.056073643267154694}}, "errors": []}
{"timestamp": "2026-01-25T11:05:22.555301Z", "telemetry": {"lat": 0.0, "lon": 0.0, "satellites": 0, "altitude_gps_m": 0.5699999928474426, "groundspeed_mps": 0.04428521916270256}, "flight": {"mode": "STABILIZE", "armed": false}, "ekf": {"attitude": {"roll": 0.01576675847172737, "pitch": -0.014331081882119179, "yaw": 3.058452606201172}, "local_position": {"x": null, "y": null, "z": null}, "status": {"flags": 135, "velocity_variance": 0.0, "pos_horiz_variance": 0.009888130240142345, "pos_vert_variance": 0.043934110552072525}}, "errors": []}
{"timestamp": "2026-01-25T11:05:23.593677Z", "telemetry": {"lat": 0.0, "lon": 0.0, "satellites": 0, "altitude_gps_m": 0.5699999928474426, "groundspeed_mps": 0.044780880212783813}, "flight": {"mode": "STABILIZE", "armed": false}, "ekf": {"attitude": {"roll": 0.015649791806936264, "pitch": -0.014398356899619102, "yaw": 3.0583481788635254}, "local_position": {"x": null, "y": null, "z": null}, "status": {"flags": 135, "velocity_variance": 0.0, "pos_horiz_variance": 0.01041405089199543, "pos_vert_variance": 0.03937728703022003}}, "errors": []}
{"timestamp": "2026-01-25T11:05:24.593695Z", "telemetry": {"lat": 0.0, "lon": 0.0, "satellites": 0, "altitude_gps_m": 0.5699999928474426, "groundspeed_mps": 0.0458478219807148}, "flight": {"mode": "STABILIZE", "armed": false}, "ekf": {"attitude": {"roll": 0.015632476657629013, "pitch": -0.014573728665709496, "yaw": 3.058220386505127}, "local_position": {"x": null, "y": null, "z": null}, "status": {"flags": 135, "velocity_variance": 0.0, "pos_horiz_variance": 0.0107059795409441, "pos_vert_variance": 0.07772523164749146}}, "errors": []}
{"timestamp": "2026-01-25T11:05:25.555345Z", "telemetry": {"lat": 0.0, "lon": 0.0, "satellites": 0, "altitude_gps_m": 0.5699999928474426, "groundspeed_mps": 0.04710710048675537}, "flight": {"mode": "STABILIZE", "armed": false}, "ekf": {"attitude": {"roll": 0.015664920210838318, "pitch": -0.01454412192106247, "yaw": 3.0581631660461426}, "local_position": {"x": null, "y": null, "z": null}, "status": {"flags": 135, "velocity_variance": 0.0, "pos_horiz_variance": 0.010852059349417686, "pos_vert_variance": 0.07521376758813858}}, "errors": []}
{"timestamp": "2026-01-25T11:05:26.555927Z", "telemetry": {"lat": 0.0, "lon": 0.0, "satellites": 0, "altitude_gps_m": 0.5699999928474426, "groundspeed_mps": 0.04795466735959053}, "flight": {"mode": "STABILIZE", "armed": false}, "ekf": {"attitude": {"roll": 0.015513519756495953, "pitch": -0.014447160065174103, "yaw": 3.058076858520508}, "local_position": {"x": null, "y": null, "z": null}, "status": {"flags": 135, "velocity_variance": 0.0, "pos_horiz_variance": 0.011143852025270462, "pos_vert_variance": 0.034507010132074356}}, "errors": []}
{"timestamp": "2026-01-25T11:05:27.556179Z", "telemetry": {"lat": 0.0, "lon": 0.0, "satellites": 0, "altitude_gps_m": 0.5699999928474426, "groundspeed_mps": 0.04300529882311821}, "flight": {"mode": "STABILIZE", "armed": false}, "ekf": {"attitude": {"roll": 0.015736369416117668, "pitch": -0.013775620609521866, "yaw": 3.0580813884735107}, "local_position": {"x": null, "y": null, "z": null}, "status": {"flags": 135, "velocity_variance": 0.0, "pos_horiz_variance": 0.011349564418196678, "pos_vert_variance": 0.0024834952782839537}}, "errors": ["PreArm: RC not found", "PreArm: Hardware safety switch"]}
{"timestamp": "2026-01-25T11:05:28.555952Z", "telemetry": {"lat": 0.0, "lon": 0.0, "satellites": 0, "altitude_gps_m": 0.5699999928474426, "groundspeed_mps": 0.040276121348142624}, "flight": {"mode": "STABILIZE", "armed": false}, "ekf": {"attitude": {"roll": 0.015282933600246906, "pitch": -0.0141381174325943, "yaw": 3.0579605102539062}, "local_position": {"x": null, "y": null, "z": null}, "status": {"flags": 135, "velocity_variance": 0.0, "pos_horiz_variance": 0.010622200556099415, "pos_vert_variance": 0.050383348017930984}}, "errors": ["PreArm: RC not found", "PreArm: Hardware safety switch"]}
{"timestamp": "2026-01-25T11:05:29.556133Z", "telemetry": {"lat": 0.0, "lon": 0.0, "satellites": 0, "altitude_gps_m": 0.5699999928474426, "groundspeed_mps": 0.038673993200063705}, "flight": {"mode": "STABILIZE", "armed": false}, "ekf": {"attitude": {"roll": 0.015129645355045795, "pitch": -0.013996537774801254, "yaw": 3.057969093322754}, "local_position": {"x": null, "y": null, "z": null}, "status": {"flags": 135, "velocity_variance": 0.0, "pos_horiz_variance": 0.010044140741229057, "pos_vert_variance": 0.024773482233285904}}, "errors": ["PreArm: RC not found", "PreArm: Hardware safety switch"]}
{"timestamp": "2026-01-25T11:05:30.555951Z", "telemetry": {"lat": 0.0, "lon": 0.0, "satellites": 0, "altitude_gps_m": 0.5699999928474426, "groundspeed_mps": 0.039140377193689346}, "flight": {"mode": "STABILIZE", "armed": false}, "ekf": {"attitude": {"roll": 0.015071316622197628, "pitch": -0.0138035137206316, "yaw": 3.0580620765686035}, "local_position": {"x": null, "y": null, "z": null}, "status": {"flags": 135, "velocity_variance": 0.0, "pos_horiz_variance": 0.009734808467328548, "pos_vert_variance": 0.012156369164586067}}, "errors": ["PreArm: RC not found", "PreArm: Hardware safety switch"]}
{"timestamp": "2026-01-25T11:05:31.574454Z", "telemetry": {"lat": 0.0, "lon": 0.0, "satellites": 0, "altitude_gps_m": 0.5699999928474426, "groundspeed_mps": 0.03662140667438507}, "flight": {"mode": "STABILIZE", "armed": false}, "ekf": {"attitude": {"roll": 0.014885694719851017, "pitch": -0.013713529333472252, "yaw": 3.0582096576690674}, "local_position": {"x": null, "y": null, "z": null}, "status": {"flags": 135, "velocity_variance": 0.0, "pos_horiz_variance": 0.009400264360010624, "pos_vert_variance": 0.0643695592880249}}, "errors": ["PreArm: RC not found", "PreArm: Hardware safety switch"]}
{"timestamp": "2026-01-25T11:05:32.536684Z", "telemetry": {"lat": 0.0, "lon": 0.0, "satellites": 0, "altitude_gps_m": 0.5699999928474426, "groundspeed_mps": 0.0346747487783432}, "flight": {"mode": "STABILIZE", "armed": false}, "ekf": {"attitude": {"roll": 0.014808603562414646, "pitch": -0.01364799402654171, "yaw": 3.0581321716308594}, "local_position": {"x": null, "y": null, "z": null}, "status": {"flags": 135, "velocity_variance": 0.0, "pos_horiz_variance": 0.008991357870399952, "pos_vert_variance": 0.06761062145233154}}, "errors": ["PreArm: RC not found", "PreArm: Hardware safety switch"]}
{"timestamp": "2026-01-25T11:05:33.574695Z", "telemetry": {"lat": 0.0, "lon": 0.0, "satellites": 0, "altitude_gps_m": 0.5699999928474426, "groundspeed_mps": 0.03255907818675041}, "flight": {"mode": "STABILIZE", "armed": false}, "ekf": {"attitude": {"roll": 0.014708003960549831, "pitch": -0.0136537104845047, "yaw": 3.05814790725708}, "local_position": {"x": null, "y": null, "z": null}, "status": {"flags": 135, "velocity_variance": 0.0, "pos_horiz_variance": 0.00862421840429306, "pos_vert_variance": 0.05039004981517792}}, "errors": ["PreArm: RC not found", "PreArm: Hardware safety switch"]}
{"timestamp": "2026-01-25T11:05:34.575489Z", "telemetry": {"lat": 0.0, "lon": 0.0, "satellites": 0, "altitude_gps_m": 0.5699999928474426, "groundspeed_mps": 0.031705304980278015}, "flight": {"mode": "STABILIZE", "armed": false}, "ekf": {"attitude": {"roll": 0.01488280575722456, "pitch": -0.013593647629022598, "yaw": 3.0581376552581787}, "local_position": {"x": null, "y": null, "z": null}, "status": {"flags": 135, "velocity_variance": 0.0, "pos_horiz_variance": 0.008159983903169632, "pos_vert_variance": 0.08047324419021606}}, "errors": ["PreArm: RC not found", "PreArm: Hardware safety switch"]}
{"timestamp": "2026-01-25T11:05:35.574908Z", "telemetry": {"lat": 0.0, "lon": 0.0, "satellites": 0, "altitude_gps_m": 0.5699999928474426, "groundspeed_mps": 0.030689632520079613}, "flight": {"mode": "STABILIZE", "armed": false}, "ekf": {"attitude": {"roll": 0.014910620637238026, "pitch": -0.013598456978797913, "yaw": 3.058143138885498}, "local_position": {"x": null, "y": null, "z": null}, "status": {"flags": 135, "velocity_variance": 0.0, "pos_horiz_variance": 0.00772682623937726, "pos_vert_variance": 0.024916190654039383}}, "errors": ["PreArm: RC not found", "PreArm: Hardware safety switch"]}
{"timestamp": "2026-01-25T11:05:36.574951Z", "telemetry": {"lat": 0.0, "lon": 0.0, "satellites": 0, "altitude_gps_m": 0.5699999928474426, "groundspeed_mps": 0.032707080245018005}, "flight": {"mode": "STABILIZE", "armed": false}, "ekf": {"attitude": {"roll": 0.014745275489985943, "pitch": -0.013690926134586334, "yaw": 3.05806565284729}, "local_position": {"x": null, "y": null, "z": null}, "status": {"flags": 135, "velocity_variance": 0.0, "pos_horiz_variance": 0.007673078682273626, "pos_vert_variance": 0.0019148443825542927}}, "errors": ["PreArm: RC not found", "PreArm: Hardware safety switch"]}
{"timestamp": "2026-01-25T11:05:37.537947Z", "telemetry": {"lat": 0.0, "lon": 0.0, "satellites": 0, "altitude_gps_m": 0.5699999928474426, "groundspeed_mps": 0.03585364669561386}, "flight": {"mode": "STABILIZE", "armed": false}, "ekf": {"attitude": {"roll": 0.014797437004745007, "pitch": -0.013827037066221237, "yaw": 3.0581841468811035}, "local_position": {"x": null, "y": null, "z": null}, "status": {"flags": 135, "velocity_variance": 0.0, "pos_horiz_variance": 0.008056885562837124, "pos_vert_variance": 0.01000811904668808}}, "errors": ["PreArm: RC not found", "PreArm: Hardware safety switch"]}
{"timestamp": "2026-01-25T11:05:38.537907Z", "telemetry": {"lat": 0.0, "lon": 0.0, "satellites": 0, "altitude_gps_m": 0.5699999928474426, "groundspeed_mps": 0.0345318466424942}, "flight": {"mode": "STABILIZE", "armed": false}, "ekf": {"attitude": {"roll": 0.014769365079700947, "pitch": -0.013940904289484024, "yaw": 3.058229446411133}, "local_position": {"x": null, "y": null, "z": null}, "status": {"flags": 135, "velocity_variance": 0.0, "pos_horiz_variance": 0.008374632336199284, "pos_vert_variance": 0.001850828411988914}}, "errors": ["PreArm: RC not found", "PreArm: Hardware safety switch"]}
{"timestamp": "2026-01-25T11:05:39.575348Z", "telemetry": {"lat": 0.0, "lon": 0.0, "satellites": 0, "altitude_gps_m": 0.5699999928474426, "groundspeed_mps": 0.03803904727101326}, "flight": {"mode": "STABILIZE", "armed": false}, "ekf": {"attitude": {"roll": 0.014873282052576542, "pitch": -0.014017358422279358, "yaw": 3.0582756996154785}, "local_position": {"x": null, "y": null, "z": null}, "status": {"flags": 135, "velocity_variance": 0.0, "pos_horiz_variance": 0.008521510288119316, "pos_vert_variance": 0.020650343969464302}}, "errors": ["PreArm: RC not found", "PreArm: Hardware safety switch"]}
{"timestamp": "2026-01-25T11:05:40.575252Z", "telemetry": {"lat": 0.0, "lon": 0.0, "satellites": 0, "altitude_gps_m": 0.5699999928474426, "groundspeed_mps": 0.03862706571817398}, "flight": {"mode": "STABILIZE", "armed": false}, "ekf": {"attitude": {"roll": 0.01497908215969801, "pitch": -0.014045080170035362, "yaw": 3.0582520961761475}, "local_position": {"x": null, "y": null, "z": null}, "status": {"flags": 135, "velocity_variance": 0.0, "pos_horiz_variance": 0.009084926918148994, "pos_vert_variance": 0.003591638756915927}}, "errors": ["PreArm: RC not found", "PreArm: Hardware safety switch"]}
{"timestamp": "2026-01-25T11:05:41.575628Z", "telemetry": {"lat": 0.0, "lon": 0.0, "satellites": 0, "altitude_gps_m": 0.5699999928474426, "groundspeed_mps": 0.03991242125630379}, "flight": {"mode": "STABILIZE", "armed": false}, "ekf": {"attitude": {"roll": 0.01504287589341402, "pitch": -0.014139309525489807, "yaw": 3.0583088397979736}, "local_position": {"x": null, "y": null, "z": null}, "status": {"flags": 135, "velocity_variance": 0.0, "pos_horiz_variance": 0.009341809898614883, "pos_vert_variance": 0.06718619167804718}}, "errors": ["PreArm: RC not found", "PreArm: Hardware safety switch"]}
{"timestamp": "2026-01-25T11:05:42.575441Z", "telemetry": {"lat": 0.0, "lon": 0.0, "satellites": 0, "altitude_gps_m": 0.5699999928474426, "groundspeed_mps": 0.04169287160038948}, "flight": {"mode": "STABILIZE", "armed": false}, "ekf": {"attitude": {"roll": 0.01502238865941763, "pitch": -0.014242559671401978, "yaw": 3.0583667755126953}, "local_position": {"x": null, "y": null, "z": null}, "status": {"flags": 135, "velocity_variance": 0.0, "pos_horiz_variance": 0.009603900834918022, "pos_vert_variance": 0.02189704217016697}}, "errors": ["PreArm: RC not found", "PreArm: Hardware safety switch"]}
{"timestamp": "2026-01-25T11:05:43.576063Z", "telemetry": {"lat": 0.0, "lon": 0.0, "satellites": 0, "altitude_gps_m": 0.5699999928474426, "groundspeed_mps": 0.043984975665807724}, "flight": {"mode": "STABILIZE", "armed": false}, "ekf": {"attitude": {"roll": 0.015073862858116627, "pitch": -0.014293516054749489, "yaw": 3.0583133697509766}, "local_position": {"x": null, "y": null, "z": null}, "status": {"flags": 135, "velocity_variance": 0.0, "pos_horiz_variance": 0.010024752467870712, "pos_vert_variance": 0.04267657548189163}}, "errors": ["PreArm: RC not found", "PreArm: Hardware safety switch"]}
{"timestamp": "2026-01-25T11:05:44.575557Z", "telemetry": {"lat": 0.0, "lon": 0.0, "satellites": 0, "altitude_gps_m": 0.5699999928474426, "groundspeed_mps": 0.04448641091585159}, "flight": {"mode": "STABILIZE", "armed": false}, "ekf": {"attitude": {"roll": 0.015159779228270054, "pitch": -0.014271914958953857, "yaw": 3.058406114578247}, "local_position": {"x": null, "y": null, "z": null}, "status": {"flags": 135, "velocity_variance": 0.0, "pos_horiz_variance": 0.010597342625260353, "pos_vert_variance": 0.023853996768593788}}, "errors": ["PreArm: RC not found", "PreArm: Hardware safety switch"]}
{"timestamp": "2026-01-25T11:05:45.575870Z", "telemetry": {"lat": 0.0, "lon": 0.0, "satellites": 0, "altitude_gps_m": 0.5699999928474426, "groundspeed_mps": 0.042247336357831955}, "flight": {"mode": "STABILIZE", "armed": false}, "ekf": {"attitude": {"roll": 0.015087881125509739, "pitch": -0.014222253113985062, "yaw": 3.058539628982544}, "local_position": {"x": null, "y": null, "z": null}, "status": {"flags": 135, "velocity_variance": 0.0, "pos_horiz_variance": 0.01065412163734436, "pos_vert_variance": 0.0299796462059021}}, "errors": ["PreArm: RC not found", "PreArm: Hardware safety switch"]}
{"timestamp": "2026-01-25T11:05:46.575756Z", "telemetry": {"lat": 0.0, "lon": 0.0, "satellites": 0, "altitude_gps_m": 0.5699999928474426, "groundspeed_mps": 0.044616665691137314}, "flight": {"mode": "STABILIZE", "armed": false}, "ekf": {"attitude": {"roll": 0.015148148871958256, "pitch": -0.014228219166398048, "yaw": 3.0584919452667236}, "local_position": {"x": null, "y": null, "z": null}, "status": {"flags": 135, "velocity_variance": 0.0, "pos_horiz_variance": 0.010397801175713539, "pos_vert_variance": 0.03692498058080673}}, "errors": ["PreArm: RC not found", "PreArm: Hardware safety switch"]}
{"timestamp": "2026-01-25T11:05:47.575971Z", "telemetry": {"lat": 0.0, "lon": 0.0, "satellites": 0, "altitude_gps_m": 0.5699999928474426, "groundspeed_mps": 0.0421268604695797}, "flight": {"mode": "STABILIZE", "armed": false}, "ekf": {"attitude": {"roll": 0.015157955698668957, "pitch": -0.014161419123411179, "yaw": 3.0585474967956543}, "local_position": {"x": null, "y": null, "z": null}, "status": {"flags": 135, "velocity_variance": 0.0, "pos_horiz_variance": 0.010592947714030743, "pos_vert_variance": 0.0011028103763237596}}, "errors": ["PreArm: RC not found", "PreArm: Hardware safety switch"]}
{"timestamp": "2026-01-25T11:05:48.576163Z", "telemetry": {"lat": 0.0, "lon": 0.0, "satellites": 0, "altitude_gps_m": 0.5699999928474426, "groundspeed_mps": 0.0401202067732811}, "flight": {"mode": "STABILIZE", "armed": false}, "ekf": {"attitude": {"roll": 0.015186210162937641, "pitch": -0.01415792666375637, "yaw": 3.058519124984741}, "local_position": {"x": null, "y": null, "z": null}, "status": {"flags": 135, "velocity_variance": 0.0, "pos_horiz_variance": 0.010195580311119556, "pos_vert_variance": 0.024186277762055397}}, "errors": ["PreArm: RC not found", "PreArm: Hardware safety switch"]}
{"timestamp": "2026-01-25T11:05:49.577001Z", "telemetry": {"lat": 0.0, "lon": 0.0, "satellites": 0, "altitude_gps_m": 0.5699999928474426, "groundspeed_mps": 0.03908582404255867}, "flight": {"mode": "STABILIZE", "armed": false}, "ekf": {"attitude": {"roll": 0.01520994957536459, "pitch": -0.014117883518338203, "yaw": 3.0586137771606445}, "local_position": {"x": null, "y": null, "z": null}, "status": {"flags": 135, "velocity_variance": 0.0, "pos_horiz_variance": 0.009827561676502228, "pos_vert_variance": 0.06219440698623657}}, "errors": ["PreArm: RC not found", "PreArm: Hardware safety switch"]}
{"timestamp": "2026-01-25T11:05:50.576355Z", "telemetry": {"lat": 0.0, "lon": 0.0, "satellites": 0, "altitude_gps_m": 0.5699999928474426, "groundspeed_mps": 0.04033462330698967}, "flight": {"mode": "STABILIZE", "armed": false}, "ekf": {"attitude": {"roll": 0.015124023891985416, "pitch": -0.013991570100188255, "yaw": 3.058669090270996}, "local_position": {"x": null, "y": null, "z": null}, "status": {"flags": 135, "velocity_variance": 0.0, "pos_horiz_variance": 0.009779580868780613, "pos_vert_variance": 0.07075278460979462}}, "errors": ["PreArm: RC not found", "PreArm: Hardware safety switch"]}
{"timestamp": "2026-01-25T11:05:51.539194Z", "telemetry": {"lat": 0.0, "lon": 0.0, "satellites": 0, "altitude_gps_m": 0.5699999928474426, "groundspeed_mps": 0.03858195245265961}, "flight": {"mode": "STABILIZE", "armed": false}, "ekf": {"attitude": {"roll": 0.015293478034436703, "pitch": -0.01405392587184906, "yaw": 3.058669328689575}, "local_position": {"x": null, "y": null, "z": null}, "status": {"flags": 135, "velocity_variance": 0.0, "pos_horiz_variance": 0.009667158126831055, "pos_vert_variance": 0.053242407739162445}}, "errors": ["PreArm: RC not found", "PreArm: Hardware safety switch"]}
{"timestamp": "2026-01-25T11:05:52.576679Z", "telemetry": {"lat": 0.0, "lon": 0.0, "satellites": 0, "altitude_gps_m": 0.5699999928474426, "groundspeed_mps": 0.03854602947831154}, "flight": {"mode": "STABILIZE", "armed": false}, "ekf": {"attitude": {"roll": 0.015254885889589787, "pitch": -0.013986622914671898, "yaw": 3.058654546737671}, "local_position": {"x": null, "y": null, "z": null}, "status": {"flags": 135, "velocity_variance": 0.0, "pos_horiz_variance": 0.009488181211054325, "pos_vert_variance": 0.06534703075885773}}, "errors": ["PreArm: RC not found", "PreArm: Hardware safety switch"]}
{"timestamp": "2026-01-25T11:05:53.525596Z", "telemetry": {"lat": 0.0, "lon": 0.0, "satellites": 0, "altitude_gps_m": 0.5699999928474426, "groundspeed_mps": 0.04012890160083771}, "flight": {"mode": "STABILIZE", "armed": false}, "ekf": {"attitude": {"roll": 0.01527498196810484, "pitch": -0.013879206031560898, "yaw": 3.058778762817383}, "local_position": {"x": null, "y": null, "z": null}, "status": {"flags": 135, "velocity_variance": 0.0, "pos_horiz_variance": 0.009555150754749775, "pos_vert_variance": 0.031326714903116226}}, "errors": ["PreArm: RC not found", "PreArm: Hardware safety switch"]}
{"timestamp": "2026-01-25T11:05:54.525556Z", "telemetry": {"lat": 0.0, "lon": 0.0, "satellites": 0, "altitude_gps_m": 0.5699999928474426, "groundspeed_mps": 0.03811988607048988}, "flight": {"mode": "STABILIZE", "armed": false}, "ekf": {"attitude": {"roll": 0.015482175163924694, "pitch": -0.0137800183147192, "yaw": 3.0589585304260254}, "local_position": {"x": null, "y": null, "z": null}, "status": {"flags": 135, "velocity_variance": 0.0, "pos_horiz_variance": 0.009596970863640308, "pos_vert_variance": 0.031575147062540054}}, "errors": ["PreArm: RC not found", "PreArm: Hardware safety switch"]}
{"timestamp": "2026-01-25T11:05:55.654092Z", "telemetry": {"lat": 0.0, "lon": 0.0, "satellites": 0, "altitude_gps_m": 0.5699999928474426, "groundspeed_mps": 0.03528859466314316}, "flight": {"mode": "STABILIZE", "armed": false}, "ekf": {"attitude": {"roll": 0.015562023036181927, "pitch": -0.013822939246892929, "yaw": 3.0589520931243896}, "local_position": {"x": null, "y": null, "z": null}, "status": {"flags": 135, "velocity_variance": 0.0, "pos_horiz_variance": 0.009248818270862103, "pos_vert_variance": 0.031175365671515465}}, "errors": ["PreArm: RC not found", "PreArm: Hardware safety switch"]}
{"timestamp": "2026-01-25T11:05:56.525718Z", "telemetry": {"lat": 0.0, "lon": 0.0, "satellites": 0, "altitude_gps_m": 0.5699999928474426, "groundspeed_mps": 0.035776104778051376}, "flight": {"mode": "STABILIZE", "armed": false}, "ekf": {"attitude": {"roll": 0.01560139562934637, "pitch": -0.013769702985882759, "yaw": 3.0589520931243896}, "local_position": {"x": null, "y": null, "z": null}, "status": {"flags": 135, "velocity_variance": 0.0, "pos_horiz_variance": 0.009004670195281506, "pos_vert_variance": 0.008255462162196636}}, "errors": ["PreArm: RC not found", "PreArm: Hardware safety switch"]}
{"timestamp": "2026-01-25T11:05:57.576982Z", "telemetry": {"lat": 0.0, "lon": 0.0, "satellites": 0, "altitude_gps_m": 0.5699999928474426, "groundspeed_mps": 0.038727130740880966}, "flight": {"mode": "STABILIZE", "armed": false}, "ekf": {"attitude": {"roll": 0.01571992225944996, "pitch": -0.013834765180945396, "yaw": 3.059119939804077}, "local_position": {"x": null, "y": null, "z": null}, "status": {"flags": 135, "velocity_variance": 0.0, "pos_horiz_variance": 0.008876212872564793, "pos_vert_variance": 0.09522949159145355}}, "errors": ["PreArm: RC not found", "PreArm: Hardware safety switch"]}
{"timestamp": "2026-01-25T11:05:58.577064Z", "telemetry": {"lat": 0.0, "lon": 0.0, "satellites": 0, "altitude_gps_m": 0.5699999928474426, "groundspeed_mps": 0.03737340867519379}, "flight": {"mode": "STABILIZE", "armed": false}, "ekf": {"attitude": {"roll": 0.015669850632548332, "pitch": -0.013853222131729126, "yaw": 3.059048891067505}, "local_position": {"x": null, "y": null, "z": null}, "status": {"flags": 135, "velocity_variance": 0.0, "pos_horiz_variance": 0.009153924882411957, "pos_vert_variance": 0.02610030211508274}}, "errors": ["PreArm: RC not found", "PreArm: Hardware safety switch", "PreArm: RC not found", "PreArm: Hardware safety switch"]}
{"timestamp": "2026-01-25T11:05:59.577269Z", "telemetry": {"lat": 0.0, "lon": 0.0, "satellites": 0, "altitude_gps_m": 0.5699999928474426, "groundspeed_mps": 0.0365837924182415}, "flight": {"mode": "STABILIZE", "armed": false}, "ekf": {"attitude": {"roll": 0.015758540481328964, "pitch": -0.013989733532071114, "yaw": 3.059018850326538}, "local_position": {"x": null, "y": null, "z": null}, "status": {"flags": 135, "velocity_variance": 0.0, "pos_horiz_variance": 0.0093602379783988, "pos_vert_variance": 0.06029195711016655}}, "errors": ["PreArm: RC not found", "PreArm: Hardware safety switch", "PreArm: RC not found", "PreArm: Hardware safety switch"]}
{"timestamp": "2026-01-25T11:06:00.526295Z", "telemetry": {"lat": 0.0, "lon": 0.0, "satellites": 0, "altitude_gps_m": 0.5699999928474426, "groundspeed_mps": 0.03677763044834137}, "flight": {"mode": "STABILIZE", "armed": false}, "ekf": {"attitude": {"roll": 0.01587887667119503, "pitch": -0.01393401250243187, "yaw": 3.0591323375701904}, "local_position": {"x": null, "y": null, "z": null}, "status": {"flags": 135, "velocity_variance": 0.0, "pos_horiz_variance": 0.009423887357115746, "pos_vert_variance": 0.01979859173297882}}, "errors": ["PreArm: RC not found", "PreArm: Hardware safety switch", "PreArm: RC not found", "PreArm: Hardware safety switch"]}
{"timestamp": "2026-01-25T11:06:01.539888Z", "telemetry": {"lat": 0.0, "lon": 0.0, "satellites": 0, "altitude_gps_m": 0.5699999928474426, "groundspeed_mps": 0.03511069715023041}, "flight": {"mode": "STABILIZE", "armed": false}, "ekf": {"attitude": {"roll": 0.015753798186779022, "pitch": -0.014159679412841797, "yaw": 3.0590415000915527}, "local_position": {"x": null, "y": null, "z": null}, "status": {"flags": 135, "velocity_variance": 0.0, "pos_horiz_variance": 0.009193681180477142, "pos_vert_variance": 0.05677024647593498}}, "errors": ["PreArm: RC not found", "PreArm: Hardware safety switch", "PreArm: RC not found", "PreArm: Hardware safety switch"]}
{"timestamp": "2026-01-25T11:06:02.577542Z", "telemetry": {"lat": 0.0, "lon": 0.0, "satellites": 0, "altitude_gps_m": 0.5699999928474426, "groundspeed_mps": 0.03994062542915344}, "flight": {"mode": "STABILIZE", "armed": false}, "ekf": {"attitude": {"roll": 0.015769466757774353, "pitch": -0.014136886224150658, "yaw": 3.0590126514434814}, "local_position": {"x": null, "y": null, "z": null}, "status": {"flags": 135, "velocity_variance": 0.0, "pos_horiz_variance": 0.009077171795070171, "pos_vert_variance": 0.0684579387307167}}, "errors": ["PreArm: RC not found", "PreArm: Hardware safety switch", "PreArm: RC not found", "PreArm: Hardware safety switch"]}
{"timestamp": "2026-01-25T11:06:03.539811Z", "telemetry": {"lat": 0.0, "lon": 0.0, "satellites": 0, "altitude_gps_m": 0.5699999928474426, "groundspeed_mps": 0.03868431970477104}, "flight": {"mode": "STABILIZE", "armed": false}, "ekf": {"attitude": {"roll": 0.015699096024036407, "pitch": -0.014123393222689629, "yaw": 3.0589687824249268}, "local_position": {"x": null, "y": null, "z": null}, "status": {"flags": 135, "velocity_variance": 0.0, "pos_horiz_variance": 0.008974161930382252, "pos_vert_variance": 0.059495002031326294}}, "errors": ["PreArm: RC not found", "PreArm: Hardware safety switch", "PreArm: RC not found", "PreArm: Hardware safety switch"]}
{"timestamp": "2026-01-25T11:06:04.531357Z", "telemetry": {"lat": 0.0, "lon": 0.0, "satellites": 0, "altitude_gps_m": 0.5699999928474426, "groundspeed_mps": 0.03995414823293686}, "flight": {"mode": "STABILIZE", "armed": false}, "ekf": {"attitude": {"roll": 0.015673216432332993, "pitch": -0.014182446524500847, "yaw": 3.0589523315429688}, "local_position": {"x": null, "y": null, "z": null}, "status": {"flags": 135, "velocity_variance": 0.0, "pos_horiz_variance": 0.009327180683612823, "pos_vert_variance": 0.0986596941947937}}, "errors": ["PreArm: RC not found", "PreArm: Hardware safety switch", "PreArm: RC not found", "PreArm: Hardware safety switch"]}
{"timestamp": "2026-01-25T11:06:05.525591Z", "telemetry": {"lat": 0.0, "lon": 0.0, "satellites": 0, "altitude_gps_m": 0.5699999928474426, "groundspeed_mps": 0.04242318868637085}, "flight": {"mode": "STABILIZE", "armed": false}, "ekf": {"attitude": {"roll": 0.015677908435463905, "pitch": -0.01423964835703373, "yaw": 3.0590083599090576}, "local_position": {"x": null, "y": null, "z": null}, "status": {"flags": 135, "velocity_variance": 0.0, "pos_horiz_variance": 0.009702133946120739, "pos_vert_variance": 0.07767163962125778}}, "errors": ["PreArm: RC not found", "PreArm: Hardware safety switch", "PreArm: RC not found", "PreArm: Hardware safety switch"]}
{"timestamp": "2026-01-25T11:06:06.549226Z", "telemetry": {"lat": 0.0, "lon": 0.0, "satellites": 0, "altitude_gps_m": 0.5699999928474426, "groundspeed_mps": 0.04458267614245415}, "flight": {"mode": "STABILIZE", "armed": false}, "ekf": {"attitude": {"roll": 0.01592644304037094, "pitch": -0.014334019273519516, "yaw": 3.059011459350586}, "local_position": {"x": null, "y": null, "z": null}, "status": {"flags": 135, "velocity_variance": 0.0, "pos_horiz_variance": 0.01038278266787529, "pos_vert_variance": 0.06476413458585739}}, "errors": ["PreArm: RC not found", "PreArm: Hardware safety switch", "PreArm: RC not found", "PreArm: Hardware safety switch"]}
{"timestamp": "2026-01-25T11:06:07.556800Z", "telemetry": {"lat": 0.0, "lon": 0.0, "satellites": 0, "altitude_gps_m": 0.5699999928474426, "groundspeed_mps": 0.04645539075136185}, "flight": {"mode": "STABILIZE", "armed": false}, "ekf": {"attitude": {"roll": 0.015801887959241867, "pitch": -0.01439564861357212, "yaw": 3.058946132659912}, "local_position": {"x": null, "y": null, "z": null}, "status": {"flags": 135, "velocity_variance": 0.0, "pos_horiz_variance": 0.010725260712206364, "pos_vert_variance": 0.0947040244936943}}, "errors": ["PreArm: RC not found", "PreArm: Hardware safety switch", "PreArm: RC not found", "PreArm: Hardware safety switch"]}
{"timestamp": "2026-01-25T11:06:08.808007Z", "telemetry": {"lat": 0.0, "lon": 0.0, "satellites": 0, "altitude_gps_m": 0.5699999928474426, "groundspeed_mps": 0.046830303966999054}, "flight": {"mode": "STABILIZE", "armed": false}, "ekf": {"attitude": {"roll": 0.015929652377963066, "pitch": -0.014380427077412605, "yaw": 3.0589730739593506}, "local_position": {"x": null, "y": null, "z": null}, "status": {"flags": 135, "velocity_variance": 0.0, "pos_horiz_variance": 0.011161742731928825, "pos_vert_variance": 0.12856662273406982}}, "errors": ["PreArm: RC not found", "PreArm: Hardware safety switch", "PreArm: RC not found", "PreArm: Hardware safety switch"]}
{"timestamp": "2026-01-25T11:06:09.525899Z", "telemetry": {"lat": 0.0, "lon": 0.0, "satellites": 0, "altitude_gps_m": 0.5699999928474426, "groundspeed_mps": 0.05200669914484024}, "flight": {"mode": "STABILIZE", "armed": false}, "ekf": {"attitude": {"roll": 0.01610369235277176, "pitch": -0.014257211238145828, "yaw": 3.059016227722168}, "local_position": {"x": null, "y": null, "z": null}, "status": {"flags": 135, "velocity_variance": 0.0, "pos_horiz_variance": 0.01138808112591505, "pos_vert_variance": 0.021583890542387962}}, "errors": ["PreArm: RC not found", "PreArm: Hardware safety switch", "PreArm: RC not found", "PreArm: Hardware safety switch"]}
{"timestamp": "2026-01-25T11:06:10.526545Z", "telemetry": {"lat": 0.0, "lon": 0.0, "satellites": 0, "altitude_gps_m": 0.5699999928474426, "groundspeed_mps": 0.046050846576690674}, "flight": {"mode": "STABILIZE", "armed": false}, "ekf": {"attitude": {"roll": 0.015911586582660675, "pitch": -0.013949772343039513, "yaw": 3.0588560104370117}, "local_position": {"x": null, "y": null, "z": null}, "status": {"flags": 135, "velocity_variance": 0.0, "pos_horiz_variance": 0.01146438717842102, "pos_vert_variance": 0.031073711812496185}}, "errors": ["PreArm: RC not found", "PreArm: Hardware safety switch", "PreArm: RC not found", "PreArm: Hardware safety switch"]}
{"timestamp": "2026-01-25T11:06:11.633921Z", "telemetry": {"lat": 0.0, "lon": 0.0, "satellites": 0, "altitude_gps_m": 0.5699999928474426, "groundspeed_mps": 0.04117491841316223}, "flight": {"mode": "STABILIZE", "armed": false}, "ekf": {"attitude": {"roll": 0.015704767778515816, "pitch": -0.013839863240718842, "yaw": 3.059065580368042}, "local_position": {"x": null, "y": null, "z": null}, "status": {"flags": 135, "velocity_variance": 0.0, "pos_horiz_variance": 0.010911354795098305, "pos_vert_variance": 0.0023589690681546926}}, "errors": ["PreArm: RC not found", "PreArm: Hardware safety switch", "PreArm: RC not found", "PreArm: Hardware safety switch"]}
{"timestamp": "2026-01-25T11:06:13.788608Z", "telemetry": {"lat": 0.0, "lon": 0.0, "satellites": 0, "altitude_gps_m": 0.5699999928474426, "groundspeed_mps": 0.035898834466934204}, "flight": {"mode": "STABILIZE", "armed": false}, "ekf": {"attitude": {"roll": 0.015501671470701694, "pitch": -0.01364130899310112, "yaw": 3.059325695037842}, "local_position": {"x": null, "y": null, "z": null}, "status": {"flags": 135, "velocity_variance": 0.0, "pos_horiz_variance": 0.009139113128185272, "pos_vert_variance": 0.05944634974002838}}, "errors": ["PreArm: RC not found", "PreArm: Hardware safety switch", "PreArm: RC not found", "PreArm: Hardware safety switch"]}
{"timestamp": "2026-01-25T11:06:14.899869Z", "telemetry": {"lat": 0.0, "lon": 0.0, "satellites": 0, "altitude_gps_m": 0.5699999928474426, "groundspeed_mps": 0.0339815728366375}, "flight": {"mode": "STABILIZE", "armed": false}, "ekf": {"attitude": {"roll": 0.015411817468702793, "pitch": -0.013424241915345192, "yaw": 3.0591881275177}, "local_position": {"x": null, "y": null, "z": null}, "status": {"flags": 135, "velocity_variance": 0.0, "pos_horiz_variance": 0.008954494260251522, "pos_vert_variance": 0.05296064168214798}}, "errors": ["PreArm: RC not found", "PreArm: Hardware safety switch", "PreArm: RC not found", "PreArm: Hardware safety switch"]}
{"timestamp": "2026-01-25T11:06:16.196301Z", "telemetry": {"lat": 0.0, "lon": 0.0, "satellites": 0, "altitude_gps_m": 0.5699999928474426, "groundspeed_mps": 0.03203617408871651}, "flight": {"mode": "STABILIZE", "armed": false}, "ekf": {"attitude": {"roll": 0.015346874482929707, "pitch": -0.013281891122460365, "yaw": 3.0591318607330322}, "local_position": {"x": null, "y": null, "z": null}, "status": {"flags": 135, "velocity_variance": 0.0, "pos_horiz_variance": 0.00831549521535635, "pos_vert_variance": 0.08401104062795639}}, "errors": ["PreArm: RC not found", "PreArm: Hardware safety switch", "PreArm: RC not found", "PreArm: Hardware safety switch"]}
{"timestamp": "2026-01-25T11:06:16.934743Z", "telemetry": {"lat": 0.0, "lon": 0.0, "satellites": 0, "altitude_gps_m": 0.5699999928474426, "groundspeed_mps": 0.03135935217142105}, "flight": {"mode": "STABILIZE", "armed": false}, "ekf": {"attitude": {"roll": 0.015191706828773022, "pitch": -0.013106126338243484, "yaw": 3.0590596199035645}, "local_position": {"x": null, "y": null, "z": null}, "status": {"flags": 135, "velocity_variance": 0.0, "pos_horiz_variance": 0.008039319887757301, "pos_vert_variance": 0.04935267195105553}}, "errors": ["PreArm: RC not found", "PreArm: Hardware safety switch", "PreArm: RC not found", "PreArm: Hardware safety switch"]}
{"timestamp": "2026-01-25T11:06:17.984691Z", "telemetry": {"lat": 0.0, "lon": 0.0, "satellites": 0, "altitude_gps_m": 0.5699999928474426, "groundspeed_mps": 0.027898335829377174}, "flight": {"mode": "STABILIZE", "armed": false}, "ekf": {"attitude": {"roll": 0.015078089199960232, "pitch": -0.013002097606658936, "yaw": 3.0591471195220947}, "local_position": {"x": null, "y": null, "z": null}, "status": {"flags": 135, "velocity_variance": 0.0, "pos_horiz_variance": 0.007676947861909866, "pos_vert_variance": 0.0004553520993795246}}, "errors": ["PreArm: RC not found", "PreArm: Hardware safety switch", "PreArm: RC not found", "PreArm: Hardware safety switch"]}
{"timestamp": "2026-01-25T11:06:19.061485Z", "telemetry": {"lat": 0.0, "lon": 0.0, "satellites": 0, "altitude_gps_m": 0.5699999928474426, "groundspeed_mps": 0.02339024469256401}, "flight": {"mode": "STABILIZE", "armed": false}, "ekf": {"attitude": {"roll": 0.01493994239717722, "pitch": -0.012923022732138634, "yaw": 3.0592479705810547}, "local_position": {"x": null, "y": null, "z": null}, "status": {"flags": 135, "velocity_variance": 0.0, "pos_horiz_variance": 0.006672297604382038, "pos_vert_variance": 0.029704174026846886}}, "errors": ["PreArm: RC not found", "PreArm: Hardware safety switch", "PreArm: RC not found", "PreArm: Hardware safety switch"]}
{"timestamp": "2026-01-25T11:06:20.061793Z", "telemetry": {"lat": 0.0, "lon": 0.0, "satellites": 0, "altitude_gps_m": 0.5699999928474426, "groundspeed_mps": 0.021631808951497078}, "flight": {"mode": "STABILIZE", "armed": false}, "ekf": {"attitude": {"roll": 0.01494711171835661, "pitch": -0.01302623562514782, "yaw": 3.059140682220459}, "local_position": {"x": null, "y": null, "z": null}, "status": {"flags": 135, "velocity_variance": 0.0, "pos_horiz_variance": 0.005595575086772442, "pos_vert_variance": 0.027225283905863762}}, "errors": ["PreArm: RC not found", "PreArm: Hardware safety switch", "PreArm: RC not found", "PreArm: Hardware safety switch"]}
{"timestamp": "2026-01-25T11:06:21.029219Z", "telemetry": {"lat": 0.0, "lon": 0.0, "satellites": 0, "altitude_gps_m": 0.5699999928474426, "groundspeed_mps": 0.023615878075361252}, "flight": {"mode": "STABILIZE", "armed": false}, "ekf": {"attitude": {"roll": 0.015000167302787304, "pitch": -0.012964680790901184, "yaw": 3.059234142303467}, "local_position": {"x": null, "y": null, "z": null}, "status": {"flags": 135, "velocity_variance": 0.0, "pos_horiz_variance": 0.005616604816168547, "pos_vert_variance": 0.0631287470459938}}, "errors": ["PreArm: RC not found", "PreArm: Hardware safety switch", "PreArm: RC not found", "PreArm: Hardware safety switch"]}
{"timestamp": "2026-01-25T11:06:22.173823Z", "telemetry": {"lat": 0.0, "lon": 0.0, "satellites": 0, "altitude_gps_m": 0.5699999928474426, "groundspeed_mps": 0.022578559815883636}, "flight": {"mode": "STABILIZE", "armed": false}, "ekf": {"attitude": {"roll": 0.014992929063737392, "pitch": -0.012901915237307549, "yaw": 3.0593578815460205}, "local_position": {"x": null, "y": null, "z": null}, "status": {"flags": 135, "velocity_variance": 0.0, "pos_horiz_variance": 0.005710331257432699, "pos_vert_variance": 0.01624639518558979}}, "errors": ["PreArm: RC not found", "PreArm: Hardware safety switch", "PreArm: RC not found", "PreArm: Hardware safety switch"]}
{"timestamp": "2026-01-25T11:06:23.132241Z", "telemetry": {"lat": 0.0, "lon": 0.0, "satellites": 0, "altitude_gps_m": 0.5699999928474426, "groundspeed_mps": 0.021707208827137947}, "flight": {"mode": "STABILIZE", "armed": false}, "ekf": {"attitude": {"roll": 0.014961096458137035, "pitch": -0.013143902644515038, "yaw": 3.0592288970947266}, "local_position": {"x": null, "y": null, "z": null}, "status": {"flags": 135, "velocity_variance": 0.0, "pos_horiz_variance": 0.005743101704865694, "pos_vert_variance": 0.053857095539569855}}, "errors": ["PreArm: RC not found", "PreArm: Hardware safety switch", "PreArm: RC not found", "PreArm: Hardware safety switch"]}
{"timestamp": "2026-01-25T11:06:25.121365Z", "telemetry": {"lat": 0.0, "lon": 0.0, "satellites": 0, "altitude_gps_m": 0.5699999928474426, "groundspeed_mps": 0.026877835392951965}, "flight": {"mode": "STABILIZE", "armed": false}, "ekf": {"attitude": {"roll": 0.015081792138516903, "pitch": -0.013232896104454994, "yaw": 3.059171676635742}, "local_position": {"x": null, "y": null, "z": null}, "status": {"flags": 135, "velocity_variance": 0.0, "pos_horiz_variance": 0.006106036249548197, "pos_vert_variance": 0.022731449455022812}}, "errors": ["PreArm: RC not found", "PreArm: Hardware safety switch", "PreArm: RC not found", "PreArm: Hardware safety switch"]}
{"timestamp": "2026-01-25T11:06:26.068422Z", "telemetry": {"lat": 0.0, "lon": 0.0, "satellites": 0, "altitude_gps_m": 0.5699999928474426, "groundspeed_mps": 0.02629413828253746}, "flight": {"mode": "STABILIZE", "armed": false}, "ekf": {"attitude": {"roll": 0.015157771296799183, "pitch": -0.013400305062532425, "yaw": 3.059156656265259}, "local_position": {"x": null, "y": null, "z": null}, "status": {"flags": 135, "velocity_variance": 0.0, "pos_horiz_variance": 0.00647382065653801, "pos_vert_variance": 0.012563000433146954}}, "errors": ["PreArm: RC not found", "PreArm: Hardware safety switch", "PreArm: RC not found", "PreArm: Hardware safety switch"]}
{"timestamp": "2026-01-25T11:06:27.176712Z", "telemetry": {"lat": 0.0, "lon": 0.0, "satellites": 0, "altitude_gps_m": 0.5699999928474426, "groundspeed_mps": 0.029289018362760544}, "flight": {"mode": "STABILIZE", "armed": false}, "ekf": {"attitude": {"roll": 0.015224996022880077, "pitch": -0.013579946011304855, "yaw": 3.059079170227051}, "local_position": {"x": null, "y": null, "z": null}, "status": {"flags": 135, "velocity_variance": 0.0, "pos_horiz_variance": 0.006700598169118166, "pos_vert_variance": 0.01149105653166771}}, "errors": ["PreArm: RC not found", "PreArm: Hardware safety switch", "PreArm: RC not found", "PreArm: Hardware safety switch"]}
{"timestamp": "2026-01-25T11:06:28.026354Z", "telemetry": {"lat": 0.0, "lon": 0.0, "satellites": 0, "altitude_gps_m": 0.5699999928474426, "groundspeed_mps": 0.029788991436362267}, "flight": {"mode": "STABILIZE", "armed": false}, "ekf": {"attitude": {"roll": 0.015261740423738956, "pitch": -0.01367245614528656, "yaw": 3.059117555618286}, "local_position": {"x": null, "y": null, "z": null}, "status": {"flags": 135, "velocity_variance": 0.0, "pos_horiz_variance": 0.00680442713201046, "pos_vert_variance": 0.06184949725866318}}, "errors": ["PreArm: RC not found", "PreArm: Hardware safety switch", "PreArm: RC not found", "PreArm: Hardware safety switch"]}
{"timestamp": "2026-01-25T11:06:29.026188Z", "telemetry": {"lat": 0.0, "lon": 0.0, "satellites": 0, "altitude_gps_m": 0.5699999928474426, "groundspeed_mps": 0.03277983143925667}, "flight": {"mode": "STABILIZE", "armed": false}, "ekf": {"attitude": {"roll": 0.015374054200947285, "pitch": -0.013700157403945923, "yaw": 3.0590567588806152}, "local_position": {"x": null, "y": null, "z": null}, "status": {"flags": 135, "velocity_variance": 0.0, "pos_horiz_variance": 0.0072894771583378315, "pos_vert_variance": 0.034934621304273605}}, "errors": ["PreArm: RC not found", "PreArm: Hardware safety switch", "PreArm: RC not found", "PreArm: Hardware safety switch", "PreArm: RC not found", "PreArm: Hardware safety switch"]}
{"timestamp": "2026-01-25T11:06:30.061692Z", "telemetry": {"lat": 0.0, "lon": 0.0, "satellites": 0, "altitude_gps_m": 0.5699999928474426, "groundspeed_mps": 0.0363602377474308}, "flight": {"mode": "STABILIZE", "armed": false}, "ekf": {"attitude": {"roll": 0.015450856648385525, "pitch": -0.013883749023079872, "yaw": 3.058885097503662}, "local_position": {"x": null, "y": null, "z": null}, "status": {"flags": 135, "velocity_variance": 0.0, "pos_horiz_variance": 0.007891780696809292, "pos_vert_variance": 0.06639750301837921}}, "errors": ["PreArm: RC not found", "PreArm: Hardware safety switch", "PreArm: RC not found", "PreArm: Hardware safety switch", "PreArm: RC not found", "PreArm: Hardware safety switch"]}
{"timestamp": "2026-01-25T11:06:31.025885Z", "telemetry": {"lat": 0.0, "lon": 0.0, "satellites": 0, "altitude_gps_m": 0.5699999928474426, "groundspeed_mps": 0.03728608042001724}, "flight": {"mode": "STABILIZE", "armed": false}, "ekf": {"attitude": {"roll": 0.015499548055231571, "pitch": -0.01377876102924347, "yaw": 3.0587987899780273}, "local_position": {"x": null, "y": null, "z": null}, "status": {"flags": 135, "velocity_variance": 0.0, "pos_horiz_variance": 0.00855746865272522, "pos_vert_variance": 0.020894233137369156}}, "errors": ["PreArm: RC not found", "PreArm: Hardware safety switch", "PreArm: RC not found", "PreArm: Hardware safety switch", "PreArm: RC not found", "PreArm: Hardware safety switch"]}
{"timestamp": "2026-01-25T11:06:32.030309Z", "telemetry": {"lat": 0.0, "lon": 0.0, "satellites": 0, "altitude_gps_m": 0.5699999928474426, "groundspeed_mps": 0.037246353924274445}, "flight": {"mode": "STABILIZE", "armed": false}, "ekf": {"attitude": {"roll": 0.01550691481679678, "pitch": -0.013822784647345543, "yaw": 3.0587902069091797}, "local_position": {"x": null, "y": null, "z": null}, "status": {"flags": 135, "velocity_variance": 0.0, "pos_horiz_variance": 0.008705333806574345, "pos_vert_variance": 0.06797407567501068}}, "errors": ["PreArm: RC not found", "PreArm: Hardware safety switch", "PreArm: RC not found", "PreArm: Hardware safety switch", "PreArm: RC not found", "PreArm: Hardware safety switch"]}
{"timestamp": "2026-01-25T11:06:33.115447Z", "telemetry": {"lat": 0.0, "lon": 0.0, "satellites": 0, "altitude_gps_m": 0.5699999928474426, "groundspeed_mps": 0.03568752110004425}, "flight": {"mode": "STABILIZE", "armed": false}, "ekf": {"attitude": {"roll": 0.01557470764964819, "pitch": -0.013349253684282303, "yaw": 3.0585997104644775}, "local_position": {"x": null, "y": null, "z": null}, "status": {"flags": 135, "velocity_variance": 0.0, "pos_horiz_variance": 0.008934884332120419, "pos_vert_variance": 0.022964131087064743}}, "errors": ["PreArm: RC not found", "PreArm: Hardware safety switch", "PreArm: RC not found", "PreArm: Hardware safety switch", "PreArm: RC not found", "PreArm: Hardware safety switch"]}
{"timestamp": "2026-01-25T11:06:34.101344Z", "telemetry": {"lat": 0.0, "lon": 0.0, "satellites": 0, "altitude_gps_m": 0.5699999928474426, "groundspeed_mps": 0.028698788955807686}, "flight": {"mode": "STABILIZE", "armed": false}, "ekf": {"attitude": {"roll": 0.015555559657514095, "pitch": -0.013247786089777946, "yaw": 3.0585076808929443}, "local_position": {"x": null, "y": null, "z": null}, "status": {"flags": 135, "velocity_variance": 0.0, "pos_horiz_variance": 0.008365659043192863, "pos_vert_variance": 0.004438398405909538}}, "errors": ["PreArm: RC not found", "PreArm: Hardware safety switch", "PreArm: RC not found", "PreArm: Hardware safety switch", "PreArm: RC not found", "PreArm: Hardware safety switch"]}
{"timestamp": "2026-01-25T11:06:35.445809Z", "telemetry": {"lat": 0.0, "lon": 0.0, "satellites": 0, "altitude_gps_m": 0.5699999928474426, "groundspeed_mps": 0.0272219255566597}, "flight": {"mode": "STABILIZE", "armed": false}, "ekf": {"attitude": {"roll": 0.015495832078158855, "pitch": -0.01338908076286316, "yaw": 3.0583276748657227}, "local_position": {"x": null, "y": null, "z": null}, "status": {"flags": 135, "velocity_variance": 0.0, "pos_horiz_variance": 0.007117417175322771, "pos_vert_variance": 0.12285166233778}}, "errors": ["PreArm: RC not found", "PreArm: Hardware safety switch", "PreArm: RC not found", "PreArm: Hardware safety switch", "PreArm: RC not found", "PreArm: Hardware safety switch"]}
{"timestamp": "2026-01-25T11:06:36.025659Z", "telemetry": {"lat": 0.0, "lon": 0.0, "satellites": 0, "altitude_gps_m": 0.5699999928474426, "groundspeed_mps": 0.026723189279437065}, "flight": {"mode": "STABILIZE", "armed": false}, "ekf": {"attitude": {"roll": 0.015562706626951694, "pitch": -0.013298220932483673, "yaw": 3.0583128929138184}, "local_position": {"x": null, "y": null, "z": null}, "status": {"flags": 135, "velocity_variance": 0.0, "pos_horiz_variance": 0.006947520654648542, "pos_vert_variance": 0.019365135580301285}}, "errors": ["PreArm: RC not found", "PreArm: Hardware safety switch", "PreArm: RC not found", "PreArm: Hardware safety switch", "PreArm: RC not found", "PreArm: Hardware safety switch"]}
{"timestamp": "2026-01-25T11:06:37.117789Z", "telemetry": {"lat": 0.0, "lon": 0.0, "satellites": 0, "altitude_gps_m": 0.5699999928474426, "groundspeed_mps": 0.027528027072548866}, "flight": {"mode": "STABILIZE", "armed": false}, "ekf": {"attitude": {"roll": 0.015536447055637836, "pitch": -0.013521386310458183, "yaw": 3.0581936836242676}, "local_position": {"x": null, "y": null, "z": null}, "status": {"flags": 135, "velocity_variance": 0.0, "pos_horiz_variance": 0.006914837285876274, "pos_vert_variance": 0.03500378504395485}}, "errors": ["PreArm: RC not found", "PreArm: Hardware safety switch", "PreArm: RC not found", "PreArm: Hardware safety switch", "PreArm: RC not found", "PreArm: Hardware safety switch"]}
{"timestamp": "2026-01-25T11:06:38.026310Z", "telemetry": {"lat": 0.0, "lon": 0.0, "satellites": 0, "altitude_gps_m": 0.5699999928474426, "groundspeed_mps": 0.028778953477740288}, "flight": {"mode": "STABILIZE", "armed": false}, "ekf": {"attitude": {"roll": 0.015607980079948902, "pitch": -0.013658497482538223, "yaw": 3.058250665664673}, "local_position": {"x": null, "y": null, "z": null}, "status": {"flags": 135, "velocity_variance": 0.0, "pos_horiz_variance": 0.006891889497637749, "pos_vert_variance": 0.06204646825790405}}, "errors": ["PreArm: RC not found", "PreArm: Hardware safety switch", "PreArm: RC not found", "PreArm: Hardware safety switch", "PreArm: RC not found", "PreArm: Hardware safety switch"]}
{"timestamp": "2026-01-25T11:06:39.080374Z", "telemetry": {"lat": 0.0, "lon": 0.0, "satellites": 0, "altitude_gps_m": 0.5699999928474426, "groundspeed_mps": 0.03498664125800133}, "flight": {"mode": "STABILIZE", "armed": false}, "ekf": {"attitude": {"roll": 0.015812622383236885, "pitch": -0.013935942202806473, "yaw": 3.0580639839172363}, "local_position": {"x": null, "y": null, "z": null}, "status": {"flags": 135, "velocity_variance": 0.0, "pos_horiz_variance": 0.007211248856037855, "pos_vert_variance": 0.002706371946260333}}, "errors": ["PreArm: RC not found", "PreArm: Hardware safety switch", "PreArm: RC not found", "PreArm: Hardware safety switch", "PreArm: RC not found", "PreArm: Hardware safety switch"]}
{"timestamp": "2026-01-25T11:06:40.908077Z", "telemetry": {"lat": 0.0, "lon": 0.0, "satellites": 0, "altitude_gps_m": 0.5699999928474426, "groundspeed_mps": 0.03850944712758064}, "flight": {"mode": "STABILIZE", "armed": false}, "ekf": {"attitude": {"roll": 0.01578868366777897, "pitch": -0.013729451224207878, "yaw": 3.057856798171997}, "local_position": {"x": null, "y": null, "z": null}, "status": {"flags": 135, "velocity_variance": 0.0, "pos_horiz_variance": 0.008986552245914936, "pos_vert_variance": 0.08386779576539993}}, "errors": ["PreArm: RC not found", "PreArm: Hardware safety switch", "PreArm: RC not found", "PreArm: Hardware safety switch", "PreArm: RC not found", "PreArm: Hardware safety switch"]}
{"timestamp": "2026-01-25T11:06:41.066277Z", "telemetry": {"lat": 0.0, "lon": 0.0, "satellites": 0, "altitude_gps_m": 0.5699999928474426, "groundspeed_mps": 0.03747404366731644}, "flight": {"mode": "STABILIZE", "armed": false}, "ekf": {"attitude": {"roll": 0.01574297994375229, "pitch": -0.013680651783943176, "yaw": 3.057915687561035}, "local_position": {"x": null, "y": null, "z": null}, "status": {"flags": 135, "velocity_variance": 0.0, "pos_horiz_variance": 0.008986552245914936, "pos_vert_variance": 0.08386779576539993}}, "errors": ["PreArm: RC not found", "PreArm: Hardware safety switch", "PreArm: RC not found", "PreArm: Hardware safety switch", "PreArm: RC not found", "PreArm: Hardware safety switch"]}
{"timestamp": "2026-01-25T11:06:44.380002Z", "telemetry": {"lat": 0.0, "lon": 0.0, "satellites": 0, "altitude_gps_m": 0.5699999928474426, "groundspeed_mps": 0.03060939349234104}, "flight": {"mode": "STABILIZE", "armed": false}, "ekf": {"attitude": {"roll": 0.015518716536462307, "pitch": -0.01363402046263218, "yaw": 3.0577306747436523}, "local_position": {"x": null, "y": null, "z": null}, "status": {"flags": 135, "velocity_variance": 0.0, "pos_horiz_variance": 0.008160422556102276, "pos_vert_variance": 0.008300993591547012}}, "errors": ["PreArm: RC not found", "PreArm: Hardware safety switch", "PreArm: RC not found", "PreArm: Hardware safety switch", "PreArm: RC not found", "PreArm: Hardware safety switch"]}
