{"timestamp": "2026-01-29T12:09:00.611062Z", "telemetry": {"lat": 0.0, "lon": 0.0, "satellites": 0, "altitude_gps_m": -0.10999999940395355, "groundspeed_mps": 0.09887497872114182}, "flight": {"mode": "STABILIZE", "armed": false}, "ekf": {"attitude": {"roll": -0.02748376503586769, "pitch": -0.02188657596707344, "yaw": -0.39125028252601624}, "local_position": {"x": null, "y": null, "z": null}, "status": {"flags": 135, "velocity_variance": 0.0, "pos_horiz_variance": 0.021759552881121635, "pos_vert_variance": 0.07893373817205429}}, "errors": []}
{"timestamp": "2026-01-29T12:09:01.571397Z", "telemetry": {"lat": 0.0, "lon": 0.0, "satellites": 0, "altitude_gps_m": -0.10999999940395355, "groundspeed_mps": 0.10439280420541763}, "flight": {"mode": "STABILIZE", "armed": false}, "ekf": {"attitude": {"roll": -0.027458811178803444, "pitch": -0.022023923695087433, "yaw": -0.39107778668403625}, "local_position": {"x": null, "y": null, "z": null}, "status": {"flags": 135, "velocity_variance": 0.0, "pos_horiz_variance": 0.023270726203918457, "pos_vert_variance": 0.07608957588672638}}, "errors": []}
{"timestamp": "2026-01-29T12:09:02.493337Z", "telemetry": {"lat": 0.0, "lon": 0.0, "satellites": 0, "altitude_gps_m": -0.10999999940395355, "groundspeed_mps": 0.10568980872631073}, "flight": {"mode": "STABILIZE", "armed": false}, "ekf": {"attitude": {"roll": -0.027406958863139153, "pitch": -0.0222039595246315, "yaw": -0.39120519161224365}, "local_position": {"x": null, "y": null, "z": null}, "status": {"flags": 135, "velocity_variance": 0.0, "pos_horiz_variance": 0.024309352040290833, "pos_vert_variance": 0.15001584589481354}}, "errors": []}
{"timestamp": "2026-01-29T12:09:03.453180Z", "telemetry": {"lat": 0.0, "lon": 0.0, "satellites": 0, "altitude_gps_m": -0.10999999940395355, "groundspeed_mps": 0.10893519967794418}, "flight": {"mode": "STABILIZE", "armed": false}, "ekf": {"attitude": {"roll": -0.027145791798830032, "pitch": -0.022326501086354256, "yaw": -0.3912665545940399}, "local_position": {"x": null, "y": null, "z": null}, "status": {"flags": 135, "velocity_variance": 0.0, "pos_horiz_variance": 0.025000672787427902, "pos_vert_variance": 0.045096512883901596}}, "errors": []}
{"timestamp": "2026-01-29T12:09:04.454308Z", "telemetry": {"lat": 0.0, "lon": 0.0, "satellites": 0, "altitude_gps_m": -0.10999999940395355, "groundspeed_mps": 0.11039536446332932}, "flight": {"mode": "STABILIZE", "armed": false}, "ekf": {"attitude": {"roll": -0.026965979486703873, "pitch": -0.022374607622623444, "yaw": -0.39140599966049194}, "local_position": {"x": null, "y": null, "z": null}, "status": {"flags": 135, "velocity_variance": 0.0, "pos_horiz_variance": 0.025643598288297653, "pos_vert_variance": 0.03803987056016922}}, "errors": []}
{"timestamp": "2026-01-29T12:09:05.453915Z", "telemetry": {"lat": 0.0, "lon": 0.0, "satellites": 0, "altitude_gps_m": -0.10999999940395355, "groundspeed_mps": 0.11468955874443054}, "flight": {"mode": "STABILIZE", "armed": false}, "ekf": {"attitude": {"roll": -0.02702459692955017, "pitch": -0.023015104234218597, "yaw": -0.39128896594047546}, "local_position": {"x": null, "y": null, "z": null}, "status": {"flags": 135, "velocity_variance": 0.0, "pos_horiz_variance": 0.026216236874461174, "pos_vert_variance": 0.0009943704353645444}}, "errors": []}
{"timestamp": "2026-01-29T12:09:06.453088Z", "telemetry": {"lat": 0.0, "lon": 0.0, "satellites": 0, "altitude_gps_m": -0.10999999940395355, "groundspeed_mps": 0.11518106609582901}, "flight": {"mode": "STABILIZE", "armed": false}, "ekf": {"attitude": {"roll": -0.02703522890806198, "pitch": -0.02293192222714424, "yaw": -0.3912290632724762}, "local_position": {"x": null, "y": null, "z": null}, "status": {"flags": 135, "velocity_variance": 0.0, "pos_horiz_variance": 0.026827219873666763, "pos_vert_variance": 0.01812467910349369}}, "errors": []}
{"timestamp": "2026-01-29T12:09:07.453443Z", "telemetry": {"lat": 0.0, "lon": 0.0, "satellites": 0, "altitude_gps_m": -0.10999999940395355, "groundspeed_mps": 0.1193426102399826}, "flight": {"mode": "STABILIZE", "armed": false}, "ekf": {"attitude": {"roll": -0.027042638510465622, "pitch": -0.023097645491361618, "yaw": -0.39108359813690186}, "local_position": {"x": null, "y": null, "z": null}, "status": {"flags": 135, "velocity_variance": 0.0, "pos_horiz_variance": 0.027706000953912735, "pos_vert_variance": 0.10658236593008041}}, "errors": []}
{"timestamp": "2026-01-29T12:09:08.453614Z", "telemetry": {"lat": 0.0, "lon": 0.0, "satellites": 0, "altitude_gps_m": -0.10999999940395355, "groundspeed_mps": 0.1256013959646225}, "flight": {"mode": "STABILIZE", "armed": false}, "ekf": {"attitude": {"roll": -0.026789383962750435, "pitch": -0.023364277556538582, "yaw": -0.39121246337890625}, "local_position": {"x": null, "y": null, "z": null}, "status": {"flags": 135, "velocity_variance": 0.0, "pos_horiz_variance": 0.028653021901845932, "pos_vert_variance": 0.06526103615760803}}, "errors": []}
{"timestamp": "2026-01-29T12:09:09.455358Z", "telemetry": {"lat": 0.0, "lon": 0.0, "satellites": 0, "altitude_gps_m": -0.10999999940395355, "groundspeed_mps": 0.12664729356765747}, "flight": {"mode": "STABILIZE", "armed": false}, "ekf": {"attitude": {"roll": -0.026691118255257607, "pitch": -0.023614969104528427, "yaw": -0.391135036945343}, "local_position": {"x": null, "y": null, "z": null}, "status": {"flags": 135, "velocity_variance": 0.0, "pos_horiz_variance": 0.029625046998262405, "pos_vert_variance": 0.08432730287313461}}, "errors": []}
{"timestamp": "2026-01-29T12:09:10.453639Z", "telemetry": {"lat": 0.0, "lon": 0.0, "satellites": 0, "altitude_gps_m": -0.10999999940395355, "groundspeed_mps": 0.13280457258224487}, "flight": {"mode": "STABILIZE", "armed": false}, "ekf": {"attitude": {"roll": -0.026687202975153923, "pitch": -0.024047471582889557, "yaw": -0.391035795211792}, "local_position": {"x": null, "y": null, "z": null}, "status": {"flags": 135, "velocity_variance": 0.0, "pos_horiz_variance": 0.030577903613448143, "pos_vert_variance": 0.0011720666661858559}}, "errors": []}
{"timestamp": "2026-01-29T12:09:11.454371Z", "telemetry": {"lat": 0.0, "lon": 0.0, "satellites": 0, "altitude_gps_m": -0.10999999940395355, "groundspeed_mps": 0.14014634490013123}, "flight": {"mode": "STABILIZE", "armed": false}, "ekf": {"attitude": {"roll": -0.02676006406545639, "pitch": -0.024326413869857788, "yaw": -0.39099812507629395}, "local_position": {"x": null, "y": null, "z": null}, "status": {"flags": 135, "velocity_variance": 0.0, "pos_horiz_variance": 0.031888674944639206, "pos_vert_variance": 0.010486924089491367}}, "errors": []}
{"timestamp": "2026-01-29T12:09:12.453987Z", "telemetry": {"lat": 0.0, "lon": 0.0, "satellites": 0, "altitude_gps_m": -0.10999999940395355, "groundspeed_mps": 0.14562702178955078}, "flight": {"mode": "STABILIZE", "armed": false}, "ekf": {"attitude": {"roll": -0.026966063305735588, "pitch": -0.02438553422689438, "yaw": -0.39078956842422485}, "local_position": {"x": null, "y": null, "z": null}, "status": {"flags": 135, "velocity_variance": 0.0, "pos_horiz_variance": 0.03331317380070686, "pos_vert_variance": 0.06683071702718735}}, "errors": []}
{"timestamp": "2026-01-29T12:09:13.455255Z", "telemetry": {"lat": 0.0, "lon": 0.0, "satellites": 0, "altitude_gps_m": -0.10999999940395355, "groundspeed_mps": 0.15046574175357819}, "flight": {"mode": "STABILIZE", "armed": false}, "ekf": {"attitude": {"roll": -0.026989446952939034, "pitch": -0.024389808997511864, "yaw": -0.3911823630332947}, "local_position": {"x": null, "y": null, "z": null}, "status": {"flags": 135, "velocity_variance": 0.0, "pos_horiz_variance": 0.03494882211089134, "pos_vert_variance": 0.008112659677863121}}, "errors": []}
{"timestamp": "2026-01-29T12:09:14.454348Z", "telemetry": {"lat": 0.0, "lon": 0.0, "satellites": 0, "altitude_gps_m": -0.10999999940395355, "groundspeed_mps": 0.048202306032180786}, "flight": {"mode": "STABILIZE", "armed": false}, "ekf": {"attitude": {"roll": -0.025514723733067513, "pitch": 0.06719744205474854, "yaw": -0.39227479696273804}, "local_position": {"x": null, "y": null, "z": null}, "status": {"flags": 135, "velocity_variance": 0.0, "pos_horiz_variance": 0.035752005875110626, "pos_vert_variance": 0.08679108321666718}}, "errors": []}
{"timestamp": "2026-01-29T12:09:15.455062Z", "telemetry": {"lat": 0.0, "lon": 0.0, "satellites": 0, "altitude_gps_m": -0.10999999940395355, "groundspeed_mps": 0.09631791710853577}, "flight": {"mode": "STABILIZE", "armed": false}, "ekf": {"attitude": {"roll": -0.0007458877516910434, "pitch": -0.16860869526863098, "yaw": -0.42207562923431396}, "local_position": {"x": null, "y": null, "z": null}, "status": {"flags": 135, "velocity_variance": 0.0, "pos_horiz_variance": 0.033768415451049805, "pos_vert_variance": 0.01648705080151558}}, "errors": []}
{"timestamp": "2026-01-29T12:09:16.454078Z", "telemetry": {"lat": 0.0, "lon": 0.0, "satellites": 0, "altitude_gps_m": -0.10999999940395355, "groundspeed_mps": 0.5021721124649048}, "flight": {"mode": "STABILIZE", "armed": false}, "ekf": {"attitude": {"roll": -0.02757531777024269, "pitch": -0.1001615822315216, "yaw": -0.47142696380615234}, "local_position": {"x": null, "y": null, "z": null}, "status": {"flags": 135, "velocity_variance": 0.0, "pos_horiz_variance": 0.04124372452497482, "pos_vert_variance": 0.02998359687626362}}, "errors": []}
{"timestamp": "2026-01-29T12:09:17.455041Z", "telemetry": {"lat": 0.0, "lon": 0.0, "satellites": 0, "altitude_gps_m": -0.10999999940395355, "groundspeed_mps": 0.39649391174316406}, "flight": {"mode": "STABILIZE", "armed": false}, "ekf": {"attitude": {"roll": 0.12380634248256683, "pitch": -0.24101753532886505, "yaw": -1.8772168159484863}, "local_position": {"x": null, "y": null, "z": null}, "status": {"flags": 135, "velocity_variance": 0.0, "pos_horiz_variance": 0.0684877336025238, "pos_vert_variance": 0.009666827507317066}}, "errors": []}
{"timestamp": "2026-01-29T12:09:18.455018Z", "telemetry": {"lat": 0.0, "lon": 0.0, "satellites": 0, "altitude_gps_m": -0.10999999940395355, "groundspeed_mps": 0.11948785930871964}, "flight": {"mode": "STABILIZE", "armed": false}, "ekf": {"attitude": {"roll": 0.09790392965078354, "pitch": -0.02455664612352848, "yaw": -2.316751480102539}, "local_position": {"x": null, "y": null, "z": null}, "status": {"flags": 135, "velocity_variance": 0.0, "pos_horiz_variance": 0.06353431195020676, "pos_vert_variance": 0.057148586958646774}}, "errors": []}
{"timestamp": "2026-01-29T12:09:19.455742Z", "telemetry": {"lat": 0.0, "lon": 0.0, "satellites": 0, "altitude_gps_m": -0.10999999940395355, "groundspeed_mps": 0.22056154906749725}, "flight": {"mode": "STABILIZE", "armed": false}, "ekf": {"attitude": {"roll": 0.02605379931628704, "pitch": 0.008769739419221878, "yaw": -2.279358386993408}, "local_position": {"x": null, "y": null, "z": null}, "status": {"flags": 135, "velocity_variance": 0.0, "pos_horiz_variance": 0.022156059741973877, "pos_vert_variance": 0.1039288192987442}}, "errors": []}
{"timestamp": "2026-01-29T12:09:20.454681Z", "telemetry": {"lat": 0.0, "lon": 0.0, "satellites": 0, "altitude_gps_m": -0.10999999940395355, "groundspeed_mps": 0.34169265627861023}, "flight": {"mode": "STABILIZE", "armed": false}, "ekf": {"attitude": {"roll": 0.03413131833076477, "pitch": -0.054136503487825394, "yaw": -1.7865564823150635}, "local_position": {"x": null, "y": null, "z": null}, "status": {"flags": 135, "velocity_variance": 0.0, "pos_horiz_variance": 0.029889509081840515, "pos_vert_variance": 0.04028354957699776}}, "errors": []}
{"timestamp": "2026-01-29T12:09:21.473100Z", "telemetry": {"lat": 0.0, "lon": 0.0, "satellites": 0, "altitude_gps_m": -0.10999999940395355, "groundspeed_mps": 0.3442695736885071}, "flight": {"mode": "STABILIZE", "armed": false}, "ekf": {"attitude": {"roll": 0.09597497433423996, "pitch": -0.038185637444257736, "yaw": -2.0088696479797363}, "local_position": {"x": null, "y": null, "z": null}, "status": {"flags": 135, "velocity_variance": 0.0, "pos_horiz_variance": 0.05891495570540428, "pos_vert_variance": 0.03519892692565918}}, "errors": []}
{"timestamp": "2026-01-29T12:09:22.473052Z", "telemetry": {"lat": 0.0, "lon": 0.0, "satellites": 0, "altitude_gps_m": -0.10999999940395355, "groundspeed_mps": 0.5037102103233337}, "flight": {"mode": "STABILIZE", "armed": false}, "ekf": {"attitude": {"roll": 0.04550584778189659, "pitch": -0.018237847834825516, "yaw": -2.067704916000366}, "local_position": {"x": null, "y": null, "z": null}, "status": {"flags": 135, "velocity_variance": 0.0, "pos_horiz_variance": 0.0795147493481636, "pos_vert_variance": 0.061409734189510345}}, "errors": []}
{"timestamp": "2026-01-29T12:09:23.473017Z", "telemetry": {"lat": 0.0, "lon": 0.0, "satellites": 0, "altitude_gps_m": -0.10999999940395355, "groundspeed_mps": 0.4601474702358246}, "flight": {"mode": "STABILIZE", "armed": false}, "ekf": {"attitude": {"roll": 0.05889890715479851, "pitch": -0.026532012969255447, "yaw": -1.8587020635604858}, "local_position": {"x": null, "y": null, "z": null}, "status": {"flags": 135, "velocity_variance": 0.0, "pos_horiz_variance": 0.07726459205150604, "pos_vert_variance": 0.007013777270913124}}, "errors": []}
{"timestamp": "2026-01-29T12:09:24.473278Z", "telemetry": {"lat": 0.0, "lon": 0.0, "satellites": 0, "altitude_gps_m": -0.10999999940395355, "groundspeed_mps": 0.21790292859077454}, "flight": {"mode": "STABILIZE", "armed": false}, "ekf": {"attitude": {"roll": -0.029743922874331474, "pitch": -0.01981137879192829, "yaw": -1.62037193775177}, "local_position": {"x": null, "y": null, "z": null}, "status": {"flags": 135, "velocity_variance": 0.0, "pos_horiz_variance": 0.07350734621286392, "pos_vert_variance": 0.007185677066445351}}, "errors": []}
{"timestamp": "2026-01-29T12:09:25.473066Z", "telemetry": {"lat": 0.0, "lon": 0.0, "satellites": 0, "altitude_gps_m": -0.10999999940395355, "groundspeed_mps": 0.15770119428634644}, "flight": {"mode": "STABILIZE", "armed": false}, "ekf": {"attitude": {"roll": -0.028184350579977036, "pitch": -0.02325977385044098, "yaw": -1.6152949333190918}, "local_position": {"x": null, "y": null, "z": null}, "status": {"flags": 135, "velocity_variance": 0.0, "pos_horiz_variance": 0.055153265595436096, "pos_vert_variance": 0.004807344637811184}}, "errors": []}
{"timestamp": "2026-01-29T12:09:26.473146Z", "telemetry": {"lat": 0.0, "lon": 0.0, "satellites": 0, "altitude_gps_m": -0.10999999940395355, "groundspeed_mps": 0.14583410322666168}, "flight": {"mode": "STABILIZE", "armed": false}, "ekf": {"attitude": {"roll": -0.027723519131541252, "pitch": -0.02294343151152134, "yaw": -1.6072919368743896}, "local_position": {"x": null, "y": null, "z": null}, "status": {"flags": 135, "velocity_variance": 0.0, "pos_horiz_variance": 0.04355674237012863, "pos_vert_variance": 0.0005319113843142986}}, "errors": ["PreArm: RC not found", "PreArm: Hardware safety switch", "PreArm: Compasses inconsistent"]}
{"timestamp": "2026-01-29T12:09:27.473388Z", "telemetry": {"lat": 0.0, "lon": 0.0, "satellites": 0, "altitude_gps_m": -0.10999999940395355, "groundspeed_mps": 0.15050803124904633}, "flight": {"mode": "STABILIZE", "armed": false}, "ekf": {"attitude": {"roll": -0.02810806967318058, "pitch": -0.022795578464865685, "yaw": -1.5985039472579956}, "local_position": {"x": null, "y": null, "z": null}, "status": {"flags": 135, "velocity_variance": 0.0, "pos_horiz_variance": 0.03849203884601593, "pos_vert_variance": 0.042826395481824875}}, "errors": ["PreArm: RC not found", "PreArm: Hardware safety switch", "PreArm: Compasses inconsistent"]}
{"timestamp": "2026-01-29T12:09:28.473036Z", "telemetry": {"lat": 0.0, "lon": 0.0, "satellites": 0, "altitude_gps_m": -0.10999999940395355, "groundspeed_mps": 0.1512589305639267}, "flight": {"mode": "STABILIZE", "armed": false}, "ekf": {"attitude": {"roll": -0.02866152860224247, "pitch": -0.022782761603593826, "yaw": -1.5898791551589966}, "local_position": {"x": null, "y": null, "z": null}, "status": {"flags": 135, "velocity_variance": 0.0, "pos_horiz_variance": 0.037587620317935944, "pos_vert_variance": 0.035103246569633484}}, "errors": ["PreArm: RC not found", "PreArm: Hardware safety switch", "PreArm: Compasses inconsistent"]}
{"timestamp": "2026-01-29T12:09:29.473196Z", "telemetry": {"lat": 0.0, "lon": 0.0, "satellites": 0, "altitude_gps_m": -0.10999999940395355, "groundspeed_mps": 0.15115252137184143}, "flight": {"mode": "STABILIZE", "armed": false}, "ekf": {"attitude": {"roll": -0.029408110305666924, "pitch": -0.02289409376680851, "yaw": -1.5813539028167725}, "local_position": {"x": null, "y": null, "z": null}, "status": {"flags": 135, "velocity_variance": 0.0, "pos_horiz_variance": 0.0372953787446022, "pos_vert_variance": 0.039281897246837616}}, "errors": ["PreArm: RC not found", "PreArm: Hardware safety switch", "PreArm: Compasses inconsistent"]}
{"timestamp": "2026-01-29T12:09:30.473280Z", "telemetry": {"lat": 0.0, "lon": 0.0, "satellites": 0, "altitude_gps_m": -0.10999999940395355, "groundspeed_mps": 0.14999404549598694}, "flight": {"mode": "STABILIZE", "armed": false}, "ekf": {"attitude": {"roll": -0.030077992007136345, "pitch": -0.022980477660894394, "yaw": -1.5732427835464478}, "local_position": {"x": null, "y": null, "z": null}, "status": {"flags": 135, "velocity_variance": 0.0, "pos_horiz_variance": 0.036993060261011124, "pos_vert_variance": 0.024301806464791298}}, "errors": ["PreArm: RC not found", "PreArm: Hardware safety switch", "PreArm: Compasses inconsistent"]}
{"timestamp": "2026-01-29T12:09:31.473404Z", "telemetry": {"lat": 0.0, "lon": 0.0, "satellites": 0, "altitude_gps_m": -0.10999999940395355, "groundspeed_mps": 0.149493008852005}, "flight": {"mode": "STABILIZE", "armed": false}, "ekf": {"attitude": {"roll": -0.03044142760336399, "pitch": -0.022937871515750885, "yaw": -1.5671948194503784}, "local_position": {"x": null, "y": null, "z": null}, "status": {"flags": 135, "velocity_variance": 0.0, "pos_horiz_variance": 0.03678056225180626, "pos_vert_variance": 0.056806594133377075}}, "errors": ["PreArm: RC not found", "PreArm: Hardware safety switch", "PreArm: Compasses inconsistent"]}
{"timestamp": "2026-01-29T12:09:32.473287Z", "telemetry": {"lat": 0.0, "lon": 0.0, "satellites": 0, "altitude_gps_m": -0.10999999940395355, "groundspeed_mps": 0.1488376259803772}, "flight": {"mode": "STABILIZE", "armed": false}, "ekf": {"attitude": {"roll": -0.030974874272942543, "pitch": -0.022867385298013687, "yaw": -1.5580285787582397}, "local_position": {"x": null, "y": null, "z": null}, "status": {"flags": 135, "velocity_variance": 0.0, "pos_horiz_variance": 0.03635095804929733, "pos_vert_variance": 0.009290511719882488}}, "errors": ["PreArm: RC not found", "PreArm: Hardware safety switch", "PreArm: Compasses inconsistent"]}
{"timestamp": "2026-01-29T12:09:33.473281Z", "telemetry": {"lat": 0.0, "lon": 0.0, "satellites": 0, "altitude_gps_m": -0.10999999940395355, "groundspeed_mps": 0.15092064440250397}, "flight": {"mode": "STABILIZE", "armed": false}, "ekf": {"attitude": {"roll": -0.0310489721596241, "pitch": -0.022931622341275215, "yaw": -1.5513763427734375}, "local_position": {"x": null, "y": null, "z": null}, "status": {"flags": 135, "velocity_variance": 0.0, "pos_horiz_variance": 0.03621509671211243, "pos_vert_variance": 0.02886059135198593}}, "errors": ["PreArm: RC not found", "PreArm: Hardware safety switch", "PreArm: Compasses inconsistent"]}
{"timestamp": "2026-01-29T12:09:34.473368Z", "telemetry": {"lat": 0.0, "lon": 0.0, "satellites": 0, "altitude_gps_m": -0.10999999940395355, "groundspeed_mps": 0.15003372728824615}, "flight": {"mode": "STABILIZE", "armed": false}, "ekf": {"attitude": {"roll": -0.03114614449441433, "pitch": -0.02286703698337078, "yaw": -1.5467133522033691}, "local_position": {"x": null, "y": null, "z": null}, "status": {"flags": 135, "velocity_variance": 0.0, "pos_horiz_variance": 0.03644631803035736, "pos_vert_variance": 0.04132639244198799}}, "errors": ["PreArm: RC not found", "PreArm: Hardware safety switch", "PreArm: Compasses inconsistent"]}
{"timestamp": "2026-01-29T12:09:35.473627Z", "telemetry": {"lat": 0.0, "lon": 0.0, "satellites": 0, "altitude_gps_m": -0.10999999940395355, "groundspeed_mps": 0.1499263048171997}, "flight": {"mode": "STABILIZE", "armed": false}, "ekf": {"attitude": {"roll": -0.03130101412534714, "pitch": -0.02287372387945652, "yaw": -1.53960120677948}, "local_position": {"x": null, "y": null, "z": null}, "status": {"flags": 135, "velocity_variance": 0.0, "pos_horiz_variance": 0.03639981150627136, "pos_vert_variance": 0.032052502036094666}}, "errors": ["PreArm: RC not found", "PreArm: Hardware safety switch", "PreArm: Compasses inconsistent"]}
{"timestamp": "2026-01-29T12:09:36.473356Z", "telemetry": {"lat": 0.0, "lon": 0.0, "satellites": 0, "altitude_gps_m": -0.10999999940395355, "groundspeed_mps": 0.2999933063983917}, "flight": {"mode": "STABILIZE", "armed": false}, "ekf": {"attitude": {"roll": 0.009648963809013367, "pitch": 0.031306859105825424, "yaw": -1.8510171175003052}, "local_position": {"x": null, "y": null, "z": null}, "status": {"flags": 135, "velocity_variance": 0.0, "pos_horiz_variance": 0.03654193878173828, "pos_vert_variance": 0.024985291063785553}}, "errors": ["PreArm: RC not found", "PreArm: Hardware safety switch", "PreArm: Compasses inconsistent"]}
{"timestamp": "2026-01-29T12:09:37.473287Z", "telemetry": {"lat": 0.0, "lon": 0.0, "satellites": 0, "altitude_gps_m": -0.10999999940395355, "groundspeed_mps": 0.0844610258936882}, "flight": {"mode": "STABILIZE", "armed": false}, "ekf": {"attitude": {"roll": -0.14601893723011017, "pitch": 0.026872891932725906, "yaw": -2.3609824180603027}, "local_position": {"x": null, "y": null, "z": null}, "status": {"flags": 135, "velocity_variance": 0.0, "pos_horiz_variance": 0.04667910560965538, "pos_vert_variance": 0.017696138471364975}}, "errors": ["PreArm: RC not found", "PreArm: Hardware safety switch", "PreArm: Compasses inconsistent"]}
{"timestamp": "2026-01-29T12:09:38.473546Z", "telemetry": {"lat": 0.0, "lon": 0.0, "satellites": 0, "altitude_gps_m": -0.10999999940395355, "groundspeed_mps": 0.24565115571022034}, "flight": {"mode": "STABILIZE", "armed": false}, "ekf": {"attitude": {"roll": -0.08261092007160187, "pitch": 0.055105987936258316, "yaw": -2.3285112380981445}, "local_position": {"x": null, "y": null, "z": null}, "status": {"flags": 135, "velocity_variance": 0.0, "pos_horiz_variance": 0.016155077144503593, "pos_vert_variance": 0.0211928877979517}}, "errors": ["PreArm: RC not found", "PreArm: Hardware safety switch", "PreArm: Compasses inconsistent"]}
{"timestamp": "2026-01-29T12:09:39.473447Z", "telemetry": {"lat": 0.0, "lon": 0.0, "satellites": 0, "altitude_gps_m": -0.10999999940395355, "groundspeed_mps": 0.584244430065155}, "flight": {"mode": "STABILIZE", "armed": false}, "ekf": {"attitude": {"roll": -0.20482034981250763, "pitch": 0.11893771588802338, "yaw": -2.6714463233947754}, "local_position": {"x": null, "y": null, "z": null}, "status": {"flags": 135, "velocity_variance": 0.0, "pos_horiz_variance": 0.051262810826301575, "pos_vert_variance": 0.06449449807405472}}, "errors": ["PreArm: RC not found", "PreArm: Hardware safety switch", "PreArm: Compasses inconsistent"]}
{"timestamp": "2026-01-29T12:09:40.473621Z", "telemetry": {"lat": 0.0, "lon": 0.0, "satellites": 0, "altitude_gps_m": -0.10999999940395355, "groundspeed_mps": 0.3520424962043762}, "flight": {"mode": "STABILIZE", "armed": false}, "ekf": {"attitude": {"roll": -0.23499329388141632, "pitch": 0.10205824673175812, "yaw": 2.6776933670043945}, "local_position": {"x": null, "y": null, "z": null}, "status": {"flags": 135, "velocity_variance": 0.0, "pos_horiz_variance": 0.09666895866394043, "pos_vert_variance": 0.019795093685388565}}, "errors": ["PreArm: RC not found", "PreArm: Hardware safety switch", "PreArm: Compasses inconsistent"]}
{"timestamp": "2026-01-29T12:09:41.473465Z", "telemetry": {"lat": 0.0, "lon": 0.0, "satellites": 0, "altitude_gps_m": -0.10999999940395355, "groundspeed_mps": 0.23947495222091675}, "flight": {"mode": "STABILIZE", "armed": false}, "ekf": {"attitude": {"roll": -0.3339294195175171, "pitch": -0.016313496977090836, "yaw": 2.638720989227295}, "local_position": {"x": null, "y": null, "z": null}, "status": {"flags": 135, "velocity_variance": 0.0, "pos_horiz_variance": 0.05517923831939697, "pos_vert_variance": 0.0531119741499424}}, "errors": ["PreArm: RC not found", "PreArm: Hardware safety switch", "PreArm: Compasses inconsistent"]}
{"timestamp": "2026-01-29T12:09:42.473330Z", "telemetry": {"lat": 0.0, "lon": 0.0, "satellites": 0, "altitude_gps_m": -0.10999999940395355, "groundspeed_mps": 0.09836914390325546}, "flight": {"mode": "STABILIZE", "armed": false}, "ekf": {"attitude": {"roll": -0.03464799001812935, "pitch": 0.07681359350681305, "yaw": 2.695996046066284}, "local_position": {"x": null, "y": null, "z": null}, "status": {"flags": 135, "velocity_variance": 0.0, "pos_horiz_variance": 0.036587778478860855, "pos_vert_variance": 0.11157017946243286}}, "errors": ["PreArm: RC not found", "PreArm: Hardware safety switch", "PreArm: Compasses inconsistent"]}
{"timestamp": "2026-01-29T12:09:43.473214Z", "telemetry": {"lat": 0.0, "lon": 0.0, "satellites": 0, "altitude_gps_m": -0.10999999940395355, "groundspeed_mps": 0.13640044629573822}, "flight": {"mode": "STABILIZE", "armed": false}, "ekf": {"attitude": {"roll": -0.2959931790828705, "pitch": -0.032401181757450104, "yaw": 2.5090126991271973}, "local_position": {"x": null, "y": null, "z": null}, "status": {"flags": 135, "velocity_variance": 0.0, "pos_horiz_variance": 0.03675801306962967, "pos_vert_variance": 0.01667960174381733}}, "errors": ["PreArm: RC not found", "PreArm: Hardware safety switch", "PreArm: Compasses inconsistent"]}
{"timestamp": "2026-01-29T12:09:44.473307Z", "telemetry": {"lat": 0.0, "lon": 0.0, "satellites": 0, "altitude_gps_m": -0.10999999940395355, "groundspeed_mps": 0.23178312182426453}, "flight": {"mode": "STABILIZE", "armed": false}, "ekf": {"attitude": {"roll": -0.17725475132465363, "pitch": 0.04837868735194206, "yaw": 2.592275619506836}, "local_position": {"x": null, "y": null, "z": null}, "status": {"flags": 135, "velocity_variance": 0.0, "pos_horiz_variance": 0.033750981092453, "pos_vert_variance": 0.03062407113611698}}, "errors": ["PreArm: RC not found", "PreArm: Hardware safety switch", "PreArm: Compasses inconsistent"]}
{"timestamp": "2026-01-29T12:09:45.473289Z", "telemetry": {"lat": 0.0, "lon": 0.0, "satellites": 0, "altitude_gps_m": -0.10999999940395355, "groundspeed_mps": 0.2623620927333832}, "flight": {"mode": "STABILIZE", "armed": false}, "ekf": {"attitude": {"roll": -0.16952206194400787, "pitch": 0.004152003675699234, "yaw": 2.506957530975342}, "local_position": {"x": null, "y": null, "z": null}, "status": {"flags": 135, "velocity_variance": 0.0, "pos_horiz_variance": 0.05030415207147598, "pos_vert_variance": 0.06056920811533928}}, "errors": ["PreArm: RC not found", "PreArm: Hardware safety switch", "PreArm: Compasses inconsistent"]}
{"timestamp": "2026-01-29T12:09:46.473299Z", "telemetry": {"lat": 0.0, "lon": 0.0, "satellites": 0, "altitude_gps_m": -0.10999999940395355, "groundspeed_mps": 0.2258361577987671}, "flight": {"mode": "STABILIZE", "armed": false}, "ekf": {"attitude": {"roll": -0.16142769157886505, "pitch": -0.06385493278503418, "yaw": 2.815606117248535}, "local_position": {"x": null, "y": null, "z": null}, "status": {"flags": 135, "velocity_variance": 0.0, "pos_horiz_variance": 0.04676824435591698, "pos_vert_variance": 0.029790690168738365}}, "errors": ["PreArm: RC not found", "PreArm: Hardware safety switch", "PreArm: Compasses inconsistent"]}
{"timestamp": "2026-01-29T12:09:47.473245Z", "telemetry": {"lat": 0.0, "lon": 0.0, "satellites": 0, "altitude_gps_m": -0.10999999940395355, "groundspeed_mps": 0.6166422963142395}, "flight": {"mode": "STABILIZE", "armed": false}, "ekf": {"attitude": {"roll": 0.038902852684259415, "pitch": 0.10637074708938599, "yaw": 2.745201587677002}, "local_position": {"x": null, "y": null, "z": null}, "status": {"flags": 135, "velocity_variance": 0.0, "pos_horiz_variance": 0.05862363800406456, "pos_vert_variance": 0.017845189198851585}}, "errors": ["PreArm: RC not found", "PreArm: Hardware safety switch", "PreArm: Compasses inconsistent"]}
{"timestamp": "2026-01-29T12:09:48.473299Z", "telemetry": {"lat": 0.0, "lon": 0.0, "satellites": 0, "altitude_gps_m": -0.10999999940395355, "groundspeed_mps": 0.33926406502723694}, "flight": {"mode": "STABILIZE", "armed": false}, "ekf": {"attitude": {"roll": -0.136382594704628, "pitch": 0.021800696849822998, "yaw": 2.530337333679199}, "local_position": {"x": null, "y": null, "z": null}, "status": {"flags": 135, "velocity_variance": 0.0, "pos_horiz_variance": 0.1140403300523758, "pos_vert_variance": 0.09557384252548218}}, "errors": ["PreArm: RC not found", "PreArm: Hardware safety switch", "PreArm: Compasses inconsistent"]}
{"timestamp": "2026-01-29T12:09:49.473049Z", "telemetry": {"lat": 0.0, "lon": 0.0, "satellites": 0, "altitude_gps_m": -0.10999999940395355, "groundspeed_mps": 0.3386465609073639}, "flight": {"mode": "STABILIZE", "armed": false}, "ekf": {"attitude": {"roll": -0.12080163508653641, "pitch": 0.0132785364985466, "yaw": 2.594130516052246}, "local_position": {"x": null, "y": null, "z": null}, "status": {"flags": 135, "velocity_variance": 0.0, "pos_horiz_variance": 0.08294619619846344, "pos_vert_variance": 0.045702531933784485}}, "errors": ["PreArm: RC not found", "PreArm: Hardware safety switch", "PreArm: Compasses inconsistent"]}
{"timestamp": "2026-01-29T12:09:50.473200Z", "telemetry": {"lat": 0.0, "lon": 0.0, "satellites": 0, "altitude_gps_m": -0.10999999940395355, "groundspeed_mps": 0.27272874116897583}, "flight": {"mode": "STABILIZE", "armed": false}, "ekf": {"attitude": {"roll": -0.12662194669246674, "pitch": 0.07098183035850525, "yaw": 2.610461711883545}, "local_position": {"x": null, "y": null, "z": null}, "status": {"flags": 135, "velocity_variance": 0.0, "pos_horiz_variance": 0.07418601214885712, "pos_vert_variance": 0.09851232171058655}}, "errors": ["PreArm: RC not found", "PreArm: Hardware safety switch", "PreArm: Compasses inconsistent"]}
{"timestamp": "2026-01-29T12:09:51.473262Z", "telemetry": {"lat": 0.0, "lon": 0.0, "satellites": 0, "altitude_gps_m": -0.10999999940395355, "groundspeed_mps": 0.196571946144104}, "flight": {"mode": "STABILIZE", "armed": false}, "ekf": {"attitude": {"roll": -0.13606809079647064, "pitch": 0.07710610330104828, "yaw": 2.6182913780212402}, "local_position": {"x": null, "y": null, "z": null}, "status": {"flags": 135, "velocity_variance": 0.0, "pos_horiz_variance": 0.06575323641300201, "pos_vert_variance": 0.02721172571182251}}, "errors": ["PreArm: RC not found", "PreArm: Hardware safety switch", "PreArm: Compasses inconsistent"]}
{"timestamp": "2026-01-29T12:09:52.473096Z", "telemetry": {"lat": 0.0, "lon": 0.0, "satellites": 0, "altitude_gps_m": -0.10999999940395355, "groundspeed_mps": 0.20454078912734985}, "flight": {"mode": "STABILIZE", "armed": false}, "ekf": {"attitude": {"roll": -0.09423097968101501, "pitch": 0.039775993674993515, "yaw": 2.5631213188171387}, "local_position": {"x": null, "y": null, "z": null}, "status": {"flags": 135, "velocity_variance": 0.0, "pos_horiz_variance": 0.058640796691179276, "pos_vert_variance": 0.04161066561937332}}, "errors": ["PreArm: RC not found", "PreArm: Hardware safety switch", "PreArm: Compasses inconsistent"]}
{"timestamp": "2026-01-29T12:09:53.473137Z", "telemetry": {"lat": 0.0, "lon": 0.0, "satellites": 0, "altitude_gps_m": -0.10999999940395355, "groundspeed_mps": 0.16998004913330078}, "flight": {"mode": "STABILIZE", "armed": false}, "ekf": {"attitude": {"roll": -0.11574877053499222, "pitch": 0.016036566346883774, "yaw": 2.529489040374756}, "local_position": {"x": null, "y": null, "z": null}, "status": {"flags": 135, "velocity_variance": 0.0, "pos_horiz_variance": 0.04947557672858238, "pos_vert_variance": 0.00013565027620643377}}, "errors": ["PreArm: RC not found", "PreArm: Hardware safety switch", "PreArm: Compasses inconsistent"]}
{"timestamp": "2026-01-29T12:09:54.472932Z", "telemetry": {"lat": 0.0, "lon": 0.0, "satellites": 0, "altitude_gps_m": -0.10999999940395355, "groundspeed_mps": 0.15649156272411346}, "flight": {"mode": "STABILIZE", "armed": false}, "ekf": {"attitude": {"roll": -0.10506585240364075, "pitch": -0.006094850599765778, "yaw": 2.5219991207122803}, "local_position": {"x": null, "y": null, "z": null}, "status": {"flags": 135, "velocity_variance": 0.0, "pos_horiz_variance": 0.03953871130943298, "pos_vert_variance": 0.03285515680909157}}, "errors": ["PreArm: RC not found", "PreArm: Hardware safety switch", "PreArm: Compasses inconsistent"]}
{"timestamp": "2026-01-29T12:09:55.472740Z", "telemetry": {"lat": 0.0, "lon": 0.0, "satellites": 0, "altitude_gps_m": -0.10999999940395355, "groundspeed_mps": 0.15388637781143188}, "flight": {"mode": "STABILIZE", "armed": false}, "ekf": {"attitude": {"roll": -0.09147477149963379, "pitch": -0.014526883140206337, "yaw": 2.4783966541290283}, "local_position": {"x": null, "y": null, "z": null}, "status": {"flags": 135, "velocity_variance": 0.0, "pos_horiz_variance": 0.0388648547232151, "pos_vert_variance": 0.08098658919334412}}, "errors": ["PreArm: RC not found", "PreArm: Hardware safety switch", "PreArm: Compasses inconsistent"]}
{"timestamp": "2026-01-29T12:09:56.472873Z", "telemetry": {"lat": 0.0, "lon": 0.0, "satellites": 0, "altitude_gps_m": -0.10999999940395355, "groundspeed_mps": 0.1790371537208557}, "flight": {"mode": "STABILIZE", "armed": false}, "ekf": {"attitude": {"roll": -0.09467853605747223, "pitch": -0.020383119583129883, "yaw": 2.4473390579223633}, "local_position": {"x": null, "y": null, "z": null}, "status": {"flags": 135, "velocity_variance": 0.0, "pos_horiz_variance": 0.03912609443068504, "pos_vert_variance": 0.06718499958515167}}, "errors": ["PreArm: RC not found", "PreArm: Hardware safety switch", "PreArm: Compasses inconsistent", "PreArm: RC not found", "PreArm: Hardware safety switch", "PreArm: Compasses inconsistent"]}
{"timestamp": "2026-01-29T12:09:57.473160Z", "telemetry": {"lat": 0.0, "lon": 0.0, "satellites": 0, "altitude_gps_m": -0.10999999940395355, "groundspeed_mps": 0.16963589191436768}, "flight": {"mode": "STABILIZE", "armed": false}, "ekf": {"attitude": {"roll": -0.07854128628969193, "pitch": -0.020641809329390526, "yaw": 2.4161198139190674}, "local_position": {"x": null, "y": null, "z": null}, "status": {"flags": 135, "velocity_variance": 0.0, "pos_horiz_variance": 0.040708448737859726, "pos_vert_variance": 0.05933837592601776}}, "errors": ["PreArm: RC not found", "PreArm: Hardware safety switch", "PreArm: Compasses inconsistent", "PreArm: RC not found", "PreArm: Hardware safety switch", "PreArm: Compasses inconsistent"]}
{"timestamp": "2026-01-29T12:09:58.472745Z", "telemetry": {"lat": 0.0, "lon": 0.0, "satellites": 0, "altitude_gps_m": -0.10999999940395355, "groundspeed_mps": 0.17233708500862122}, "flight": {"mode": "STABILIZE", "armed": false}, "ekf": {"attitude": {"roll": -0.074778713285923, "pitch": -0.03553404659032822, "yaw": 2.3915510177612305}, "local_position": {"x": null, "y": null, "z": null}, "status": {"flags": 135, "velocity_variance": 0.0, "pos_horiz_variance": 0.04133455082774162, "pos_vert_variance": 0.07393482327461243}}, "errors": ["PreArm: RC not found", "PreArm: Hardware safety switch", "PreArm: Compasses inconsistent", "PreArm: RC not found", "PreArm: Hardware safety switch", "PreArm: Compasses inconsistent"]}
{"timestamp": "2026-01-29T12:09:59.472700Z", "telemetry": {"lat": 0.0, "lon": 0.0, "satellites": 0, "altitude_gps_m": -0.10999999940395355, "groundspeed_mps": 0.16871501505374908}, "flight": {"mode": "STABILIZE", "armed": false}, "ekf": {"attitude": {"roll": -0.0743158757686615, "pitch": -0.0008665211498737335, "yaw": 2.3347606658935547}, "local_position": {"x": null, "y": null, "z": null}, "status": {"flags": 135, "velocity_variance": 0.0, "pos_horiz_variance": 0.041727811098098755, "pos_vert_variance": 0.0450064018368721}}, "errors": ["PreArm: RC not found", "PreArm: Hardware safety switch", "PreArm: Compasses inconsistent", "PreArm: RC not found", "PreArm: Hardware safety switch", "PreArm: Compasses inconsistent"]}
{"timestamp": "2026-01-29T12:10:00.472774Z", "telemetry": {"lat": 0.0, "lon": 0.0, "satellites": 0, "altitude_gps_m": -0.10999999940395355, "groundspeed_mps": 0.2067355215549469}, "flight": {"mode": "STABILIZE", "armed": false}, "ekf": {"attitude": {"roll": -0.15144488215446472, "pitch": -0.013594701886177063, "yaw": 2.2765791416168213}, "local_position": {"x": null, "y": null, "z": null}, "status": {"flags": 135, "velocity_variance": 0.0, "pos_horiz_variance": 0.04355236142873764, "pos_vert_variance": 0.031018586829304695}}, "errors": ["PreArm: RC not found", "PreArm: Hardware safety switch", "PreArm: Compasses inconsistent", "PreArm: RC not found", "PreArm: Hardware safety switch", "PreArm: Compasses inconsistent"]}
{"timestamp": "2026-01-29T12:10:01.472839Z", "telemetry": {"lat": 0.0, "lon": 0.0, "satellites": 0, "altitude_gps_m": -0.10999999940395355, "groundspeed_mps": 0.13765931129455566}, "flight": {"mode": "STABILIZE", "armed": false}, "ekf": {"attitude": {"roll": -0.14210335910320282, "pitch": 0.0009118989109992981, "yaw": 2.292734146118164}, "local_position": {"x": null, "y": null, "z": null}, "status": {"flags": 135, "velocity_variance": 0.0, "pos_horiz_variance": 0.04110615327954292, "pos_vert_variance": 0.011015239171683788}}, "errors": ["PreArm: RC not found", "PreArm: Hardware safety switch", "PreArm: Compasses inconsistent", "PreArm: RC not found", "PreArm: Hardware safety switch", "PreArm: Compasses inconsistent"]}
{"timestamp": "2026-01-29T12:10:02.472473Z", "telemetry": {"lat": 0.0, "lon": 0.0, "satellites": 0, "altitude_gps_m": -0.10999999940395355, "groundspeed_mps": 0.13940200209617615}, "flight": {"mode": "STABILIZE", "armed": false}, "ekf": {"attitude": {"roll": -0.13505679368972778, "pitch": 0.013906408101320267, "yaw": 2.2672929763793945}, "local_position": {"x": null, "y": null, "z": null}, "status": {"flags": 135, "velocity_variance": 0.0, "pos_horiz_variance": 0.03647756576538086, "pos_vert_variance": 0.0027505795005708933}}, "errors": ["PreArm: RC not found", "PreArm: Hardware safety switch", "PreArm: Compasses inconsistent", "PreArm: RC not found", "PreArm: Hardware safety switch", "PreArm: Compasses inconsistent"]}
{"timestamp": "2026-01-29T12:10:03.472432Z", "telemetry": {"lat": 0.0, "lon": 0.0, "satellites": 0, "altitude_gps_m": -0.10999999940395355, "groundspeed_mps": 0.13561204075813293}, "flight": {"mode": "STABILIZE", "armed": false}, "ekf": {"attitude": {"roll": -0.12926632165908813, "pitch": 0.02344483509659767, "yaw": 2.2591333389282227}, "local_position": {"x": null, "y": null, "z": null}, "status": {"flags": 135, "velocity_variance": 0.0, "pos_horiz_variance": 0.03480144962668419, "pos_vert_variance": 0.02825903706252575}}, "errors": ["PreArm: RC not found", "PreArm: Hardware safety switch", "PreArm: Compasses inconsistent", "PreArm: RC not found", "PreArm: Hardware safety switch", "PreArm: Compasses inconsistent"]}
{"timestamp": "2026-01-29T12:10:04.453976Z", "telemetry": {"lat": 0.0, "lon": 0.0, "satellites": 0, "altitude_gps_m": -0.10999999940395355, "groundspeed_mps": 0.16066783666610718}, "flight": {"mode": "STABILIZE", "armed": false}, "ekf": {"attitude": {"roll": -0.1309843361377716, "pitch": 0.016324859112501144, "yaw": 2.2474071979522705}, "local_position": {"x": null, "y": null, "z": null}, "status": {"flags": 135, "velocity_variance": 0.0, "pos_horiz_variance": 0.0350009948015213, "pos_vert_variance": 0.015942616388201714}}, "errors": ["PreArm: RC not found", "PreArm: Hardware safety switch", "PreArm: Compasses inconsistent", "PreArm: RC not found", "PreArm: Hardware safety switch", "PreArm: Compasses inconsistent"]}
{"timestamp": "2026-01-29T12:10:05.454658Z", "telemetry": {"lat": 0.0, "lon": 0.0, "satellites": 0, "altitude_gps_m": -0.10999999940395355, "groundspeed_mps": 0.15696580708026886}, "flight": {"mode": "STABILIZE", "armed": false}, "ekf": {"attitude": {"roll": -0.13395926356315613, "pitch": 0.01500832661986351, "yaw": 2.231856346130371}, "local_position": {"x": null, "y": null, "z": null}, "status": {"flags": 135, "velocity_variance": 0.0, "pos_horiz_variance": 0.03744615241885185, "pos_vert_variance": 0.10115306079387665}}, "errors": ["PreArm: RC not found", "PreArm: Hardware safety switch", "PreArm: Compasses inconsistent", "PreArm: RC not found", "PreArm: Hardware safety switch", "PreArm: Compasses inconsistent"]}
