{"timestamp": "2026-01-24T14:17:03.255185Z", "telemetry": {"lat": 28.7532379, "lon": 77.1172864, "satellites": 10, "altitude_gps_m": 200.72000122070312, "groundspeed_mps": 0.03712712600827217}, "flight": {"mode": "STABILIZE", "armed": false}, "ekf": {"attitude": {"roll": -0.0025316677056252956, "pitch": -0.05391891300678253, "yaw": 1.719226598739624}, "local_position": {"x": -8.242199897766113, "y": -3.451425075531006, "z": 3.0358760356903076}, "status": {"flags": 831, "velocity_variance": 0.05326163023710251, "pos_horiz_variance": 0.010502621531486511, "pos_vert_variance": 0.035135768353939056}}, "errors": []}
{"timestamp": "2026-01-24T14:17:04.204395Z", "telemetry": {"lat": 28.7532371, "lon": 77.1172869, "satellites": 10, "altitude_gps_m": 200.72000122070312, "groundspeed_mps": 0.05586947128176689}, "flight": {"mode": "STABILIZE", "armed": false}, "ekf": {"attitude": {"roll": -0.0023647185880690813, "pitch": -0.054382555186748505, "yaw": 1.7200791835784912}, "local_position": {"x": -8.289398193359375, "y": -3.4138646125793457, "z": 3.030632495880127}, "status": {"flags": 831, "velocity_variance": 0.09744914621114731, "pos_horiz_variance": 0.01325426809489727, "pos_vert_variance": 0.03908880054950714}}, "errors": []}
{"timestamp": "2026-01-24T14:17:05.190433Z", "telemetry": {"lat": 28.7532368, "lon": 77.1172875, "satellites": 10, "altitude_gps_m": 200.77999877929688, "groundspeed_mps": 0.0875188484787941}, "flight": {"mode": "STABILIZE", "armed": false}, "ekf": {"attitude": {"roll": -0.0025700987316668034, "pitch": -0.055003371089696884, "yaw": 1.720889925956726}, "local_position": {"x": -8.329534530639648, "y": -3.352022171020508, "z": 2.989494800567627}, "status": {"flags": 831, "velocity_variance": 0.048373568803071976, "pos_horiz_variance": 0.014038891531527042, "pos_vert_variance": 0.035935502499341965}}, "errors": []}
{"timestamp": "2026-01-24T14:17:06.132044Z", "telemetry": {"lat": 28.7532362, "lon": 77.1172886, "satellites": 10, "altitude_gps_m": 200.76998901367188, "groundspeed_mps": 0.11773703992366791}, "flight": {"mode": "STABILIZE", "armed": false}, "ekf": {"attitude": {"roll": -0.0022765027824789286, "pitch": -0.05532171577215195, "yaw": 1.7212754487991333}, "local_position": {"x": -8.387248992919922, "y": -3.233447790145874, "z": 2.9859459400177}, "status": {"flags": 831, "velocity_variance": 0.02996395342051983, "pos_horiz_variance": 0.013596955686807632, "pos_vert_variance": 0.03509659692645073}}, "errors": []}
{"timestamp": "2026-01-24T14:17:07.132821Z", "telemetry": {"lat": 28.7532361, "lon": 77.1172888, "satellites": 10, "altitude_gps_m": 200.8199920654297, "groundspeed_mps": 0.12527137994766235}, "flight": {"mode": "STABILIZE", "armed": false}, "ekf": {"attitude": {"roll": -0.0023790146224200726, "pitch": -0.05519488453865051, "yaw": 1.7218893766403198}, "local_position": {"x": -8.430258750915527, "y": -3.174905776977539, "z": 2.9438610076904297}, "status": {"flags": 831, "velocity_variance": 0.05635249242186546, "pos_horiz_variance": 0.01187190692871809, "pos_vert_variance": 0.03600412607192993}}, "errors": []}
{"timestamp": "2026-01-24T14:17:08.134822Z", "telemetry": {"lat": 28.7532366, "lon": 77.1172891, "satellites": 10, "altitude_gps_m": 200.9199981689453, "groundspeed_mps": 0.10504954308271408}, "flight": {"mode": "STABILIZE", "armed": false}, "ekf": {"attitude": {"roll": -0.0023570978082716465, "pitch": -0.05447129160165787, "yaw": 1.7225782871246338}, "local_position": {"x": -8.44623851776123, "y": -3.143388509750366, "z": 2.8355770111083984}, "status": {"flags": 831, "velocity_variance": 0.08889145404100418, "pos_horiz_variance": 0.00614236481487751, "pos_vert_variance": 0.03369290009140968}}, "errors": ["PreArm: Compasses inconsistent"]}
{"timestamp": "2026-01-24T14:17:09.130535Z", "telemetry": {"lat": 28.7532373, "lon": 77.1172904, "satellites": 10, "altitude_gps_m": 200.9099884033203, "groundspeed_mps": 0.15921549499034882}, "flight": {"mode": "STABILIZE", "armed": false}, "ekf": {"attitude": {"roll": -0.0030448101460933685, "pitch": -0.055676400661468506, "yaw": 1.723250150680542}, "local_position": {"x": -8.374176025390625, "y": -3.0301191806793213, "z": 2.8425028324127197}, "status": {"flags": 831, "velocity_variance": 0.05214985832571983, "pos_horiz_variance": 0.006460727192461491, "pos_vert_variance": 0.03322714939713478}}, "errors": ["PreArm: Compasses inconsistent"]}
{"timestamp": "2026-01-24T14:17:10.131927Z", "telemetry": {"lat": 28.7532369, "lon": 77.1172893, "satellites": 10, "altitude_gps_m": 200.89999389648438, "groundspeed_mps": 0.13207288086414337}, "flight": {"mode": "STABILIZE", "armed": false}, "ekf": {"attitude": {"roll": -0.0024851469788700342, "pitch": -0.05467104911804199, "yaw": 1.7239482402801514}, "local_position": {"x": -8.35771656036377, "y": -2.9692413806915283, "z": 2.8587486743927}, "status": {"flags": 831, "velocity_variance": 0.10245737433433533, "pos_horiz_variance": 0.016455937176942825, "pos_vert_variance": 0.036454182118177414}}, "errors": ["PreArm: Compasses inconsistent"]}
{"timestamp": "2026-01-24T14:17:11.136992Z", "telemetry": {"lat": 28.7532365, "lon": 77.1172885, "satellites": 10, "altitude_gps_m": 200.9499969482422, "groundspeed_mps": 0.11592955887317657}, "flight": {"mode": "STABILIZE", "armed": false}, "ekf": {"attitude": {"roll": -0.0022347704507410526, "pitch": -0.054601237177848816, "yaw": 1.7243865728378296}, "local_position": {"x": -8.379383087158203, "y": -2.9943199157714844, "z": 2.815828800201416}, "status": {"flags": 831, "velocity_variance": 0.03295723721385002, "pos_horiz_variance": 0.021886363625526428, "pos_vert_variance": 0.039480920881032944}}, "errors": ["PreArm: Compasses inconsistent"]}
{"timestamp": "2026-01-24T14:17:12.103909Z", "telemetry": {"lat": 28.7532369, "lon": 77.1172883, "satellites": 10, "altitude_gps_m": 201.0, "groundspeed_mps": 0.09780760109424591}, "flight": {"mode": "STABILIZE", "armed": false}, "ekf": {"attitude": {"roll": -0.002154329791665077, "pitch": -0.05419914424419403, "yaw": 1.7248181104660034}, "local_position": {"x": -8.364495277404785, "y": -3.02103590965271, "z": 2.7511072158813477}, "status": {"flags": 831, "velocity_variance": 0.057917188853025436, "pos_horiz_variance": 0.02097485400736332, "pos_vert_variance": 0.028789687901735306}}, "errors": ["PreArm: Compasses inconsistent", "PreArm: Compasses inconsistent"]}
{"timestamp": "2026-01-24T14:17:13.106039Z", "telemetry": {"lat": 28.7532368, "lon": 77.1172863, "satellites": 10, "altitude_gps_m": 201.27999877929688, "groundspeed_mps": 0.6130889654159546}, "flight": {"mode": "STABILIZE", "armed": false}, "ekf": {"attitude": {"roll": 0.07986754924058914, "pitch": 0.07855965197086334, "yaw": 1.7282582521438599}, "local_position": {"x": -8.276482582092285, "y": -3.149592161178589, "z": 2.6317496299743652}, "status": {"flags": 831, "velocity_variance": 0.11582184582948685, "pos_horiz_variance": 0.027293777093291283, "pos_vert_variance": 0.03044443577528}}, "errors": ["PreArm: Compasses inconsistent", "PreArm: Compasses inconsistent"]}
{"timestamp": "2026-01-24T14:17:14.102384Z", "telemetry": {"lat": 28.7532427, "lon": 77.1172918, "satellites": 10, "altitude_gps_m": 202.13999938964844, "groundspeed_mps": 1.0985431671142578}, "flight": {"mode": "STABILIZE", "armed": false}, "ekf": {"attitude": {"roll": 0.0455811582505703, "pitch": 0.0553535558283329, "yaw": 2.9699299335479736}, "local_position": {"x": -7.517568111419678, "y": -2.666118621826172, "z": 1.6112123727798462}, "status": {"flags": 831, "velocity_variance": 0.20381468534469604, "pos_horiz_variance": 0.01786753535270691, "pos_vert_variance": 0.05170818790793419}}, "errors": ["PreArm: Compasses inconsistent", "PreArm: Compasses inconsistent"]}
{"timestamp": "2026-01-24T14:17:15.138846Z", "telemetry": {"lat": 28.7532536, "lon": 77.1172966, "satellites": 10, "altitude_gps_m": 202.26998901367188, "groundspeed_mps": 1.0935097932815552}, "flight": {"mode": "STABILIZE", "armed": false}, "ekf": {"attitude": {"roll": 0.055938683450222015, "pitch": 0.045796383172273636, "yaw": -2.605804920196533}, "local_position": {"x": -6.443596363067627, "y": -2.712761640548706, "z": 1.481958031654358}, "status": {"flags": 831, "velocity_variance": 0.026388416066765785, "pos_horiz_variance": 0.011352526023983955, "pos_vert_variance": 0.011358994990587234}}, "errors": ["PreArm: Compasses inconsistent", "PreArm: Compasses inconsistent"]}
{"timestamp": "2026-01-24T14:17:16.139920Z", "telemetry": {"lat": 28.7532635, "lon": 77.1172914, "satellites": 10, "altitude_gps_m": 202.26998901367188, "groundspeed_mps": 1.5621366500854492}, "flight": {"mode": "STABILIZE", "armed": false}, "ekf": {"attitude": {"roll": 0.03631989657878876, "pitch": 0.19397877156734467, "yaw": -2.829967975616455}, "local_position": {"x": -5.436586856842041, "y": -3.5752596855163574, "z": 1.4856758117675781}, "status": {"flags": 831, "velocity_variance": 0.07750698924064636, "pos_horiz_variance": 0.02860724739730358, "pos_vert_variance": 0.007173110265284777}}, "errors": ["PreArm: Compasses inconsistent", "PreArm: Compasses inconsistent"]}
{"timestamp": "2026-01-24T14:17:17.141251Z", "telemetry": {"lat": 28.7532714, "lon": 77.1172817, "satellites": 10, "altitude_gps_m": 202.1999969482422, "groundspeed_mps": 1.4071128368377686}, "flight": {"mode": "STABILIZE", "armed": false}, "ekf": {"attitude": {"roll": 0.03767400234937668, "pitch": 0.07175704836845398, "yaw": -3.0937817096710205}, "local_position": {"x": -4.567317962646484, "y": -4.452226161956787, "z": 1.5535775423049927}, "status": {"flags": 831, "velocity_variance": 0.13987548649311066, "pos_horiz_variance": 0.027431152760982513, "pos_vert_variance": 0.02364995889365673}}, "errors": ["PreArm: Compasses inconsistent", "PreArm: Compasses inconsistent"]}
{"timestamp": "2026-01-24T14:17:18.142929Z", "telemetry": {"lat": 28.7532767, "lon": 77.1172716, "satellites": 10, "altitude_gps_m": 201.20999145507812, "groundspeed_mps": 0.4908756613731384}, "flight": {"mode": "STABILIZE", "armed": false}, "ekf": {"attitude": {"roll": 0.06654228270053864, "pitch": 0.12402965128421783, "yaw": 2.872649908065796}, "local_position": {"x": -4.12686824798584, "y": -5.399150371551514, "z": 2.3163576126098633}, "status": {"flags": 831, "velocity_variance": 0.09222377091646194, "pos_horiz_variance": 0.027829485014081, "pos_vert_variance": 0.023735415190458298}}, "errors": ["PreArm: Compasses inconsistent", "PreArm: Compasses inconsistent"]}
{"timestamp": "2026-01-24T14:17:19.111071Z", "telemetry": {"lat": 28.753275, "lon": 77.1172698, "satellites": 10, "altitude_gps_m": 200.97000122070312, "groundspeed_mps": 0.3398151695728302}, "flight": {"mode": "STABILIZE", "armed": false}, "ekf": {"attitude": {"roll": -0.0033777179196476936, "pitch": -0.07762172818183899, "yaw": 3.072800397872925}, "local_position": {"x": -4.433642387390137, "y": -5.3586835861206055, "z": 2.7839887142181396}, "status": {"flags": 831, "velocity_variance": 0.13999679684638977, "pos_horiz_variance": 0.026324056088924408, "pos_vert_variance": 0.011747526936233044}}, "errors": ["PreArm: Compasses inconsistent", "PreArm: Compasses inconsistent"]}
{"timestamp": "2026-01-24T14:17:20.121233Z", "telemetry": {"lat": 28.7532742, "lon": 77.1172696, "satellites": 10, "altitude_gps_m": 200.89999389648438, "groundspeed_mps": 0.2298092544078827}, "flight": {"mode": "STABILIZE", "armed": false}, "ekf": {"attitude": {"roll": -0.002989816013723612, "pitch": -0.037110596895217896, "yaw": 3.059544563293457}, "local_position": {"x": -4.467759132385254, "y": -5.244556427001953, "z": 2.8608322143554688}, "status": {"flags": 831, "velocity_variance": 0.08201073855161667, "pos_horiz_variance": 0.016112472862005234, "pos_vert_variance": 0.009792905300855637}}, "errors": ["PreArm: Compasses inconsistent", "PreArm: Compasses inconsistent"]}
{"timestamp": "2026-01-24T14:17:21.146615Z", "telemetry": {"lat": 28.7532735, "lon": 77.1172682, "satellites": 10, "altitude_gps_m": 200.7899932861328, "groundspeed_mps": 0.22176536917686462}, "flight": {"mode": "STABILIZE", "armed": false}, "ekf": {"attitude": {"roll": -0.004959205165505409, "pitch": -0.03688260540366173, "yaw": 3.0537281036376953}, "local_position": {"x": -4.494060516357422, "y": -5.238673686981201, "z": 2.945657253265381}, "status": {"flags": 831, "velocity_variance": 0.05977243930101395, "pos_horiz_variance": 0.005233037285506725, "pos_vert_variance": 0.0020482821855694056}}, "errors": ["PreArm: Compasses inconsistent", "PreArm: Compasses inconsistent"]}
{"timestamp": "2026-01-24T14:17:22.147383Z", "telemetry": {"lat": 28.7532725, "lon": 77.1172672, "satellites": 8, "altitude_gps_m": 200.72999572753906, "groundspeed_mps": 0.21461474895477295}, "flight": {"mode": "STABILIZE", "armed": false}, "ekf": {"attitude": {"roll": -0.006076266057789326, "pitch": -0.03638801723718643, "yaw": 3.0507147312164307}, "local_position": {"x": -4.547508716583252, "y": -5.249411582946777, "z": 3.029101848602295}, "status": {"flags": 831, "velocity_variance": 0.07766424119472504, "pos_horiz_variance": 0.004399366211146116, "pos_vert_variance": 0.0014759048353880644}}, "errors": ["PreArm: Compasses inconsistent", "PreArm: Compasses inconsistent"]}
{"timestamp": "2026-01-24T14:17:23.148254Z", "telemetry": {"lat": 28.7532709, "lon": 77.1172667, "satellites": 8, "altitude_gps_m": 200.6999969482422, "groundspeed_mps": 0.24888162314891815}, "flight": {"mode": "STABILIZE", "armed": false}, "ekf": {"attitude": {"roll": -0.006777344271540642, "pitch": -0.036528684198856354, "yaw": 3.048146963119507}, "local_position": {"x": -4.711019515991211, "y": -5.304980754852295, "z": 3.056238889694214}, "status": {"flags": 831, "velocity_variance": 0.07441268116235733, "pos_horiz_variance": 0.004668460227549076, "pos_vert_variance": 0.006320224609225988}}, "errors": ["PreArm: Compasses inconsistent", "PreArm: Compasses inconsistent"]}
{"timestamp": "2026-01-24T14:17:24.149228Z", "telemetry": {"lat": 28.7532709, "lon": 77.1172662, "satellites": 8, "altitude_gps_m": 200.6999969482422, "groundspeed_mps": 0.23460623621940613}, "flight": {"mode": "STABILIZE", "armed": false}, "ekf": {"attitude": {"roll": -0.008005584590137005, "pitch": -0.03551362454891205, "yaw": 3.044985055923462}, "local_position": {"x": -4.796813488006592, "y": -5.383016586303711, "z": 3.0512099266052246}, "status": {"flags": 831, "velocity_variance": 0.061062041670084, "pos_horiz_variance": 0.005662311799824238, "pos_vert_variance": 0.00970874447375536}}, "errors": ["PreArm: Compasses inconsistent", "PreArm: Compasses inconsistent"]}
{"timestamp": "2026-01-24T14:17:25.114669Z", "telemetry": {"lat": 28.7532703, "lon": 77.1172659, "satellites": 8, "altitude_gps_m": 200.6999969482422, "groundspeed_mps": 0.23715853691101074}, "flight": {"mode": "STABILIZE", "armed": false}, "ekf": {"attitude": {"roll": -0.008563591167330742, "pitch": -0.03521404042840004, "yaw": 3.043362617492676}, "local_position": {"x": -4.899580001831055, "y": -5.440306186676025, "z": 3.0572354793548584}, "status": {"flags": 831, "velocity_variance": 0.0747639611363411, "pos_horiz_variance": 0.008557151071727276, "pos_vert_variance": 0.005781829822808504}}, "errors": ["PreArm: Compasses inconsistent", "PreArm: Compasses inconsistent"]}
{"timestamp": "2026-01-24T14:17:26.117088Z", "telemetry": {"lat": 28.7532699, "lon": 77.1172654, "satellites": 8, "altitude_gps_m": 200.64999389648438, "groundspeed_mps": 0.2151397317647934}, "flight": {"mode": "STABILIZE", "armed": false}, "ekf": {"attitude": {"roll": -0.009499667212367058, "pitch": -0.03478056564927101, "yaw": 3.0412282943725586}, "local_position": {"x": -4.959256172180176, "y": -5.460031032562256, "z": 3.1092264652252197}, "status": {"flags": 831, "velocity_variance": 0.04754110053181648, "pos_horiz_variance": 0.010352464392781258, "pos_vert_variance": 0.006076472345739603}}, "errors": ["PreArm: Compasses inconsistent", "PreArm: Compasses inconsistent", "PreArm: Hardware safety switch"]}
{"timestamp": "2026-01-24T14:17:27.118140Z", "telemetry": {"lat": 28.7532705, "lon": 77.1172648, "satellites": 8, "altitude_gps_m": 200.61000061035156, "groundspeed_mps": 0.1604217141866684}, "flight": {"mode": "STABILIZE", "armed": false}, "ekf": {"attitude": {"roll": -0.010289776138961315, "pitch": -0.033420905470848083, "yaw": 3.038712501525879}, "local_position": {"x": -4.925347805023193, "y": -5.468712329864502, "z": 3.1471219062805176}, "status": {"flags": 831, "velocity_variance": 0.07989394664764404, "pos_horiz_variance": 0.015266850590705872, "pos_vert_variance": 0.014118436723947525}}, "errors": ["PreArm: Compasses inconsistent", "PreArm: Compasses inconsistent", "PreArm: Hardware safety switch"]}
{"timestamp": "2026-01-24T14:17:28.153293Z", "telemetry": {"lat": 28.7532708, "lon": 77.1172646, "satellites": 8, "altitude_gps_m": 200.61000061035156, "groundspeed_mps": 0.12059325724840164}, "flight": {"mode": "STABILIZE", "armed": false}, "ekf": {"attitude": {"roll": -0.010642030276358128, "pitch": -0.03272458538413048, "yaw": 3.0371575355529785}, "local_position": {"x": -4.888505935668945, "y": -5.4944281578063965, "z": 3.142930746078491}, "status": {"flags": 831, "velocity_variance": 0.034180257469415665, "pos_horiz_variance": 0.015568447299301624, "pos_vert_variance": 0.020283732563257217}}, "errors": ["PreArm: Compasses inconsistent", "PreArm: Compasses inconsistent", "PreArm: Hardware safety switch"]}
{"timestamp": "2026-01-24T14:17:29.153258Z", "telemetry": {"lat": 28.7532709, "lon": 77.1172643, "satellites": 8, "altitude_gps_m": 200.62998962402344, "groundspeed_mps": 0.09830145537853241}, "flight": {"mode": "STABILIZE", "armed": false}, "ekf": {"attitude": {"roll": -0.01087148766964674, "pitch": -0.03230917453765869, "yaw": 3.035285472869873}, "local_position": {"x": -4.851102352142334, "y": -5.514312267303467, "z": 3.1265151500701904}, "status": {"flags": 831, "velocity_variance": 0.1739293485879898, "pos_horiz_variance": 0.013360223732888699, "pos_vert_variance": 0.022368228062987328}}, "errors": ["PreArm: Compasses inconsistent", "PreArm: Compasses inconsistent", "PreArm: Hardware safety switch"]}
{"timestamp": "2026-01-24T14:17:30.154546Z", "telemetry": {"lat": 28.7532714, "lon": 77.117264, "satellites": 9, "altitude_gps_m": 200.67999267578125, "groundspeed_mps": 0.10220429301261902}, "flight": {"mode": "STABILIZE", "armed": false}, "ekf": {"attitude": {"roll": -0.010861675255000591, "pitch": -0.03222326189279556, "yaw": 3.0335311889648438}, "local_position": {"x": -4.864498138427734, "y": -5.537267208099365, "z": 3.0770411491394043}, "status": {"flags": 831, "velocity_variance": 0.06574849784374237, "pos_horiz_variance": 0.019466670230031013, "pos_vert_variance": 0.025973668321967125}}, "errors": ["PreArm: Compasses inconsistent", "PreArm: Compasses inconsistent", "PreArm: Hardware safety switch", "Arm: Hardware safety switch"]}
{"timestamp": "2026-01-24T14:17:31.154445Z", "telemetry": {"lat": 28.7532714, "lon": 77.1172643, "satellites": 9, "altitude_gps_m": 200.70999145507812, "groundspeed_mps": 0.10075372457504272}, "flight": {"mode": "STABILIZE", "armed": false}, "ekf": {"attitude": {"roll": -0.011229520663619041, "pitch": -0.03209720179438591, "yaw": 3.03197979927063}, "local_position": {"x": -4.839901924133301, "y": -5.524127006530762, "z": 3.0409538745880127}, "status": {"flags": 831, "velocity_variance": 0.04235509783029556, "pos_horiz_variance": 0.017415516078472137, "pos_vert_variance": 0.026606125757098198}}, "errors": ["PreArm: Compasses inconsistent", "PreArm: Compasses inconsistent", "PreArm: Hardware safety switch", "Arm: Hardware safety switch"]}
{"timestamp": "2026-01-24T14:17:32.123811Z", "telemetry": {"lat": 28.7532724, "lon": 77.1172641, "satellites": 9, "altitude_gps_m": 200.6999969482422, "groundspeed_mps": 0.08297239989042282}, "flight": {"mode": "STABILIZE", "armed": false}, "ekf": {"attitude": {"roll": -0.01100107841193676, "pitch": -0.03172219917178154, "yaw": 3.0302302837371826}, "local_position": {"x": -4.774833679199219, "y": -5.533086776733398, "z": 3.058262348175049}, "status": {"flags": 831, "velocity_variance": 0.0823909193277359, "pos_horiz_variance": 0.02151891030371189, "pos_vert_variance": 0.023982761427760124}}, "errors": ["PreArm: Compasses inconsistent", "PreArm: Compasses inconsistent", "PreArm: Hardware safety switch", "Arm: Hardware safety switch"]}
{"timestamp": "2026-01-24T14:17:33.122163Z", "telemetry": {"lat": 28.7532731, "lon": 77.1172642, "satellites": 9, "altitude_gps_m": 200.67999267578125, "groundspeed_mps": 0.07114899158477783}, "flight": {"mode": "STABILIZE", "armed": false}, "ekf": {"attitude": {"roll": -0.011062446050345898, "pitch": -0.03158830851316452, "yaw": 3.028677463531494}, "local_position": {"x": -4.694957733154297, "y": -5.53996467590332, "z": 3.071737051010132}, "status": {"flags": 831, "velocity_variance": 0.055867552757263184, "pos_horiz_variance": 0.02119413949549198, "pos_vert_variance": 0.020244019106030464}}, "errors": ["PreArm: Compasses inconsistent", "PreArm: Compasses inconsistent", "PreArm: Hardware safety switch", "Arm: Hardware safety switch"]}
{"timestamp": "2026-01-24T14:17:34.125451Z", "telemetry": {"lat": 28.7532731, "lon": 77.1172641, "satellites": 9, "altitude_gps_m": 200.64999389648438, "groundspeed_mps": 0.08568689227104187}, "flight": {"mode": "STABILIZE", "armed": false}, "ekf": {"attitude": {"roll": -0.010774865746498108, "pitch": -0.03221704438328743, "yaw": 3.027092218399048}, "local_position": {"x": -4.687695026397705, "y": -5.533634662628174, "z": 3.105099678039551}, "status": {"flags": 831, "velocity_variance": 0.029122231528162956, "pos_horiz_variance": 0.020957697182893753, "pos_vert_variance": 0.018202662467956543}}, "errors": ["PreArm: Compasses inconsistent", "PreArm: Compasses inconsistent", "PreArm: Hardware safety switch", "Arm: Hardware safety switch"]}
{"timestamp": "2026-01-24T14:17:35.126150Z", "telemetry": {"lat": 28.7532736, "lon": 77.1172641, "satellites": 9, "altitude_gps_m": 200.6699981689453, "groundspeed_mps": 0.08055337518453598}, "flight": {"mode": "STABILIZE", "armed": false}, "ekf": {"attitude": {"roll": -0.010583402588963509, "pitch": -0.03227412328124046, "yaw": 3.025514602661133}, "local_position": {"x": -4.6600661277771, "y": -5.556303024291992, "z": 3.089566707611084}, "status": {"flags": 831, "velocity_variance": 0.06715366244316101, "pos_horiz_variance": 0.022983912378549576, "pos_vert_variance": 0.009035966359078884}}, "errors": ["PreArm: Compasses inconsistent", "PreArm: Compasses inconsistent", "PreArm: Hardware safety switch", "Arm: Hardware safety switch"]}
{"timestamp": "2026-01-24T14:17:36.157199Z", "telemetry": {"lat": 28.7532743, "lon": 77.1172645, "satellites": 9, "altitude_gps_m": 200.6199951171875, "groundspeed_mps": 0.07313878834247589}, "flight": {"mode": "STABILIZE", "armed": false}, "ekf": {"attitude": {"roll": -0.010867465287446976, "pitch": -0.031737979501485825, "yaw": 3.0241167545318604}, "local_position": {"x": -4.571861267089844, "y": -5.541202068328857, "z": 3.1375303268432617}, "status": {"flags": 831, "velocity_variance": 0.06639833003282547, "pos_horiz_variance": 0.0216619074344635, "pos_vert_variance": 0.004461984150111675}}, "errors": ["PreArm: Compasses inconsistent", "PreArm: Compasses inconsistent", "PreArm: Hardware safety switch", "Arm: Hardware safety switch"]}
{"timestamp": "2026-01-24T14:17:37.107179Z", "telemetry": {"lat": 28.7532754, "lon": 77.1172642, "satellites": 9, "altitude_gps_m": 200.489990234375, "groundspeed_mps": 0.049438849091529846}, "flight": {"mode": "STABILIZE", "armed": false}, "ekf": {"attitude": {"roll": -0.010423115454614162, "pitch": -0.03139440715312958, "yaw": 3.022545576095581}, "local_position": {"x": -4.4629292488098145, "y": -5.5704779624938965, "z": 3.272150754928589}, "status": {"flags": 831, "velocity_variance": 0.06948092579841614, "pos_horiz_variance": 0.0223592109978199, "pos_vert_variance": 0.0026274672709405422}}, "errors": ["PreArm: Compasses inconsistent", "PreArm: Compasses inconsistent", "PreArm: Hardware safety switch", "Arm: Hardware safety switch"]}
{"timestamp": "2026-01-24T14:17:38.107322Z", "telemetry": {"lat": 28.7532761, "lon": 77.117264, "satellites": 9, "altitude_gps_m": 200.39999389648438, "groundspeed_mps": 0.040943462401628494}, "flight": {"mode": "STABILIZE", "armed": false}, "ekf": {"attitude": {"roll": -0.00995942484587431, "pitch": -0.03173862025141716, "yaw": 3.0210981369018555}, "local_position": {"x": -4.396212577819824, "y": -5.593338966369629, "z": 3.358964443206787}, "status": {"flags": 831, "velocity_variance": 0.03604908660054207, "pos_horiz_variance": 0.02428545616567135, "pos_vert_variance": 0.004184801131486893}}, "errors": ["PreArm: Compasses inconsistent", "PreArm: Compasses inconsistent", "PreArm: Hardware safety switch", "Arm: Hardware safety switch", "Arm: Hardware safety switch"]}
{"timestamp": "2026-01-24T14:17:39.105214Z", "telemetry": {"lat": 28.7532771, "lon": 77.117264, "satellites": 9, "altitude_gps_m": 200.3699951171875, "groundspeed_mps": 0.04618719592690468}, "flight": {"mode": "STABILIZE", "armed": false}, "ekf": {"attitude": {"roll": -0.010123484767973423, "pitch": -0.03184713423252106, "yaw": 3.0198447704315186}, "local_position": {"x": -4.311535835266113, "y": -5.586556911468506, "z": 3.385127305984497}, "status": {"flags": 831, "velocity_variance": 0.05750668793916702, "pos_horiz_variance": 0.026858173310756683, "pos_vert_variance": 0.000960142002440989}}, "errors": ["PreArm: Compasses inconsistent", "PreArm: Compasses inconsistent", "PreArm: Hardware safety switch", "Arm: Hardware safety switch", "Arm: Hardware safety switch"]}
{"timestamp": "2026-01-24T14:17:40.103919Z", "telemetry": {"lat": 28.7532779, "lon": 77.1172638, "satellites": 9, "altitude_gps_m": 200.3199920654297, "groundspeed_mps": 0.03857170045375824}, "flight": {"mode": "STABILIZE", "armed": false}, "ekf": {"attitude": {"roll": -0.009815150871872902, "pitch": -0.0316983200609684, "yaw": 3.018472194671631}, "local_position": {"x": -4.2097554206848145, "y": -5.605931282043457, "z": 3.4304885864257812}, "status": {"flags": 831, "velocity_variance": 0.037461984902620316, "pos_horiz_variance": 0.025141462683677673, "pos_vert_variance": 0.01390902604907751}}, "errors": ["PreArm: Compasses inconsistent", "PreArm: Compasses inconsistent", "PreArm: Hardware safety switch", "Arm: Hardware safety switch", "Arm: Hardware safety switch"]}
{"timestamp": "2026-01-24T14:17:41.139665Z", "telemetry": {"lat": 28.7532792, "lon": 77.1172632, "satellites": 9, "altitude_gps_m": 200.3300018310547, "groundspeed_mps": 0.006590116303414106}, "flight": {"mode": "STABILIZE", "armed": false}, "ekf": {"attitude": {"roll": -0.009103000164031982, "pitch": -0.031547512859106064, "yaw": 3.017087459564209}, "local_position": {"x": -4.09328031539917, "y": -5.677609443664551, "z": 3.421647548675537}, "status": {"flags": 831, "velocity_variance": 0.019089972600340843, "pos_horiz_variance": 0.027516726404428482, "pos_vert_variance": 0.01610729470849037}}, "errors": ["PreArm: Compasses inconsistent", "PreArm: Compasses inconsistent", "PreArm: Hardware safety switch", "Arm: Hardware safety switch", "Arm: Hardware safety switch"]}
{"timestamp": "2026-01-24T14:17:42.106039Z", "telemetry": {"lat": 28.7532802, "lon": 77.1172627, "satellites": 9, "altitude_gps_m": 200.30999755859375, "groundspeed_mps": 0.0026720857713371515}, "flight": {"mode": "STABILIZE", "armed": false}, "ekf": {"attitude": {"roll": -0.009383633732795715, "pitch": -0.03173289820551872, "yaw": 3.015780448913574}, "local_position": {"x": -3.992292881011963, "y": -5.712623119354248, "z": 3.4446356296539307}, "status": {"flags": 831, "velocity_variance": 0.04897260665893555, "pos_horiz_variance": 0.029449837282299995, "pos_vert_variance": 0.005590422078967094}}, "errors": ["PreArm: Compasses inconsistent", "PreArm: Compasses inconsistent", "PreArm: Hardware safety switch", "Arm: Hardware safety switch", "Arm: Hardware safety switch"]}
{"timestamp": "2026-01-24T14:17:43.109210Z", "telemetry": {"lat": 28.7532812, "lon": 77.1172628, "satellites": 9, "altitude_gps_m": 200.25999450683594, "groundspeed_mps": 0.010041545145213604}, "flight": {"mode": "STABILIZE", "armed": false}, "ekf": {"attitude": {"roll": -0.009050571359694004, "pitch": -0.03197969123721123, "yaw": 3.014615297317505}, "local_position": {"x": -3.873736619949341, "y": -5.727553367614746, "z": 3.492568016052246}, "status": {"flags": 831, "velocity_variance": 0.022022584453225136, "pos_horiz_variance": 0.028287962079048157, "pos_vert_variance": 0.005047764629125595}}, "errors": ["PreArm: Compasses inconsistent", "PreArm: Compasses inconsistent", "PreArm: Hardware safety switch", "Arm: Hardware safety switch", "Arm: Hardware safety switch"]}
{"timestamp": "2026-01-24T14:17:44.129601Z", "telemetry": {"lat": 28.7532824, "lon": 77.1172633, "satellites": 9, "altitude_gps_m": 200.25, "groundspeed_mps": 0.018928619101643562}, "flight": {"mode": "STABILIZE", "armed": false}, "ekf": {"attitude": {"roll": -0.009339731186628342, "pitch": -0.03219764307141304, "yaw": 3.0135672092437744}, "local_position": {"x": -3.7569525241851807, "y": -5.725100994110107, "z": 3.5062243938446045}, "status": {"flags": 831, "velocity_variance": 0.0331830233335495, "pos_horiz_variance": 0.029543546959757805, "pos_vert_variance": 0.0037002034951001406}}, "errors": ["PreArm: Compasses inconsistent", "PreArm: Compasses inconsistent", "PreArm: Hardware safety switch", "Arm: Hardware safety switch", "Arm: Hardware safety switch"]}
{"timestamp": "2026-01-24T14:17:45.105951Z", "telemetry": {"lat": 28.7532839, "lon": 77.1172635, "satellites": 9, "altitude_gps_m": 200.25999450683594, "groundspeed_mps": 0.024119224399328232}, "flight": {"mode": "STABILIZE", "armed": false}, "ekf": {"attitude": {"roll": -0.009286328218877316, "pitch": -0.0320313423871994, "yaw": 3.012470006942749}, "local_position": {"x": -3.6215016841888428, "y": -5.719703674316406, "z": 3.4954333305358887}, "status": {"flags": 831, "velocity_variance": 0.06443315744400024, "pos_horiz_variance": 0.0327710397541523, "pos_vert_variance": 0.015815960243344307}}, "errors": ["PreArm: Compasses inconsistent", "PreArm: Compasses inconsistent", "PreArm: Hardware safety switch", "Arm: Hardware safety switch", "Arm: Hardware safety switch"]}
{"timestamp": "2026-01-24T14:17:46.123493Z", "telemetry": {"lat": 28.7532849, "lon": 77.1172637, "satellites": 9, "altitude_gps_m": 200.22000122070312, "groundspeed_mps": 0.03594331070780754}, "flight": {"mode": "STABILIZE", "armed": false}, "ekf": {"attitude": {"roll": -0.009197929874062538, "pitch": -0.032362863421440125, "yaw": 3.0113468170166016}, "local_position": {"x": -3.492734909057617, "y": -5.6860222816467285, "z": 3.5376858711242676}, "status": {"flags": 831, "velocity_variance": 0.03409441560506821, "pos_horiz_variance": 0.031714681535959244, "pos_vert_variance": 0.012778817676007748}}, "errors": ["PreArm: Compasses inconsistent", "PreArm: Compasses inconsistent", "PreArm: Hardware safety switch", "Arm: Hardware safety switch", "Arm: Hardware safety switch"]}
{"timestamp": "2026-01-24T14:17:47.127005Z", "telemetry": {"lat": 28.7532859, "lon": 77.1172639, "satellites": 9, "altitude_gps_m": 200.1699981689453, "groundspeed_mps": 0.03152138739824295}, "flight": {"mode": "STABILIZE", "armed": false}, "ekf": {"attitude": {"roll": -0.008985941298305988, "pitch": -0.032551296055316925, "yaw": 3.010397434234619}, "local_position": {"x": -3.3832292556762695, "y": -5.684704303741455, "z": 3.5871188640594482}, "status": {"flags": 831, "velocity_variance": 0.050259560346603394, "pos_horiz_variance": 0.03197263553738594, "pos_vert_variance": 0.020338712260127068}}, "errors": ["PreArm: Compasses inconsistent", "PreArm: Compasses inconsistent", "PreArm: Hardware safety switch", "Arm: Hardware safety switch", "Arm: Hardware safety switch"]}
{"timestamp": "2026-01-24T14:17:48.107811Z", "telemetry": {"lat": 28.7532869, "lon": 77.1172638, "satellites": 9, "altitude_gps_m": 200.0699920654297, "groundspeed_mps": 0.018670903518795967}, "flight": {"mode": "STABILIZE", "armed": false}, "ekf": {"attitude": {"roll": -0.008662909269332886, "pitch": -0.03240185230970383, "yaw": 3.0093789100646973}, "local_position": {"x": -3.2948176860809326, "y": -5.691174507141113, "z": 3.647610902786255}, "status": {"flags": 831, "velocity_variance": 0.04976843670010567, "pos_horiz_variance": 0.03320378437638283, "pos_vert_variance": 0.03353341668844223}}, "errors": ["PreArm: Compasses inconsistent", "PreArm: Compasses inconsistent", "PreArm: Hardware safety switch", "Arm: Hardware safety switch", "Arm: Hardware safety switch"]}
{"timestamp": "2026-01-24T14:17:49.095875Z", "telemetry": {"lat": 28.7532884, "lon": 77.1172638, "satellites": 9, "altitude_gps_m": 199.9499969482422, "groundspeed_mps": 0.01817622222006321}, "flight": {"mode": "STABILIZE", "armed": true}, "ekf": {"attitude": {"roll": -0.00887705385684967, "pitch": -0.032553814351558685, "yaw": 3.0083346366882324}, "local_position": {"x": -3.132721424102783, "y": -5.691817760467529, "z": 3.810987949371338}, "status": {"flags": 831, "velocity_variance": 0.043133169412612915, "pos_horiz_variance": 0.035026513040065765, "pos_vert_variance": 0.03139406442642212}}, "errors": ["PreArm: Compasses inconsistent", "PreArm: Compasses inconsistent", "PreArm: Hardware safety switch", "Arm: Hardware safety switch", "Arm: Hardware safety switch"]}
{"timestamp": "2026-01-24T14:17:50.129647Z", "telemetry": {"lat": 28.7532895, "lon": 77.1172638, "satellites": 9, "altitude_gps_m": 199.739990234375, "groundspeed_mps": 0.026012487709522247}, "flight": {"mode": "STABILIZE", "armed": true}, "ekf": {"attitude": {"roll": -0.009124226868152618, "pitch": -0.03284527733922005, "yaw": 3.0078272819519043}, "local_position": {"x": -3.0114781856536865, "y": -5.674610137939453, "z": 4.01862096786499}, "status": {"flags": 831, "velocity_variance": 0.034970175474882126, "pos_horiz_variance": 0.03503479063510895, "pos_vert_variance": 0.03480589762330055}}, "errors": ["PreArm: Compasses inconsistent", "PreArm: Compasses inconsistent", "PreArm: Hardware safety switch", "Arm: Hardware safety switch", "Arm: Hardware safety switch"]}
{"timestamp": "2026-01-24T14:17:51.128873Z", "telemetry": {"lat": 28.7532906, "lon": 77.1172639, "satellites": 9, "altitude_gps_m": 199.58999633789062, "groundspeed_mps": 0.023470424115657806}, "flight": {"mode": "STABILIZE", "armed": true}, "ekf": {"attitude": {"roll": -0.009489240124821663, "pitch": -0.0337134525179863, "yaw": 3.006335496902466}, "local_position": {"x": -2.883441686630249, "y": -5.663126468658447, "z": 4.166386127471924}, "status": {"flags": 831, "velocity_variance": 0.04289332777261734, "pos_horiz_variance": 0.034415461122989655, "pos_vert_variance": 0.0377265103161335}}, "errors": ["PreArm: Compasses inconsistent", "PreArm: Compasses inconsistent", "PreArm: Hardware safety switch", "Arm: Hardware safety switch", "Arm: Hardware safety switch"]}
{"timestamp": "2026-01-24T14:17:52.096250Z", "telemetry": {"lat": 28.7532914, "lon": 77.1172642, "satellites": 9, "altitude_gps_m": 199.42999267578125, "groundspeed_mps": 0.027938466519117355}, "flight": {"mode": "STABILIZE", "armed": true}, "ekf": {"attitude": {"roll": -0.009745699353516102, "pitch": -0.034275688230991364, "yaw": 3.0054564476013184}, "local_position": {"x": -2.7546095848083496, "y": -5.650552749633789, "z": 4.323551177978516}, "status": {"flags": 831, "velocity_variance": 0.04270411282777786, "pos_horiz_variance": 0.030982809141278267, "pos_vert_variance": 0.04003722220659256}}, "errors": ["PreArm: Compasses inconsistent", "PreArm: Compasses inconsistent", "PreArm: Hardware safety switch", "Arm: Hardware safety switch", "Arm: Hardware safety switch"]}
{"timestamp": "2026-01-24T14:17:53.106308Z", "telemetry": {"lat": 28.7532921, "lon": 77.1172643, "satellites": 9, "altitude_gps_m": 199.26998901367188, "groundspeed_mps": 0.006487871520221233}, "flight": {"mode": "STABILIZE", "armed": true}, "ekf": {"attitude": {"roll": -0.010055901482701302, "pitch": -0.0351613312959671, "yaw": 3.003887414932251}, "local_position": {"x": -2.6636905670166016, "y": -5.666050910949707, "z": 4.481056213378906}, "status": {"flags": 831, "velocity_variance": 0.023225290700793266, "pos_horiz_variance": 0.030484437942504883, "pos_vert_variance": 0.032971933484077454}}, "errors": ["PreArm: Compasses inconsistent", "PreArm: Compasses inconsistent", "PreArm: Hardware safety switch", "Arm: Hardware safety switch", "Arm: Hardware safety switch"]}
{"timestamp": "2026-01-24T14:17:54.120122Z", "telemetry": {"lat": 28.7532927, "lon": 77.117264, "satellites": 9, "altitude_gps_m": 199.12998962402344, "groundspeed_mps": 0.019725222140550613}, "flight": {"mode": "STABILIZE", "armed": true}, "ekf": {"attitude": {"roll": -0.010261746123433113, "pitch": -0.03619874268770218, "yaw": 3.003632068634033}, "local_position": {"x": -2.5976650714874268, "y": -5.681254863739014, "z": 4.581827640533447}, "status": {"flags": 831, "velocity_variance": 0.03686477616429329, "pos_horiz_variance": 0.02854491025209427, "pos_vert_variance": 0.03125452622771263}}, "errors": ["PreArm: Compasses inconsistent", "PreArm: Compasses inconsistent", "PreArm: Hardware safety switch", "Arm: Hardware safety switch", "Arm: Hardware safety switch"]}
{"timestamp": "2026-01-24T14:17:55.095947Z", "telemetry": {"lat": 28.7532945, "lon": 77.1172643, "satellites": 10, "altitude_gps_m": 199.02999877929688, "groundspeed_mps": 0.028882261365652084}, "flight": {"mode": "STABILIZE", "armed": true}, "ekf": {"attitude": {"roll": -0.010699561797082424, "pitch": -0.03610239177942276, "yaw": 3.004244327545166}, "local_position": {"x": -2.4458603858947754, "y": -5.703758239746094, "z": 4.725478172302246}, "status": {"flags": 831, "velocity_variance": 0.037700850516557693, "pos_horiz_variance": 0.03423648327589035, "pos_vert_variance": 0.0012509752996265888}}, "errors": ["PreArm: Compasses inconsistent", "PreArm: Compasses inconsistent", "PreArm: Hardware safety switch", "Arm: Hardware safety switch", "Arm: Hardware safety switch"]}
{"timestamp": "2026-01-24T14:17:56.143094Z", "telemetry": {"lat": 28.7532957, "lon": 77.117265, "satellites": 10, "altitude_gps_m": 199.01998901367188, "groundspeed_mps": 0.03331249579787254}, "flight": {"mode": "STABILIZE", "armed": true}, "ekf": {"attitude": {"roll": -0.011140584945678711, "pitch": -0.035728175193071365, "yaw": 3.00396466255188}, "local_position": {"x": -2.31337308883667, "y": -5.706384181976318, "z": 4.737861156463623}, "status": {"flags": 831, "velocity_variance": 0.034884124994277954, "pos_horiz_variance": 0.03726638853549957, "pos_vert_variance": 0.032244857400655746}}, "errors": ["PreArm: Compasses inconsistent", "PreArm: Compasses inconsistent", "PreArm: Hardware safety switch", "Arm: Hardware safety switch", "Arm: Hardware safety switch"]}
{"timestamp": "2026-01-24T14:17:57.104450Z", "telemetry": {"lat": 28.7532972, "lon": 77.1172654, "satellites": 10, "altitude_gps_m": 199.05999755859375, "groundspeed_mps": 0.007560089696198702}, "flight": {"mode": "STABILIZE", "armed": true}, "ekf": {"attitude": {"roll": -0.01115161832422018, "pitch": -0.03635222837328911, "yaw": 3.002467632293701}, "local_position": {"x": -2.2046003341674805, "y": -5.7026567459106445, "z": 4.703710079193115}, "status": {"flags": 831, "velocity_variance": 0.024537712335586548, "pos_horiz_variance": 0.03917316347360611, "pos_vert_variance": 0.047427475452423096}}, "errors": ["PreArm: Compasses inconsistent", "PreArm: Compasses inconsistent", "PreArm: Hardware safety switch", "Arm: Hardware safety switch", "Arm: Hardware safety switch"]}
{"timestamp": "2026-01-24T14:17:58.125755Z", "telemetry": {"lat": 28.7532984, "lon": 77.117266, "satellites": 10, "altitude_gps_m": 199.1699981689453, "groundspeed_mps": 0.025629907846450806}, "flight": {"mode": "STABILIZE", "armed": true}, "ekf": {"attitude": {"roll": -0.011313028633594513, "pitch": -0.03712543100118637, "yaw": 3.0021865367889404}, "local_position": {"x": -2.0423994064331055, "y": -5.618480205535889, "z": 4.578886985778809}, "status": {"flags": 831, "velocity_variance": 0.015378662385046482, "pos_horiz_variance": 0.040678199380636215, "pos_vert_variance": 0.06783229112625122}}, "errors": ["PreArm: Compasses inconsistent", "PreArm: Compasses inconsistent", "PreArm: Hardware safety switch", "Arm: Hardware safety switch", "Arm: Hardware safety switch"]}
{"timestamp": "2026-01-24T14:17:59.160064Z", "telemetry": {"lat": 28.7532995, "lon": 77.1172657, "satellites": 10, "altitude_gps_m": 199.3699951171875, "groundspeed_mps": 0.027849838137626648}, "flight": {"mode": "STABILIZE", "armed": true}, "ekf": {"attitude": {"roll": -0.01002845074981451, "pitch": -0.03656068071722984, "yaw": 3.0014448165893555}, "local_position": {"x": -1.9289742708206177, "y": -5.600675106048584, "z": 4.380607604980469}, "status": {"flags": 831, "velocity_variance": 0.04551553726196289, "pos_horiz_variance": 0.039893247187137604, "pos_vert_variance": 0.07922618091106415}}, "errors": ["PreArm: Compasses inconsistent", "PreArm: Compasses inconsistent", "PreArm: Hardware safety switch", "Arm: Hardware safety switch", "Arm: Hardware safety switch"]}
{"timestamp": "2026-01-24T14:18:00.160769Z", "telemetry": {"lat": 28.7533005, "lon": 77.1172657, "satellites": 10, "altitude_gps_m": 199.58999633789062, "groundspeed_mps": 0.04426800087094307}, "flight": {"mode": "STABILIZE", "armed": true}, "ekf": {"attitude": {"roll": -0.010231660678982735, "pitch": -0.03743894398212433, "yaw": 3.000166654586792}, "local_position": {"x": -1.8624423742294312, "y": -5.5998311042785645, "z": 4.207977771759033}, "status": {"flags": 831, "velocity_variance": 0.06150035560131073, "pos_horiz_variance": 0.04021754115819931, "pos_vert_variance": 0.08412309736013412}}, "errors": ["PreArm: Compasses inconsistent", "PreArm: Compasses inconsistent", "PreArm: Hardware safety switch", "Arm: Hardware safety switch", "Arm: Hardware safety switch"]}
{"timestamp": "2026-01-24T14:18:01.159072Z", "telemetry": {"lat": 28.7533016, "lon": 77.1172658, "satellites": 10, "altitude_gps_m": 199.8300018310547, "groundspeed_mps": 0.054626572877168655}, "flight": {"mode": "STABILIZE", "armed": true}, "ekf": {"attitude": {"roll": -0.010351382195949554, "pitch": -0.037564970552921295, "yaw": 2.99918270111084}, "local_position": {"x": -1.7315428256988525, "y": -5.5641984939575195, "z": 3.9273548126220703}, "status": {"flags": 831, "velocity_variance": 0.04252607002854347, "pos_horiz_variance": 0.041735969483852386, "pos_vert_variance": 0.08990878611803055}}, "errors": ["PreArm: Compasses inconsistent", "PreArm: Compasses inconsistent", "PreArm: Hardware safety switch", "Arm: Hardware safety switch", "Arm: Hardware safety switch"]}
{"timestamp": "2026-01-24T14:18:02.125217Z", "telemetry": {"lat": 28.7533024, "lon": 77.1172662, "satellites": 10, "altitude_gps_m": 200.0500030517578, "groundspeed_mps": 0.06127390265464783}, "flight": {"mode": "STABILIZE", "armed": true}, "ekf": {"attitude": {"roll": -0.01045751478523016, "pitch": -0.03708907961845398, "yaw": 2.998680830001831}, "local_position": {"x": -1.6194267272949219, "y": -5.515284061431885, "z": 3.7027246952056885}, "status": {"flags": 831, "velocity_variance": 0.05569979175925255, "pos_horiz_variance": 0.039789434522390366, "pos_vert_variance": 0.09467919915914536}}, "errors": ["PreArm: Compasses inconsistent", "PreArm: Compasses inconsistent", "PreArm: Hardware safety switch", "Arm: Hardware safety switch", "Arm: Hardware safety switch"]}
{"timestamp": "2026-01-24T14:18:03.126233Z", "telemetry": {"lat": 28.753303, "lon": 77.1172665, "satellites": 10, "altitude_gps_m": 200.30999755859375, "groundspeed_mps": 0.06333581358194351}, "flight": {"mode": "STABILIZE", "armed": true}, "ekf": {"attitude": {"roll": -0.010511807166039944, "pitch": -0.0368448831140995, "yaw": 2.9973177909851074}, "local_position": {"x": -1.5211443901062012, "y": -5.479392051696777, "z": 3.441787004470825}, "status": {"flags": 831, "velocity_variance": 0.0615696981549263, "pos_horiz_variance": 0.03768979385495186, "pos_vert_variance": 0.10540566593408585}}, "errors": ["PreArm: Compasses inconsistent", "PreArm: Compasses inconsistent", "PreArm: Hardware safety switch", "Arm: Hardware safety switch", "Arm: Hardware safety switch"]}
{"timestamp": "2026-01-24T14:18:04.157050Z", "telemetry": {"lat": 28.7533042, "lon": 77.1172659, "satellites": 10, "altitude_gps_m": 200.59999084472656, "groundspeed_mps": 0.047125380486249924}, "flight": {"mode": "STABILIZE", "armed": true}, "ekf": {"attitude": {"roll": -0.010219265706837177, "pitch": -0.036197129637002945, "yaw": 2.996987819671631}, "local_position": {"x": -1.403354287147522, "y": -5.489277362823486, "z": 3.1518197059631348}, "status": {"flags": 831, "velocity_variance": 0.08407291024923325, "pos_horiz_variance": 0.03840329498052597, "pos_vert_variance": 0.10299677401781082}}, "errors": ["PreArm: Compasses inconsistent", "PreArm: Compasses inconsistent", "PreArm: Hardware safety switch", "Arm: Hardware safety switch", "Arm: Hardware safety switch"]}
{"timestamp": "2026-01-24T14:18:05.125128Z", "telemetry": {"lat": 28.7533052, "lon": 77.1172657, "satellites": 10, "altitude_gps_m": 200.87998962402344, "groundspeed_mps": 0.03248177841305733}, "flight": {"mode": "STABILIZE", "armed": true}, "ekf": {"attitude": {"roll": -0.010328130796551704, "pitch": -0.0353601910173893, "yaw": 2.9959535598754883}, "local_position": {"x": -1.264335036277771, "y": -5.485318660736084, "z": 2.8684005737304688}, "status": {"flags": 831, "velocity_variance": 0.10265369713306427, "pos_horiz_variance": 0.03637826442718506, "pos_vert_variance": 0.1031072661280632}}, "errors": ["PreArm: Compasses inconsistent", "PreArm: Compasses inconsistent", "PreArm: Hardware safety switch", "Arm: Hardware safety switch", "Arm: Hardware safety switch"]}
{"timestamp": "2026-01-24T14:18:06.122721Z", "telemetry": {"lat": 28.7533056, "lon": 77.1172655, "satellites": 10, "altitude_gps_m": 201.1999969482422, "groundspeed_mps": 0.03188469633460045}, "flight": {"mode": "STABILIZE", "armed": true}, "ekf": {"attitude": {"roll": -0.010479520075023174, "pitch": -0.03505159914493561, "yaw": 2.9952707290649414}, "local_position": {"x": -1.1619786024093628, "y": -5.487462997436523, "z": 2.553894519805908}, "status": {"flags": 831, "velocity_variance": 0.06076766550540924, "pos_horiz_variance": 0.03157616779208183, "pos_vert_variance": 0.10539314150810242}}, "errors": ["PreArm: Compasses inconsistent", "PreArm: Compasses inconsistent", "PreArm: Hardware safety switch", "Arm: Hardware safety switch", "Arm: Hardware safety switch"]}
{"timestamp": "2026-01-24T14:18:07.121723Z", "telemetry": {"lat": 28.7533061, "lon": 77.1172655, "satellites": 10, "altitude_gps_m": 201.52999877929688, "groundspeed_mps": 0.035917241126298904}, "flight": {"mode": "STABILIZE", "armed": true}, "ekf": {"attitude": {"roll": -0.010710962116718292, "pitch": -0.03487301617860794, "yaw": 2.994706153869629}, "local_position": {"x": -1.0800107717514038, "y": -5.482420444488525, "z": 2.2239596843719482}, "status": {"flags": 831, "velocity_variance": 0.08743536472320557, "pos_horiz_variance": 0.02940138429403305, "pos_vert_variance": 0.10223262757062912}}, "errors": ["PreArm: Compasses inconsistent", "PreArm: Compasses inconsistent", "PreArm: Hardware safety switch", "Arm: Hardware safety switch", "Arm: Hardware safety switch"]}
{"timestamp": "2026-01-24T14:18:08.154356Z", "telemetry": {"lat": 28.7533066, "lon": 77.1172647, "satellites": 10, "altitude_gps_m": 201.83999633789062, "groundspeed_mps": 0.030156409367918968}, "flight": {"mode": "STABILIZE", "armed": true}, "ekf": {"attitude": {"roll": -0.010439804755151272, "pitch": -0.03452374413609505, "yaw": 2.994032621383667}, "local_position": {"x": -0.9927905201911926, "y": -5.509901523590088, "z": 1.9141099452972412}, "status": {"flags": 831, "velocity_variance": 0.10919256508350372, "pos_horiz_variance": 0.02682960405945778, "pos_vert_variance": 0.10059256106615067}}, "errors": ["PreArm: Compasses inconsistent", "PreArm: Compasses inconsistent", "PreArm: Hardware safety switch", "Arm: Hardware safety switch", "Arm: Hardware safety switch"]}
{"timestamp": "2026-01-24T14:18:09.154230Z", "telemetry": {"lat": 28.753307, "lon": 77.1172645, "satellites": 10, "altitude_gps_m": 202.11000061035156, "groundspeed_mps": 0.03748488426208496}, "flight": {"mode": "STABILIZE", "armed": true}, "ekf": {"attitude": {"roll": -0.01042177528142929, "pitch": -0.034449853003025055, "yaw": 2.993166208267212}, "local_position": {"x": -0.9228604435920715, "y": -5.525202751159668, "z": 1.6371630430221558}, "status": {"flags": 831, "velocity_variance": 0.11189129203557968, "pos_horiz_variance": 0.02487657219171524, "pos_vert_variance": 0.09281247109174728}}, "errors": ["PreArm: Compasses inconsistent", "PreArm: Compasses inconsistent", "PreArm: Hardware safety switch", "Arm: Hardware safety switch", "Arm: Hardware safety switch"]}
{"timestamp": "2026-01-24T14:18:10.118454Z", "telemetry": {"lat": 28.7533074, "lon": 77.1172648, "satellites": 10, "altitude_gps_m": 202.39999389648438, "groundspeed_mps": 0.043591659516096115}, "flight": {"mode": "STABILIZE", "armed": true}, "ekf": {"attitude": {"roll": -0.01052683312445879, "pitch": -0.03406929597258568, "yaw": 2.992905855178833}, "local_position": {"x": -0.8646209836006165, "y": -5.528077125549316, "z": 1.3542958498001099}, "status": {"flags": 831, "velocity_variance": 0.10826513171195984, "pos_horiz_variance": 0.02253003790974617, "pos_vert_variance": 0.09182538837194443}}, "errors": ["PreArm: Compasses inconsistent", "PreArm: Compasses inconsistent", "PreArm: Hardware safety switch", "Arm: Hardware safety switch", "Arm: Hardware safety switch"]}
{"timestamp": "2026-01-24T14:18:11.122113Z", "telemetry": {"lat": 28.7533083, "lon": 77.1172651, "satellites": 10, "altitude_gps_m": 202.63999938964844, "groundspeed_mps": 0.03419143706560135}, "flight": {"mode": "STABILIZE", "armed": false}, "ekf": {"attitude": {"roll": -0.010421029292047024, "pitch": -0.032920222729444504, "yaw": 2.9922966957092285}, "local_position": {"x": -0.7733184099197388, "y": -5.50542688369751, "z": 1.1089460849761963}, "status": {"flags": 831, "velocity_variance": 0.08292582631111145, "pos_horiz_variance": 0.02308194525539875, "pos_vert_variance": 0.08558401465415955}}, "errors": ["PreArm: Compasses inconsistent", "PreArm: Compasses inconsistent", "PreArm: Hardware safety switch", "Arm: Hardware safety switch", "Arm: Hardware safety switch"]}
{"timestamp": "2026-01-24T14:18:12.121855Z", "telemetry": {"lat": 28.7533089, "lon": 77.1172643, "satellites": 10, "altitude_gps_m": 202.89999389648438, "groundspeed_mps": 0.006085671484470367}, "flight": {"mode": "STABILIZE", "armed": false}, "ekf": {"attitude": {"roll": -0.009556574746966362, "pitch": -0.03272209316492081, "yaw": 2.9917802810668945}, "local_position": {"x": -0.6929535865783691, "y": -5.558901786804199, "z": 0.854523241519928}, "status": {"flags": 831, "velocity_variance": 0.08642686158418655, "pos_horiz_variance": 0.02287377417087555, "pos_vert_variance": 0.08289937674999237}}, "errors": ["PreArm: Compasses inconsistent", "PreArm: Compasses inconsistent", "PreArm: Hardware safety switch", "Arm: Hardware safety switch", "Arm: Hardware safety switch"]}
{"timestamp": "2026-01-24T14:18:13.116474Z", "telemetry": {"lat": 28.7533095, "lon": 77.1172641, "satellites": 10, "altitude_gps_m": 203.11000061035156, "groundspeed_mps": 0.0070798443630337715}, "flight": {"mode": "STABILIZE", "armed": false}, "ekf": {"attitude": {"roll": -0.009714426472783089, "pitch": -0.03259078040719032, "yaw": 2.991074562072754}, "local_position": {"x": -0.6067883968353271, "y": -5.584364891052246, "z": 0.6426704525947571}, "status": {"flags": 831, "velocity_variance": 0.09963055700063705, "pos_horiz_variance": 0.021193580701947212, "pos_vert_variance": 0.07687794417142868}}, "errors": ["PreArm: Compasses inconsistent", "PreArm: Compasses inconsistent", "PreArm: Hardware safety switch", "Arm: Hardware safety switch", "Arm: Hardware safety switch"]}
{"timestamp": "2026-01-24T14:18:14.131451Z", "telemetry": {"lat": 28.7533102, "lon": 77.1172637, "satellites": 10, "altitude_gps_m": 203.27999877929688, "groundspeed_mps": 0.014136204496026039}, "flight": {"mode": "STABILIZE", "armed": false}, "ekf": {"attitude": {"roll": -0.009628395549952984, "pitch": -0.0325072780251503, "yaw": 2.9903979301452637}, "local_position": {"x": -0.5206162333488464, "y": -5.607522487640381, "z": 0.475490003824234}, "status": {"flags": 831, "velocity_variance": 0.07951764762401581, "pos_horiz_variance": 0.020274151116609573, "pos_vert_variance": 0.07392223924398422}}, "errors": ["PreArm: Compasses inconsistent", "PreArm: Compasses inconsistent", "PreArm: Hardware safety switch", "Arm: Hardware safety switch", "Arm: Hardware safety switch"]}
{"timestamp": "2026-01-24T14:18:15.131382Z", "telemetry": {"lat": 28.7533106, "lon": 77.1172632, "satellites": 10, "altitude_gps_m": 203.489990234375, "groundspeed_mps": 0.008082883432507515}, "flight": {"mode": "STABILIZE", "armed": false}, "ekf": {"attitude": {"roll": -0.009767673909664154, "pitch": -0.03295154497027397, "yaw": 2.9897103309631348}, "local_position": {"x": -0.46859854459762573, "y": -5.630978107452393, "z": 0.2674393355846405}, "status": {"flags": 831, "velocity_variance": 0.06060566380620003, "pos_horiz_variance": 0.01989247277379036, "pos_vert_variance": 0.07420092076063156}}, "errors": ["PreArm: Compasses inconsistent", "PreArm: Compasses inconsistent", "PreArm: Hardware safety switch", "Arm: Hardware safety switch", "Arm: Hardware safety switch"]}
{"timestamp": "2026-01-24T14:18:16.130930Z", "telemetry": {"lat": 28.7533109, "lon": 77.1172628, "satellites": 10, "altitude_gps_m": 203.72000122070312, "groundspeed_mps": 0.013667246326804161}, "flight": {"mode": "STABILIZE", "armed": false}, "ekf": {"attitude": {"roll": -0.009854915551841259, "pitch": -0.03319159895181656, "yaw": 2.989302396774292}, "local_position": {"x": -0.4162134826183319, "y": -5.667182445526123, "z": 0.02973780781030655}, "status": {"flags": 831, "velocity_variance": 0.09943195432424545, "pos_horiz_variance": 0.018876364454627037, "pos_vert_variance": 0.07562854886054993}}, "errors": ["PreArm: Compasses inconsistent", "PreArm: Compasses inconsistent", "PreArm: Hardware safety switch", "Arm: Hardware safety switch", "Arm: Hardware safety switch"]}
{"timestamp": "2026-01-24T14:18:17.130654Z", "telemetry": {"lat": 28.7533117, "lon": 77.1172624, "satellites": 10, "altitude_gps_m": 203.9499969482422, "groundspeed_mps": 0.00964362546801567}, "flight": {"mode": "STABILIZE", "armed": true}, "ekf": {"attitude": {"roll": -0.009950991719961166, "pitch": -0.03302202746272087, "yaw": 2.9887354373931885}, "local_position": {"x": -0.3325212895870209, "y": -5.709188461303711, "z": -0.1581377536058426}, "status": {"flags": 831, "velocity_variance": 0.12722176313400269, "pos_horiz_variance": 0.01855814829468727, "pos_vert_variance": 0.06944051384925842}}, "errors": ["PreArm: Compasses inconsistent", "PreArm: Compasses inconsistent", "PreArm: Hardware safety switch", "Arm: Hardware safety switch", "Arm: Hardware safety switch"]}
{"timestamp": "2026-01-24T14:18:18.122697Z", "telemetry": {"lat": 28.7533118, "lon": 77.1172626, "satellites": 10, "altitude_gps_m": 204.08999633789062, "groundspeed_mps": 0.008953074924647808}, "flight": {"mode": "STABILIZE", "armed": true}, "ekf": {"attitude": {"roll": -0.010126637294888496, "pitch": -0.0334373414516449, "yaw": 2.9889659881591797}, "local_position": {"x": -0.26718658208847046, "y": -5.711626052856445, "z": -0.3367352783679962}, "status": {"flags": 831, "velocity_variance": 0.05486520752310753, "pos_horiz_variance": 0.013779840432107449, "pos_vert_variance": 0.06894509494304657}}, "errors": ["PreArm: Compasses inconsistent", "PreArm: Compasses inconsistent", "PreArm: Hardware safety switch", "Arm: Hardware safety switch", "Arm: Hardware safety switch"]}
{"timestamp": "2026-01-24T14:18:19.114334Z", "telemetry": {"lat": 28.7533122, "lon": 77.1172628, "satellites": 10, "altitude_gps_m": 204.2899932861328, "groundspeed_mps": 0.03624920919537544}, "flight": {"mode": "STABILIZE", "armed": true}, "ekf": {"attitude": {"roll": -0.00896967388689518, "pitch": -0.029919175431132317, "yaw": 2.9903740882873535}, "local_position": {"x": -0.22884035110473633, "y": -5.682218074798584, "z": -0.5420771837234497}, "status": {"flags": 831, "velocity_variance": 0.07980046421289444, "pos_horiz_variance": 0.014601461589336395, "pos_vert_variance": 0.06107857823371887}}, "errors": ["PreArm: Compasses inconsistent", "PreArm: Compasses inconsistent", "PreArm: Hardware safety switch", "Arm: Hardware safety switch", "Arm: Hardware safety switch"]}
{"timestamp": "2026-01-24T14:18:20.149185Z", "telemetry": {"lat": 28.7533127, "lon": 77.1172626, "satellites": 10, "altitude_gps_m": 204.47999572753906, "groundspeed_mps": 0.019245315343141556}, "flight": {"mode": "STABILIZE", "armed": true}, "ekf": {"attitude": {"roll": -0.008675205521285534, "pitch": -0.021254610270261765, "yaw": 2.9919190406799316}, "local_position": {"x": -0.1518665850162506, "y": -5.710513591766357, "z": -0.6988796591758728}, "status": {"flags": 831, "velocity_variance": 0.09198388457298279, "pos_horiz_variance": 0.01229565404355526, "pos_vert_variance": 0.055046241730451584}}, "errors": ["PreArm: Compasses inconsistent", "PreArm: Compasses inconsistent", "PreArm: Hardware safety switch", "Arm: Hardware safety switch", "Arm: Hardware safety switch"]}
{"timestamp": "2026-01-24T14:18:21.148862Z", "telemetry": {"lat": 28.7533126, "lon": 77.1172629, "satellites": 10, "altitude_gps_m": 204.6199951171875, "groundspeed_mps": 0.017086626961827278}, "flight": {"mode": "STABILIZE", "armed": true}, "ekf": {"attitude": {"roll": -0.00503508560359478, "pitch": -0.005214370787143707, "yaw": 2.995452642440796}, "local_position": {"x": -0.1094527542591095, "y": -5.718440055847168, "z": -0.8651467561721802}, "status": {"flags": 831, "velocity_variance": 0.08976291865110397, "pos_horiz_variance": 0.0069262124598026276, "pos_vert_variance": 0.056403566151857376}}, "errors": ["PreArm: Compasses inconsistent", "PreArm: Compasses inconsistent", "PreArm: Hardware safety switch", "Arm: Hardware safety switch", "Arm: Hardware safety switch"]}
{"timestamp": "2026-01-24T14:18:22.148544Z", "telemetry": {"lat": 28.7533131, "lon": 77.1172628, "satellites": 10, "altitude_gps_m": 204.8199920654297, "groundspeed_mps": 0.20505809783935547}, "flight": {"mode": "STABILIZE", "armed": true}, "ekf": {"attitude": {"roll": -0.03483814001083374, "pitch": 0.10591553151607513, "yaw": -2.9820055961608887}, "local_position": {"x": -0.018802762031555176, "y": -5.7615556716918945, "z": -1.0699565410614014}, "status": {"flags": 831, "velocity_variance": 0.07588405907154083, "pos_horiz_variance": 0.00527034280821681, "pos_vert_variance": 0.05720984935760498}}, "errors": ["PreArm: Compasses inconsistent", "PreArm: Compasses inconsistent", "PreArm: Hardware safety switch", "Arm: Hardware safety switch", "Arm: Hardware safety switch"]}
{"timestamp": "2026-01-24T14:18:23.147849Z", "telemetry": {"lat": 28.7533159, "lon": 77.1172682, "satellites": 10, "altitude_gps_m": 205.67999267578125, "groundspeed_mps": 1.0810586214065552}, "flight": {"mode": "STABILIZE", "armed": true}, "ekf": {"attitude": {"roll": 0.030505310744047165, "pitch": 0.06447899341583252, "yaw": 0.1845073252916336}, "local_position": {"x": 0.4193137288093567, "y": -5.161564826965332, "z": -1.6315691471099854}, "status": {"flags": 831, "velocity_variance": 0.13895173370838165, "pos_horiz_variance": 0.008879043161869049, "pos_vert_variance": 0.040410857647657394}}, "errors": ["PreArm: Compasses inconsistent", "PreArm: Compasses inconsistent", "PreArm: Hardware safety switch", "Arm: Hardware safety switch", "Arm: Hardware safety switch"]}
