{"timestamp": "2026-01-29T13:23:26.035241Z", "telemetry": {"lat": 13.3543199, "lon": 74.864769, "satellites": 10, "altitude_gps_m": 40.279998779296875, "groundspeed_mps": 0.1538824886083603}, "flight": {"mode": "LOITER", "armed": true}, "ekf": {"attitude": {"roll": -0.02310616709291935, "pitch": -0.038992658257484436, "yaw": -2.8945586681365967}, "local_position": {"x": 2.498333215713501, "y": 2.1724841594696045, "z": -4.031135082244873}, "status": {"flags": 831, "velocity_variance": 0.08134721219539642, "pos_horiz_variance": 0.020636800676584244, "pos_vert_variance": 0.025289570912718773}}, "errors": []}
{"timestamp": "2026-01-29T13:23:26.993528Z", "telemetry": {"lat": 13.3543198, "lon": 74.8647686, "satellites": 10, "altitude_gps_m": 40.279998779296875, "groundspeed_mps": 0.15583106875419617}, "flight": {"mode": "LOITER", "armed": true}, "ekf": {"attitude": {"roll": -0.029026802629232407, "pitch": -0.020088452845811844, "yaw": -1.9749901294708252}, "local_position": {"x": 2.5206072330474854, "y": 2.136995792388916, "z": -4.038292407989502}, "status": {"flags": 831, "velocity_variance": 0.03768851235508919, "pos_horiz_variance": 0.0186453927308321, "pos_vert_variance": 0.018819225952029228}}, "errors": []}
{"timestamp": "2026-01-29T13:23:27.953893Z", "telemetry": {"lat": 13.3543187, "lon": 74.8647698, "satellites": 11, "altitude_gps_m": 40.30999755859375, "groundspeed_mps": 0.21479734778404236}, "flight": {"mode": "LOITER", "armed": true}, "ekf": {"attitude": {"roll": -0.035593342036008835, "pitch": -0.036499835550785065, "yaw": -1.564797282218933}, "local_position": {"x": 2.498213291168213, "y": 2.197563409805298, "z": -4.068743705749512}, "status": {"flags": 831, "velocity_variance": 0.05788682401180267, "pos_horiz_variance": 0.010696450248360634, "pos_vert_variance": 0.020066305994987488}}, "errors": []}
{"timestamp": "2026-01-29T13:23:28.953990Z", "telemetry": {"lat": 13.3543182, "lon": 74.8647704, "satellites": 11, "altitude_gps_m": 40.29999923706055, "groundspeed_mps": 0.22142471373081207}, "flight": {"mode": "LOITER", "armed": true}, "ekf": {"attitude": {"roll": -0.04345978423953056, "pitch": -0.030339475721120834, "yaw": -1.0645933151245117}, "local_position": {"x": 2.4640374183654785, "y": 2.2651591300964355, "z": -4.05308198928833}, "status": {"flags": 831, "velocity_variance": 0.050164248794317245, "pos_horiz_variance": 0.00855165719985962, "pos_vert_variance": 0.026537403464317322}}, "errors": []}
{"timestamp": "2026-01-29T13:23:29.954420Z", "telemetry": {"lat": 13.354317, "lon": 74.8647702, "satellites": 11, "altitude_gps_m": 40.29999923706055, "groundspeed_mps": 0.18973451852798462}, "flight": {"mode": "LOITER", "armed": true}, "ekf": {"attitude": {"roll": -0.03485238179564476, "pitch": -0.027297429740428925, "yaw": -0.035050034523010254}, "local_position": {"x": 2.334138870239258, "y": 2.267598867416382, "z": -4.053945064544678}, "status": {"flags": 831, "velocity_variance": 0.09138975292444229, "pos_horiz_variance": 0.009249838069081306, "pos_vert_variance": 0.02994963340461254}}, "errors": []}
{"timestamp": "2026-01-29T13:23:30.954756Z", "telemetry": {"lat": 13.3543152, "lon": 74.8647703, "satellites": 11, "altitude_gps_m": 40.27000045776367, "groundspeed_mps": 0.14740358293056488}, "flight": {"mode": "LOITER", "armed": true}, "ekf": {"attitude": {"roll": -0.02816351316869259, "pitch": -0.021362803876399994, "yaw": 0.6074293255805969}, "local_position": {"x": 2.223452568054199, "y": 2.202699661254883, "z": -4.034282684326172}, "status": {"flags": 831, "velocity_variance": 0.10199861228466034, "pos_horiz_variance": 0.0035831097047775984, "pos_vert_variance": 0.02905929833650589}}, "errors": []}
{"timestamp": "2026-01-29T13:23:31.954834Z", "telemetry": {"lat": 13.3543143, "lon": 74.8647704, "satellites": 11, "altitude_gps_m": 40.290000915527344, "groundspeed_mps": 0.12145260721445084}, "flight": {"mode": "LOITER", "armed": true}, "ekf": {"attitude": {"roll": -0.03121452033519745, "pitch": -0.021105293184518814, "yaw": 1.2346346378326416}, "local_position": {"x": 2.1707100868225098, "y": 2.119292974472046, "z": -4.0415940284729}, "status": {"flags": 831, "velocity_variance": 0.05194087326526642, "pos_horiz_variance": 0.007311653345823288, "pos_vert_variance": 0.019794458523392677}}, "errors": []}
{"timestamp": "2026-01-29T13:23:32.955365Z", "telemetry": {"lat": 13.3543148, "lon": 74.8647701, "satellites": 11, "altitude_gps_m": 40.349998474121094, "groundspeed_mps": 0.14610280096530914}, "flight": {"mode": "LOITER", "armed": true}, "ekf": {"attitude": {"roll": -0.027732739225029945, "pitch": -0.021122552454471588, "yaw": 1.8539053201675415}, "local_position": {"x": 2.1893234252929688, "y": 2.0952348709106445, "z": -4.090841770172119}, "status": {"flags": 831, "velocity_variance": 0.05113678798079491, "pos_horiz_variance": 0.009106867015361786, "pos_vert_variance": 0.0125998854637146}}, "errors": []}
{"timestamp": "2026-01-29T13:23:33.955912Z", "telemetry": {"lat": 13.3543171, "lon": 74.8647689, "satellites": 11, "altitude_gps_m": 40.36000061035156, "groundspeed_mps": 0.10641168802976608}, "flight": {"mode": "LOITER", "armed": true}, "ekf": {"attitude": {"roll": -0.019782716408371925, "pitch": -0.03382333740592003, "yaw": 2.49959659576416}, "local_position": {"x": 2.3415260314941406, "y": 2.0305750370025635, "z": -4.121099472045898}, "status": {"flags": 831, "velocity_variance": 0.016039395704865456, "pos_horiz_variance": 0.012298394925892353, "pos_vert_variance": 0.01635194942355156}}, "errors": []}
{"timestamp": "2026-01-29T13:23:34.955676Z", "telemetry": {"lat": 13.3543185, "lon": 74.8647678, "satellites": 11, "altitude_gps_m": 40.349998474121094, "groundspeed_mps": 0.08520679175853729}, "flight": {"mode": "LOITER", "armed": true}, "ekf": {"attitude": {"roll": -0.023046551272273064, "pitch": -0.03678007051348686, "yaw": 3.004183292388916}, "local_position": {"x": 2.4617815017700195, "y": 1.9939626455307007, "z": -4.101489543914795}, "status": {"flags": 831, "velocity_variance": 0.05846766382455826, "pos_horiz_variance": 0.013661936856806278, "pos_vert_variance": 0.017597053200006485}}, "errors": []}
{"timestamp": "2026-01-29T13:23:35.954046Z", "telemetry": {"lat": 13.3543198, "lon": 74.8647676, "satellites": 11, "altitude_gps_m": 40.34000015258789, "groundspeed_mps": 0.16417063772678375}, "flight": {"mode": "LOITER", "armed": true}, "ekf": {"attitude": {"roll": -0.03616464510560036, "pitch": -0.045292049646377563, "yaw": -2.5889132022857666}, "local_position": {"x": 2.5670487880706787, "y": 2.011890411376953, "z": -4.09827995300293}, "status": {"flags": 831, "velocity_variance": 0.04643499106168747, "pos_horiz_variance": 0.01571827568113804, "pos_vert_variance": 0.018421409651637077}}, "errors": []}
{"timestamp": "2026-01-29T13:23:36.951688Z", "telemetry": {"lat": 13.3543204, "lon": 74.8647688, "satellites": 11, "altitude_gps_m": 40.36000061035156, "groundspeed_mps": 0.22457122802734375}, "flight": {"mode": "LOITER", "armed": true}, "ekf": {"attitude": {"roll": -0.03515893965959549, "pitch": -0.04934222251176834, "yaw": -1.9878149032592773}, "local_position": {"x": 2.590312957763672, "y": 2.1659107208251953, "z": -4.1147003173828125}, "status": {"flags": 831, "velocity_variance": 0.04164058715105057, "pos_horiz_variance": 0.016844574362039566, "pos_vert_variance": 0.010022507049143314}}, "errors": []}
{"timestamp": "2026-01-29T13:23:37.949803Z", "telemetry": {"lat": 13.3543185, "lon": 74.8647699, "satellites": 11, "altitude_gps_m": 40.38999938964844, "groundspeed_mps": 0.24953331053256989}, "flight": {"mode": "LOITER", "armed": true}, "ekf": {"attitude": {"roll": -0.03053656406700611, "pitch": -0.0448116697371006, "yaw": -1.3440464735031128}, "local_position": {"x": 2.4730417728424072, "y": 2.25962233543396, "z": -4.148293972015381}, "status": {"flags": 831, "velocity_variance": 0.035619016736745834, "pos_horiz_variance": 0.008830664679408073, "pos_vert_variance": 0.0070945327170193195}}, "errors": []}
{"timestamp": "2026-01-29T13:23:38.948013Z", "telemetry": {"lat": 13.3543163, "lon": 74.8647694, "satellites": 11, "altitude_gps_m": 40.36000061035156, "groundspeed_mps": 0.19376875460147858}, "flight": {"mode": "LOITER", "armed": true}, "ekf": {"attitude": {"roll": -0.032525379210710526, "pitch": -0.03023521974682808, "yaw": -0.6962186098098755}, "local_position": {"x": 2.326416254043579, "y": 2.2494826316833496, "z": -4.114011287689209}, "status": {"flags": 831, "velocity_variance": 0.09017601609230042, "pos_horiz_variance": 0.00754138408228755, "pos_vert_variance": 0.007779761217534542}}, "errors": []}
{"timestamp": "2026-01-29T13:23:39.946205Z", "telemetry": {"lat": 13.3543147, "lon": 74.8647696, "satellites": 11, "altitude_gps_m": 40.36000061035156, "groundspeed_mps": 0.16101084649562836}, "flight": {"mode": "ALT_HOLD", "armed": true}, "ekf": {"attitude": {"roll": 0.00020457524806261063, "pitch": -0.010585945099592209, "yaw": 0.10328812897205353}, "local_position": {"x": 2.177781343460083, "y": 2.233182430267334, "z": -4.110116004943848}, "status": {"flags": 831, "velocity_variance": 0.03332570940256119, "pos_horiz_variance": 0.0065807984210550785, "pos_vert_variance": 0.00501385098323226}}, "errors": []}
{"timestamp": "2026-01-29T13:23:40.944367Z", "telemetry": {"lat": 13.3543127, "lon": 74.8647707, "satellites": 11, "altitude_gps_m": 40.36000061035156, "groundspeed_mps": 0.23730044066905975}, "flight": {"mode": "LOITER", "armed": true}, "ekf": {"attitude": {"roll": -0.05429229140281677, "pitch": -0.028907200321555138, "yaw": 0.5725541114807129}, "local_position": {"x": 1.9645973443984985, "y": 2.3814163208007812, "z": -4.111070156097412}, "status": {"flags": 831, "velocity_variance": 0.127217099070549, "pos_horiz_variance": 0.0027098646387457848, "pos_vert_variance": 0.0033466580789536238}}, "errors": []}
{"timestamp": "2026-01-29T13:23:41.942547Z", "telemetry": {"lat": 13.3543108, "lon": 74.8647719, "satellites": 11, "altitude_gps_m": 40.41999816894531, "groundspeed_mps": 0.08437704294919968}, "flight": {"mode": "STABILIZE", "armed": true}, "ekf": {"attitude": {"roll": -0.03658027574419975, "pitch": -0.012277401983737946, "yaw": 1.2091317176818848}, "local_position": {"x": 1.8249664306640625, "y": 2.4438600540161133, "z": -4.173597812652588}, "status": {"flags": 831, "velocity_variance": 0.04279956594109535, "pos_horiz_variance": 0.005681580863893032, "pos_vert_variance": 0.020631203427910805}}, "errors": []}
{"timestamp": "2026-01-29T13:23:42.940667Z", "telemetry": {"lat": 13.3543093, "lon": 74.864772, "satellites": 11, "altitude_gps_m": 40.5099983215332, "groundspeed_mps": 0.21936020255088806}, "flight": {"mode": "STABILIZE", "armed": true}, "ekf": {"attitude": {"roll": -0.007181162945926189, "pitch": -0.00047089532017707825, "yaw": 2.0001778602600098}, "local_position": {"x": 1.6831278800964355, "y": 2.3661599159240723, "z": -4.265017509460449}, "status": {"flags": 831, "velocity_variance": 0.043710846453905106, "pos_horiz_variance": 0.007562366779893637, "pos_vert_variance": 0.022434426471590996}}, "errors": []}
{"timestamp": "2026-01-29T13:23:43.940087Z", "telemetry": {"lat": 13.3543075, "lon": 74.8647709, "satellites": 11, "altitude_gps_m": 40.57999801635742, "groundspeed_mps": 0.3160313367843628}, "flight": {"mode": "STABILIZE", "armed": true}, "ekf": {"attitude": {"roll": -0.005472251679748297, "pitch": 0.001031782478094101, "yaw": 2.3056468963623047}, "local_position": {"x": 1.5197697877883911, "y": 2.2127480506896973, "z": -4.336928367614746}, "status": {"flags": 831, "velocity_variance": 0.0458342470228672, "pos_horiz_variance": 0.00999323558062315, "pos_vert_variance": 0.02400023303925991}}, "errors": []}
{"timestamp": "2026-01-29T13:23:44.957206Z", "telemetry": {"lat": 13.3543075, "lon": 74.8647709, "satellites": 11, "altitude_gps_m": 40.57999801635742, "groundspeed_mps": 0.3160313367843628}, "flight": {"mode": "STABILIZE", "armed": true}, "ekf": {"attitude": {"roll": -0.005472251679748297, "pitch": 0.001031782478094101, "yaw": 2.3056468963623047}, "local_position": {"x": 1.5197697877883911, "y": 2.2127480506896973, "z": -4.336928367614746}, "status": {"flags": 831, "velocity_variance": 0.0458342470228672, "pos_horiz_variance": 0.00999323558062315, "pos_vert_variance": 0.02400023303925991}}, "errors": []}
{"timestamp": "2026-01-29T13:23:45.955602Z", "telemetry": {"lat": 13.3543075, "lon": 74.8647709, "satellites": 11, "altitude_gps_m": 40.57999801635742, "groundspeed_mps": 0.3160313367843628}, "flight": {"mode": "STABILIZE", "armed": true}, "ekf": {"attitude": {"roll": -0.005472251679748297, "pitch": 0.001031782478094101, "yaw": 2.3056468963623047}, "local_position": {"x": 1.5197697877883911, "y": 2.2127480506896973, "z": -4.336928367614746}, "status": {"flags": 831, "velocity_variance": 0.0458342470228672, "pos_horiz_variance": 0.00999323558062315, "pos_vert_variance": 0.02400023303925991}}, "errors": []}
{"timestamp": "2026-01-29T13:23:46.953918Z", "telemetry": {"lat": 13.3543075, "lon": 74.8647709, "satellites": 11, "altitude_gps_m": 40.57999801635742, "groundspeed_mps": 0.3160313367843628}, "flight": {"mode": "STABILIZE", "armed": true}, "ekf": {"attitude": {"roll": -0.005472251679748297, "pitch": 0.001031782478094101, "yaw": 2.3056468963623047}, "local_position": {"x": 1.5197697877883911, "y": 2.2127480506896973, "z": -4.336928367614746}, "status": {"flags": 831, "velocity_variance": 0.0458342470228672, "pos_horiz_variance": 0.00999323558062315, "pos_vert_variance": 0.02400023303925991}}, "errors": []}
{"timestamp": "2026-01-29T13:23:47.952234Z", "telemetry": {"lat": 13.3543075, "lon": 74.8647709, "satellites": 11, "altitude_gps_m": 40.57999801635742, "groundspeed_mps": 0.3160313367843628}, "flight": {"mode": "STABILIZE", "armed": true}, "ekf": {"attitude": {"roll": -0.005472251679748297, "pitch": 0.001031782478094101, "yaw": 2.3056468963623047}, "local_position": {"x": 1.5197697877883911, "y": 2.2127480506896973, "z": -4.336928367614746}, "status": {"flags": 831, "velocity_variance": 0.0458342470228672, "pos_horiz_variance": 0.00999323558062315, "pos_vert_variance": 0.02400023303925991}}, "errors": []}
{"timestamp": "2026-01-29T13:23:48.950682Z", "telemetry": {"lat": 13.3543075, "lon": 74.8647709, "satellites": 11, "altitude_gps_m": 40.57999801635742, "groundspeed_mps": 0.3160313367843628}, "flight": {"mode": "STABILIZE", "armed": true}, "ekf": {"attitude": {"roll": -0.005472251679748297, "pitch": 0.001031782478094101, "yaw": 2.3056468963623047}, "local_position": {"x": 1.5197697877883911, "y": 2.2127480506896973, "z": -4.336928367614746}, "status": {"flags": 831, "velocity_variance": 0.0458342470228672, "pos_horiz_variance": 0.00999323558062315, "pos_vert_variance": 0.02400023303925991}}, "errors": []}
{"timestamp": "2026-01-29T13:23:49.948853Z", "telemetry": {"lat": 13.3543075, "lon": 74.8647709, "satellites": 11, "altitude_gps_m": 40.57999801635742, "groundspeed_mps": 0.3160313367843628}, "flight": {"mode": "STABILIZE", "armed": true}, "ekf": {"attitude": {"roll": -0.005472251679748297, "pitch": 0.001031782478094101, "yaw": 2.3056468963623047}, "local_position": {"x": 1.5197697877883911, "y": 2.2127480506896973, "z": -4.336928367614746}, "status": {"flags": 831, "velocity_variance": 0.0458342470228672, "pos_horiz_variance": 0.00999323558062315, "pos_vert_variance": 0.02400023303925991}}, "errors": []}
{"timestamp": "2026-01-29T13:23:50.947445Z", "telemetry": {"lat": 13.3543075, "lon": 74.8647709, "satellites": 11, "altitude_gps_m": 40.57999801635742, "groundspeed_mps": 0.3160313367843628}, "flight": {"mode": "STABILIZE", "armed": true}, "ekf": {"attitude": {"roll": -0.005472251679748297, "pitch": 0.001031782478094101, "yaw": 2.3056468963623047}, "local_position": {"x": 1.5197697877883911, "y": 2.2127480506896973, "z": -4.336928367614746}, "status": {"flags": 831, "velocity_variance": 0.0458342470228672, "pos_horiz_variance": 0.00999323558062315, "pos_vert_variance": 0.02400023303925991}}, "errors": []}
{"timestamp": "2026-01-29T13:23:51.945927Z", "telemetry": {"lat": 13.3543075, "lon": 74.8647709, "satellites": 11, "altitude_gps_m": 40.57999801635742, "groundspeed_mps": 0.3160313367843628}, "flight": {"mode": "STABILIZE", "armed": true}, "ekf": {"attitude": {"roll": -0.005472251679748297, "pitch": 0.001031782478094101, "yaw": 2.3056468963623047}, "local_position": {"x": 1.5197697877883911, "y": 2.2127480506896973, "z": -4.336928367614746}, "status": {"flags": 831, "velocity_variance": 0.0458342470228672, "pos_horiz_variance": 0.00999323558062315, "pos_vert_variance": 0.02400023303925991}}, "errors": []}
{"timestamp": "2026-01-29T13:23:52.944349Z", "telemetry": {"lat": 13.3543075, "lon": 74.8647709, "satellites": 11, "altitude_gps_m": 40.57999801635742, "groundspeed_mps": 0.3160313367843628}, "flight": {"mode": "STABILIZE", "armed": true}, "ekf": {"attitude": {"roll": -0.005472251679748297, "pitch": 0.001031782478094101, "yaw": 2.3056468963623047}, "local_position": {"x": 1.5197697877883911, "y": 2.2127480506896973, "z": -4.336928367614746}, "status": {"flags": 831, "velocity_variance": 0.0458342470228672, "pos_horiz_variance": 0.00999323558062315, "pos_vert_variance": 0.02400023303925991}}, "errors": []}
{"timestamp": "2026-01-29T13:23:53.943010Z", "telemetry": {"lat": 13.3543228, "lon": 74.8647579, "satellites": 11, "altitude_gps_m": 40.02000045776367, "groundspeed_mps": 0.3936631381511688}, "flight": {"mode": "LOITER", "armed": true}, "ekf": {"attitude": {"roll": 0.1747233271598816, "pitch": 0.011629167944192886, "yaw": 0.7020866274833679}, "local_position": {"x": 3.268186330795288, "y": 1.1304457187652588, "z": -3.771618604660034}, "status": {"flags": 831, "velocity_variance": 0.05616680160164833, "pos_horiz_variance": 0.01316095795482397, "pos_vert_variance": 0.027262026444077492}}, "errors": []}
{"timestamp": "2026-01-29T13:23:54.941609Z", "telemetry": {"lat": 13.3543236, "lon": 74.8647615, "satellites": 11, "altitude_gps_m": 39.939998626708984, "groundspeed_mps": 0.4443359076976776}, "flight": {"mode": "LOITER", "armed": true}, "ekf": {"attitude": {"roll": 0.21308612823486328, "pitch": 0.03406987711787224, "yaw": 1.0197330713272095}, "local_position": {"x": 3.2665700912475586, "y": 1.457019329071045, "z": -3.6991422176361084}, "status": {"flags": 831, "velocity_variance": 0.10426200181245804, "pos_horiz_variance": 0.00813465565443039, "pos_vert_variance": 0.02993040718138218}}, "errors": []}
{"timestamp": "2026-01-29T13:23:55.940063Z", "telemetry": {"lat": 13.3543231, "lon": 74.8647651, "satellites": 11, "altitude_gps_m": 39.869998931884766, "groundspeed_mps": 0.3650475740432739}, "flight": {"mode": "LOITER", "armed": true}, "ekf": {"attitude": {"roll": 0.1697203516960144, "pitch": 0.04501575604081154, "yaw": 1.0415983200073242}, "local_position": {"x": 3.3382461071014404, "y": 1.7347018718719482, "z": -3.620835542678833}, "status": {"flags": 831, "velocity_variance": 0.13357333838939667, "pos_horiz_variance": 0.008713077753782272, "pos_vert_variance": 0.02031477354466915}}, "errors": []}
{"timestamp": "2026-01-29T13:23:56.896771Z", "telemetry": {"lat": 13.354325, "lon": 74.8647673, "satellites": 11, "altitude_gps_m": 39.89999771118164, "groundspeed_mps": 0.16010192036628723}, "flight": {"mode": "LOITER", "armed": true}, "ekf": {"attitude": {"roll": 0.15735383331775665, "pitch": -0.004537720233201981, "yaw": 0.9822397828102112}, "local_position": {"x": 3.4189562797546387, "y": 1.8720380067825317, "z": -3.629887342453003}, "status": {"flags": 831, "velocity_variance": 0.05812752991914749, "pos_horiz_variance": 0.007071558851748705, "pos_vert_variance": 0.009609458036720753}}, "errors": []}
{"timestamp": "2026-01-29T13:23:57.896746Z", "telemetry": {"lat": 13.354325, "lon": 74.8647673, "satellites": 11, "altitude_gps_m": 39.89999771118164, "groundspeed_mps": 0.16010192036628723}, "flight": {"mode": "LOITER", "armed": true}, "ekf": {"attitude": {"roll": 0.15735383331775665, "pitch": -0.004537720233201981, "yaw": 0.9822397828102112}, "local_position": {"x": 3.4189562797546387, "y": 1.8720380067825317, "z": -3.629887342453003}, "status": {"flags": 831, "velocity_variance": 0.05812752991914749, "pos_horiz_variance": 0.007071558851748705, "pos_vert_variance": 0.009609458036720753}}, "errors": []}
{"timestamp": "2026-01-29T13:23:58.896355Z", "telemetry": {"lat": 13.354325, "lon": 74.8647673, "satellites": 11, "altitude_gps_m": 39.89999771118164, "groundspeed_mps": 0.16010192036628723}, "flight": {"mode": "LOITER", "armed": true}, "ekf": {"attitude": {"roll": 0.15735383331775665, "pitch": -0.004537720233201981, "yaw": 0.9822397828102112}, "local_position": {"x": 3.4189562797546387, "y": 1.8720380067825317, "z": -3.629887342453003}, "status": {"flags": 831, "velocity_variance": 0.05812752991914749, "pos_horiz_variance": 0.007071558851748705, "pos_vert_variance": 0.009609458036720753}}, "errors": []}
{"timestamp": "2026-01-29T13:23:59.896575Z", "telemetry": {"lat": 13.354325, "lon": 74.8647673, "satellites": 11, "altitude_gps_m": 39.89999771118164, "groundspeed_mps": 0.16010192036628723}, "flight": {"mode": "LOITER", "armed": true}, "ekf": {"attitude": {"roll": 0.15735383331775665, "pitch": -0.004537720233201981, "yaw": 0.9822397828102112}, "local_position": {"x": 3.4189562797546387, "y": 1.8720380067825317, "z": -3.629887342453003}, "status": {"flags": 831, "velocity_variance": 0.05812752991914749, "pos_horiz_variance": 0.007071558851748705, "pos_vert_variance": 0.009609458036720753}}, "errors": []}
{"timestamp": "2026-01-29T13:24:00.896222Z", "telemetry": {"lat": 13.354325, "lon": 74.8647673, "satellites": 11, "altitude_gps_m": 39.89999771118164, "groundspeed_mps": 0.16010192036628723}, "flight": {"mode": "LOITER", "armed": true}, "ekf": {"attitude": {"roll": 0.15735383331775665, "pitch": -0.004537720233201981, "yaw": 0.9822397828102112}, "local_position": {"x": 3.4189562797546387, "y": 1.8720380067825317, "z": -3.629887342453003}, "status": {"flags": 831, "velocity_variance": 0.05812752991914749, "pos_horiz_variance": 0.007071558851748705, "pos_vert_variance": 0.009609458036720753}}, "errors": []}
{"timestamp": "2026-01-29T13:24:01.896185Z", "telemetry": {"lat": 13.354325, "lon": 74.8647673, "satellites": 11, "altitude_gps_m": 39.89999771118164, "groundspeed_mps": 0.16010192036628723}, "flight": {"mode": "LOITER", "armed": true}, "ekf": {"attitude": {"roll": 0.15735383331775665, "pitch": -0.004537720233201981, "yaw": 0.9822397828102112}, "local_position": {"x": 3.4189562797546387, "y": 1.8720380067825317, "z": -3.629887342453003}, "status": {"flags": 831, "velocity_variance": 0.05812752991914749, "pos_horiz_variance": 0.007071558851748705, "pos_vert_variance": 0.009609458036720753}}, "errors": []}
{"timestamp": "2026-01-29T13:24:02.896360Z", "telemetry": {"lat": 13.354325, "lon": 74.8647673, "satellites": 11, "altitude_gps_m": 39.89999771118164, "groundspeed_mps": 0.16010192036628723}, "flight": {"mode": "LOITER", "armed": true}, "ekf": {"attitude": {"roll": 0.15735383331775665, "pitch": -0.004537720233201981, "yaw": 0.9822397828102112}, "local_position": {"x": 3.4189562797546387, "y": 1.8720380067825317, "z": -3.629887342453003}, "status": {"flags": 831, "velocity_variance": 0.05812752991914749, "pos_horiz_variance": 0.007071558851748705, "pos_vert_variance": 0.009609458036720753}}, "errors": []}
{"timestamp": "2026-01-29T13:24:03.896536Z", "telemetry": {"lat": 13.354325, "lon": 74.8647673, "satellites": 11, "altitude_gps_m": 39.89999771118164, "groundspeed_mps": 0.16010192036628723}, "flight": {"mode": "LOITER", "armed": true}, "ekf": {"attitude": {"roll": 0.15735383331775665, "pitch": -0.004537720233201981, "yaw": 0.9822397828102112}, "local_position": {"x": 3.4189562797546387, "y": 1.8720380067825317, "z": -3.629887342453003}, "status": {"flags": 831, "velocity_variance": 0.05812752991914749, "pos_horiz_variance": 0.007071558851748705, "pos_vert_variance": 0.009609458036720753}}, "errors": []}
{"timestamp": "2026-01-29T13:24:04.896189Z", "telemetry": {"lat": 13.354325, "lon": 74.8647673, "satellites": 11, "altitude_gps_m": 39.89999771118164, "groundspeed_mps": 0.16010192036628723}, "flight": {"mode": "LOITER", "armed": true}, "ekf": {"attitude": {"roll": 0.15735383331775665, "pitch": -0.004537720233201981, "yaw": 0.9822397828102112}, "local_position": {"x": 3.4189562797546387, "y": 1.8720380067825317, "z": -3.629887342453003}, "status": {"flags": 831, "velocity_variance": 0.05812752991914749, "pos_horiz_variance": 0.007071558851748705, "pos_vert_variance": 0.009609458036720753}}, "errors": []}
{"timestamp": "2026-01-29T13:24:05.896067Z", "telemetry": {"lat": 13.354325, "lon": 74.8647673, "satellites": 11, "altitude_gps_m": 39.89999771118164, "groundspeed_mps": 0.16010192036628723}, "flight": {"mode": "LOITER", "armed": true}, "ekf": {"attitude": {"roll": 0.15735383331775665, "pitch": -0.004537720233201981, "yaw": 0.9822397828102112}, "local_position": {"x": 3.4189562797546387, "y": 1.8720380067825317, "z": -3.629887342453003}, "status": {"flags": 831, "velocity_variance": 0.05812752991914749, "pos_horiz_variance": 0.007071558851748705, "pos_vert_variance": 0.009609458036720753}}, "errors": []}
{"timestamp": "2026-01-29T13:24:06.895909Z", "telemetry": {"lat": 13.354325, "lon": 74.8647673, "satellites": 11, "altitude_gps_m": 39.89999771118164, "groundspeed_mps": 0.16010192036628723}, "flight": {"mode": "LOITER", "armed": true}, "ekf": {"attitude": {"roll": 0.15735383331775665, "pitch": -0.004537720233201981, "yaw": 0.9822397828102112}, "local_position": {"x": 3.4189562797546387, "y": 1.8720380067825317, "z": -3.629887342453003}, "status": {"flags": 831, "velocity_variance": 0.05812752991914749, "pos_horiz_variance": 0.007071558851748705, "pos_vert_variance": 0.009609458036720753}}, "errors": []}
{"timestamp": "2026-01-29T13:24:07.896155Z", "telemetry": {"lat": 13.354325, "lon": 74.8647673, "satellites": 11, "altitude_gps_m": 39.89999771118164, "groundspeed_mps": 0.16010192036628723}, "flight": {"mode": "LOITER", "armed": true}, "ekf": {"attitude": {"roll": 0.15735383331775665, "pitch": -0.004537720233201981, "yaw": 0.9822397828102112}, "local_position": {"x": 3.4189562797546387, "y": 1.8720380067825317, "z": -3.629887342453003}, "status": {"flags": 831, "velocity_variance": 0.05812752991914749, "pos_horiz_variance": 0.007071558851748705, "pos_vert_variance": 0.009609458036720753}}, "errors": []}
{"timestamp": "2026-01-29T13:24:08.896751Z", "telemetry": {"lat": 13.354325, "lon": 74.8647673, "satellites": 11, "altitude_gps_m": 39.89999771118164, "groundspeed_mps": 0.16010192036628723}, "flight": {"mode": "LOITER", "armed": true}, "ekf": {"attitude": {"roll": 0.15735383331775665, "pitch": -0.004537720233201981, "yaw": 0.9822397828102112}, "local_position": {"x": 3.4189562797546387, "y": 1.8720380067825317, "z": -3.629887342453003}, "status": {"flags": 831, "velocity_variance": 0.05812752991914749, "pos_horiz_variance": 0.007071558851748705, "pos_vert_variance": 0.009609458036720753}}, "errors": []}
{"timestamp": "2026-01-29T13:24:09.895777Z", "telemetry": {"lat": 13.354325, "lon": 74.8647673, "satellites": 11, "altitude_gps_m": 39.89999771118164, "groundspeed_mps": 0.16010192036628723}, "flight": {"mode": "LOITER", "armed": true}, "ekf": {"attitude": {"roll": 0.15735383331775665, "pitch": -0.004537720233201981, "yaw": 0.9822397828102112}, "local_position": {"x": 3.4189562797546387, "y": 1.8720380067825317, "z": -3.629887342453003}, "status": {"flags": 831, "velocity_variance": 0.05812752991914749, "pos_horiz_variance": 0.007071558851748705, "pos_vert_variance": 0.009609458036720753}}, "errors": []}
{"timestamp": "2026-01-29T13:24:10.896688Z", "telemetry": {"lat": 13.354325, "lon": 74.8647673, "satellites": 11, "altitude_gps_m": 39.89999771118164, "groundspeed_mps": 0.16010192036628723}, "flight": {"mode": "LOITER", "armed": true}, "ekf": {"attitude": {"roll": 0.15735383331775665, "pitch": -0.004537720233201981, "yaw": 0.9822397828102112}, "local_position": {"x": 3.4189562797546387, "y": 1.8720380067825317, "z": -3.629887342453003}, "status": {"flags": 831, "velocity_variance": 0.05812752991914749, "pos_horiz_variance": 0.007071558851748705, "pos_vert_variance": 0.009609458036720753}}, "errors": []}
