{"timestamp": "2026-01-31T12:19:37.747863Z", "telemetry": {"lat": 0.0, "lon": 0.0, "satellites": 0, "altitude_gps_m": -0.3400000035762787, "groundspeed_mps": 0.031449008733034134}, "flight": {"mode": "STABILIZE", "armed": false}, "ekf": {"attitude": {"roll": -0.024003751575946808, "pitch": 0.0028596147894859314, "yaw": -0.22419880330562592}, "local_position": {"x": null, "y": null, "z": null}, "status": {"flags": 135, "velocity_variance": 0.0, "pos_horiz_variance": 0.007713633589446545, "pos_vert_variance": 0.07605309784412384}}, "errors": []}
{"timestamp": "2026-01-31T12:19:38.797975Z", "telemetry": {"lat": 0.0, "lon": 0.0, "satellites": 0, "altitude_gps_m": -0.3400000035762787, "groundspeed_mps": 0.031200923025608063}, "flight": {"mode": "STABILIZE", "armed": false}, "ekf": {"attitude": {"roll": -0.023924320936203003, "pitch": 0.0027508847415447235, "yaw": -0.22424641251564026}, "local_position": {"x": null, "y": null, "z": null}, "status": {"flags": 135, "velocity_variance": 0.0, "pos_horiz_variance": 0.007742175832390785, "pos_vert_variance": 0.019684726372361183}}, "errors": []}
{"timestamp": "2026-01-31T12:19:39.847072Z", "telemetry": {"lat": 0.0, "lon": 0.0, "satellites": 0, "altitude_gps_m": -0.3400000035762787, "groundspeed_mps": 0.029997797682881355}, "flight": {"mode": "STABILIZE", "armed": false}, "ekf": {"attitude": {"roll": -0.023900628089904785, "pitch": 0.0027593672275543213, "yaw": -0.22435036301612854}, "local_position": {"x": null, "y": null, "z": null}, "status": {"flags": 135, "velocity_variance": 0.0, "pos_horiz_variance": 0.0077118463814258575, "pos_vert_variance": 0.018776748329401016}}, "errors": []}
{"timestamp": "2026-01-31T12:19:40.897146Z", "telemetry": {"lat": 0.0, "lon": 0.0, "satellites": 0, "altitude_gps_m": -0.3400000035762787, "groundspeed_mps": 0.029716862365603447}, "flight": {"mode": "STABILIZE", "armed": false}, "ekf": {"attitude": {"roll": -0.023814834654331207, "pitch": 0.0027316249907016754, "yaw": -0.22427216172218323}, "local_position": {"x": null, "y": null, "z": null}, "status": {"flags": 135, "velocity_variance": 0.0, "pos_horiz_variance": 0.007532843854278326, "pos_vert_variance": 0.005826730281114578}}, "errors": []}
{"timestamp": "2026-01-31T12:19:41.946140Z", "telemetry": {"lat": 0.0, "lon": 0.0, "satellites": 0, "altitude_gps_m": -0.3400000035762787, "groundspeed_mps": 0.03215271607041359}, "flight": {"mode": "STABILIZE", "armed": false}, "ekf": {"attitude": {"roll": -0.023810969665646553, "pitch": 0.0026167631149291992, "yaw": -0.22429172694683075}, "local_position": {"x": null, "y": null, "z": null}, "status": {"flags": 135, "velocity_variance": 0.0, "pos_horiz_variance": 0.0075534009374678135, "pos_vert_variance": 0.038772620260715485}}, "errors": []}
{"timestamp": "2026-01-31T12:19:42.946684Z", "telemetry": {"lat": 0.0, "lon": 0.0, "satellites": 0, "altitude_gps_m": -0.3400000035762787, "groundspeed_mps": 0.030781855806708336}, "flight": {"mode": "STABILIZE", "armed": false}, "ekf": {"attitude": {"roll": -0.02378253825008869, "pitch": 0.002590727061033249, "yaw": -0.22442083060741425}, "local_position": {"x": null, "y": null, "z": null}, "status": {"flags": 135, "velocity_variance": 0.0, "pos_horiz_variance": 0.007586931809782982, "pos_vert_variance": 0.0028259148821234703}}, "errors": []}
{"timestamp": "2026-01-31T12:19:43.946375Z", "telemetry": {"lat": 0.0, "lon": 0.0, "satellites": 0, "altitude_gps_m": -0.3400000035762787, "groundspeed_mps": 0.033463094383478165}, "flight": {"mode": "STABILIZE", "armed": false}, "ekf": {"attitude": {"roll": -0.02383381873369217, "pitch": 0.002658579498529434, "yaw": -0.22426582872867584}, "local_position": {"x": null, "y": null, "z": null}, "status": {"flags": 135, "velocity_variance": 0.0, "pos_horiz_variance": 0.007806897163391113, "pos_vert_variance": 0.07282804697751999}}, "errors": []}
{"timestamp": "2026-01-31T12:19:44.946844Z", "telemetry": {"lat": 0.0, "lon": 0.0, "satellites": 0, "altitude_gps_m": -0.3400000035762787, "groundspeed_mps": 0.034677352756261826}, "flight": {"mode": "STABILIZE", "armed": false}, "ekf": {"attitude": {"roll": -0.023832270875573158, "pitch": 0.0025949478149414062, "yaw": -0.22426767647266388}, "local_position": {"x": null, "y": null, "z": null}, "status": {"flags": 135, "velocity_variance": 0.0, "pos_horiz_variance": 0.008183389902114868, "pos_vert_variance": 0.0008039364474825561}}, "errors": []}
{"timestamp": "2026-01-31T12:19:45.946239Z", "telemetry": {"lat": 0.0, "lon": 0.0, "satellites": 0, "altitude_gps_m": -0.3400000035762787, "groundspeed_mps": 0.0350157804787159}, "flight": {"mode": "STABILIZE", "armed": false}, "ekf": {"attitude": {"roll": -0.023814966902136803, "pitch": 0.0025089234113693237, "yaw": -0.2243272364139557}, "local_position": {"x": null, "y": null, "z": null}, "status": {"flags": 135, "velocity_variance": 0.0, "pos_horiz_variance": 0.008342595770955086, "pos_vert_variance": 0.06417720764875412}}, "errors": []}
{"timestamp": "2026-01-31T12:19:46.946604Z", "telemetry": {"lat": 0.0, "lon": 0.0, "satellites": 0, "altitude_gps_m": -0.3400000035762787, "groundspeed_mps": 0.03911425918340683}, "flight": {"mode": "STABILIZE", "armed": false}, "ekf": {"attitude": {"roll": -0.023776119574904442, "pitch": 0.0024103522300720215, "yaw": -0.22431738674640656}, "local_position": {"x": null, "y": null, "z": null}, "status": {"flags": 135, "velocity_variance": 0.0, "pos_horiz_variance": 0.008857126347720623, "pos_vert_variance": 0.0698365792632103}}, "errors": []}
{"timestamp": "2026-01-31T12:19:47.946154Z", "telemetry": {"lat": 0.0, "lon": 0.0, "satellites": 0, "altitude_gps_m": -0.3400000035762787, "groundspeed_mps": 0.03827926144003868}, "flight": {"mode": "STABILIZE", "armed": false}, "ekf": {"attitude": {"roll": -0.02376525290310383, "pitch": 0.0024952255189418793, "yaw": -0.22447499632835388}, "local_position": {"x": null, "y": null, "z": null}, "status": {"flags": 135, "velocity_variance": 0.0, "pos_horiz_variance": 0.00922213401645422, "pos_vert_variance": 0.06091134250164032}}, "errors": []}
{"timestamp": "2026-01-31T12:19:48.946555Z", "telemetry": {"lat": 0.0, "lon": 0.0, "satellites": 0, "altitude_gps_m": -0.3400000035762787, "groundspeed_mps": 0.03593745455145836}, "flight": {"mode": "STABILIZE", "armed": false}, "ekf": {"attitude": {"roll": -0.023723632097244263, "pitch": 0.0024900175631046295, "yaw": -0.22458207607269287}, "local_position": {"x": null, "y": null, "z": null}, "status": {"flags": 135, "velocity_variance": 0.0, "pos_horiz_variance": 0.009074073284864426, "pos_vert_variance": 0.0677495002746582}}, "errors": []}
{"timestamp": "2026-01-31T12:19:49.946252Z", "telemetry": {"lat": 0.0, "lon": 0.0, "satellites": 0, "altitude_gps_m": -0.3400000035762787, "groundspeed_mps": 0.032910361886024475}, "flight": {"mode": "STABILIZE", "armed": false}, "ekf": {"attitude": {"roll": -0.023626066744327545, "pitch": 0.0024851299822330475, "yaw": -0.22476768493652344}, "local_position": {"x": null, "y": null, "z": null}, "status": {"flags": 135, "velocity_variance": 0.0, "pos_horiz_variance": 0.008499088697135448, "pos_vert_variance": 0.04067074507474899}}, "errors": []}
{"timestamp": "2026-01-31T12:19:50.946299Z", "telemetry": {"lat": 0.0, "lon": 0.0, "satellites": 0, "altitude_gps_m": -0.3400000035762787, "groundspeed_mps": 0.03453660383820534}, "flight": {"mode": "STABILIZE", "armed": false}, "ekf": {"attitude": {"roll": -0.023482823744416237, "pitch": 0.002426646649837494, "yaw": -0.2246621698141098}, "local_position": {"x": null, "y": null, "z": null}, "status": {"flags": 135, "velocity_variance": 0.0, "pos_horiz_variance": 0.008272728882730007, "pos_vert_variance": 0.010668706148862839}}, "errors": []}
{"timestamp": "2026-01-31T12:19:51.946029Z", "telemetry": {"lat": 0.0, "lon": 0.0, "satellites": 0, "altitude_gps_m": -0.3400000035762787, "groundspeed_mps": 0.034106429666280746}, "flight": {"mode": "STABILIZE", "armed": false}, "ekf": {"attitude": {"roll": -0.023397905752062798, "pitch": 0.002470608800649643, "yaw": -0.22451981902122498}, "local_position": {"x": null, "y": null, "z": null}, "status": {"flags": 135, "velocity_variance": 0.0, "pos_horiz_variance": 0.008245955221354961, "pos_vert_variance": 0.0008252464467659593}}, "errors": []}
{"timestamp": "2026-01-31T12:19:52.946675Z", "telemetry": {"lat": 0.0, "lon": 0.0, "satellites": 0, "altitude_gps_m": -0.3400000035762787, "groundspeed_mps": 0.03435615077614784}, "flight": {"mode": "STABILIZE", "armed": false}, "ekf": {"attitude": {"roll": -0.02324214018881321, "pitch": 0.0025284849107265472, "yaw": -0.22461865842342377}, "local_position": {"x": null, "y": null, "z": null}, "status": {"flags": 135, "velocity_variance": 0.0, "pos_horiz_variance": 0.008291108533740044, "pos_vert_variance": 0.005794106516987085}}, "errors": []}
{"timestamp": "2026-01-31T12:19:53.946358Z", "telemetry": {"lat": 0.0, "lon": 0.0, "satellites": 0, "altitude_gps_m": -0.3400000035762787, "groundspeed_mps": 0.034449249505996704}, "flight": {"mode": "STABILIZE", "armed": false}, "ekf": {"attitude": {"roll": -0.023252004757523537, "pitch": 0.0025440752506256104, "yaw": -0.22465363144874573}, "local_position": {"x": null, "y": null, "z": null}, "status": {"flags": 135, "velocity_variance": 0.0, "pos_horiz_variance": 0.008401960134506226, "pos_vert_variance": 0.07700681686401367}}, "errors": []}
{"timestamp": "2026-01-31T12:19:54.946573Z", "telemetry": {"lat": 0.0, "lon": 0.0, "satellites": 0, "altitude_gps_m": -0.3400000035762787, "groundspeed_mps": 0.03288548067212105}, "flight": {"mode": "STABILIZE", "armed": false}, "ekf": {"attitude": {"roll": -0.023222191259264946, "pitch": 0.002631835639476776, "yaw": -0.22474396228790283}, "local_position": {"x": null, "y": null, "z": null}, "status": {"flags": 135, "velocity_variance": 0.0, "pos_horiz_variance": 0.008408349007368088, "pos_vert_variance": 0.04658367857336998}}, "errors": []}
{"timestamp": "2026-01-31T12:19:55.946346Z", "telemetry": {"lat": 0.0, "lon": 0.0, "satellites": 0, "altitude_gps_m": -0.3400000035762787, "groundspeed_mps": 0.02885853499174118}, "flight": {"mode": "STABILIZE", "armed": false}, "ekf": {"attitude": {"roll": -0.02311420440673828, "pitch": 0.002612549811601639, "yaw": -0.22475215792655945}, "local_position": {"x": null, "y": null, "z": null}, "status": {"flags": 135, "velocity_variance": 0.0, "pos_horiz_variance": 0.00790627021342516, "pos_vert_variance": 0.08139476925134659}}, "errors": []}
{"timestamp": "2026-01-31T12:19:56.946509Z", "telemetry": {"lat": 0.0, "lon": 0.0, "satellites": 0, "altitude_gps_m": -0.3400000035762787, "groundspeed_mps": 0.028524326160550117}, "flight": {"mode": "STABILIZE", "armed": false}, "ekf": {"attitude": {"roll": -0.023230483755469322, "pitch": 0.002527691423892975, "yaw": -0.22487083077430725}, "local_position": {"x": null, "y": null, "z": null}, "status": {"flags": 135, "velocity_variance": 0.0, "pos_horiz_variance": 0.007378825452178717, "pos_vert_variance": 0.027533171698451042}}, "errors": []}
{"timestamp": "2026-01-31T12:19:57.946499Z", "telemetry": {"lat": 0.0, "lon": 0.0, "satellites": 0, "altitude_gps_m": -0.3400000035762787, "groundspeed_mps": 0.030477600172162056}, "flight": {"mode": "STABILIZE", "armed": false}, "ekf": {"attitude": {"roll": -0.02330627851188183, "pitch": 0.0024970509111881256, "yaw": -0.22479161620140076}, "local_position": {"x": null, "y": null, "z": null}, "status": {"flags": 135, "velocity_variance": 0.0, "pos_horiz_variance": 0.007194487378001213, "pos_vert_variance": 0.020447589457035065}}, "errors": []}
{"timestamp": "2026-01-31T12:19:58.946116Z", "telemetry": {"lat": 0.0, "lon": 0.0, "satellites": 0, "altitude_gps_m": -0.3400000035762787, "groundspeed_mps": 0.03381948918104172}, "flight": {"mode": "STABILIZE", "armed": false}, "ekf": {"attitude": {"roll": -0.023334931582212448, "pitch": 0.002573370933532715, "yaw": -0.22484201192855835}, "local_position": {"x": null, "y": null, "z": null}, "status": {"flags": 135, "velocity_variance": 0.0, "pos_horiz_variance": 0.007584299426525831, "pos_vert_variance": 0.0058730230666697025}}, "errors": []}
{"timestamp": "2026-01-31T12:19:59.946113Z", "telemetry": {"lat": 0.0, "lon": 0.0, "satellites": 0, "altitude_gps_m": -0.3400000035762787, "groundspeed_mps": 0.03552579879760742}, "flight": {"mode": "STABILIZE", "armed": false}, "ekf": {"attitude": {"roll": -0.023220064118504524, "pitch": 0.0026123598217964172, "yaw": -0.22492946684360504}, "local_position": {"x": null, "y": null, "z": null}, "status": {"flags": 135, "velocity_variance": 0.0, "pos_horiz_variance": 0.008232731372117996, "pos_vert_variance": 0.01137597393244505}}, "errors": []}
{"timestamp": "2026-01-31T12:20:00.946661Z", "telemetry": {"lat": 0.0, "lon": 0.0, "satellites": 0, "altitude_gps_m": -0.3400000035762787, "groundspeed_mps": 0.033982645720243454}, "flight": {"mode": "STABILIZE", "armed": false}, "ekf": {"attitude": {"roll": -0.023152068257331848, "pitch": 0.0026616640388965607, "yaw": -0.22477874159812927}, "local_position": {"x": null, "y": null, "z": null}, "status": {"flags": 135, "velocity_variance": 0.0, "pos_horiz_variance": 0.008534709922969341, "pos_vert_variance": 0.031385716050863266}}, "errors": []}
{"timestamp": "2026-01-31T12:20:01.946390Z", "telemetry": {"lat": 0.0, "lon": 0.0, "satellites": 0, "altitude_gps_m": -0.3400000035762787, "groundspeed_mps": 0.03176441788673401}, "flight": {"mode": "STABILIZE", "armed": false}, "ekf": {"attitude": {"roll": -0.023077039048075676, "pitch": 0.002739042043685913, "yaw": -0.22479721903800964}, "local_position": {"x": null, "y": null, "z": null}, "status": {"flags": 135, "velocity_variance": 0.0, "pos_horiz_variance": 0.008219380863010883, "pos_vert_variance": 0.017323121428489685}}, "errors": ["PreArm: RC not found", "PreArm: Compasses inconsistent"]}
{"timestamp": "2026-01-31T12:20:02.946220Z", "telemetry": {"lat": 0.0, "lon": 0.0, "satellites": 0, "altitude_gps_m": -0.3400000035762787, "groundspeed_mps": 0.030399497598409653}, "flight": {"mode": "STABILIZE", "armed": false}, "ekf": {"attitude": {"roll": -0.022977188229560852, "pitch": 0.002734202891588211, "yaw": -0.2248285561800003}, "local_position": {"x": null, "y": null, "z": null}, "status": {"flags": 135, "velocity_variance": 0.0, "pos_horiz_variance": 0.007873830385506153, "pos_vert_variance": 0.03203778713941574}}, "errors": ["PreArm: RC not found", "PreArm: Compasses inconsistent"]}
{"timestamp": "2026-01-31T12:20:03.947050Z", "telemetry": {"lat": 0.0, "lon": 0.0, "satellites": 0, "altitude_gps_m": -0.3400000035762787, "groundspeed_mps": 0.03224180266261101}, "flight": {"mode": "STABILIZE", "armed": false}, "ekf": {"attitude": {"roll": -0.022959250956773758, "pitch": 0.0027062855660915375, "yaw": -0.22474944591522217}, "local_position": {"x": null, "y": null, "z": null}, "status": {"flags": 135, "velocity_variance": 0.0, "pos_horiz_variance": 0.007712299469858408, "pos_vert_variance": 0.07804098725318909}}, "errors": ["PreArm: RC not found", "PreArm: Compasses inconsistent"]}
{"timestamp": "2026-01-31T12:20:04.946031Z", "telemetry": {"lat": 0.0, "lon": 0.0, "satellites": 0, "altitude_gps_m": -0.3400000035762787, "groundspeed_mps": 0.030030054971575737}, "flight": {"mode": "STABILIZE", "armed": false}, "ekf": {"attitude": {"roll": -0.023040125146508217, "pitch": 0.002700299024581909, "yaw": -0.2245679646730423}, "local_position": {"x": null, "y": null, "z": null}, "status": {"flags": 135, "velocity_variance": 0.0, "pos_horiz_variance": 0.00757684838026762, "pos_vert_variance": 0.02174999751150608}}, "errors": ["PreArm: RC not found", "PreArm: Compasses inconsistent"]}
{"timestamp": "2026-01-31T12:20:05.946378Z", "telemetry": {"lat": 0.0, "lon": 0.0, "satellites": 0, "altitude_gps_m": -0.3400000035762787, "groundspeed_mps": 0.028197618201375008}, "flight": {"mode": "STABILIZE", "armed": false}, "ekf": {"attitude": {"roll": -0.023175818845629692, "pitch": 0.002627342939376831, "yaw": -0.22455613315105438}, "local_position": {"x": null, "y": null, "z": null}, "status": {"flags": 135, "velocity_variance": 0.0, "pos_horiz_variance": 0.007348400540649891, "pos_vert_variance": 0.025749634951353073}}, "errors": ["PreArm: RC not found", "PreArm: Compasses inconsistent"]}
{"timestamp": "2026-01-31T12:20:06.946642Z", "telemetry": {"lat": 0.0, "lon": 0.0, "satellites": 0, "altitude_gps_m": -0.3400000035762787, "groundspeed_mps": 0.028936253860592842}, "flight": {"mode": "STABILIZE", "armed": false}, "ekf": {"attitude": {"roll": -0.023272376507520676, "pitch": 0.002622712403535843, "yaw": -0.224516823887825}, "local_position": {"x": null, "y": null, "z": null}, "status": {"flags": 135, "velocity_variance": 0.0, "pos_horiz_variance": 0.007179902400821447, "pos_vert_variance": 0.03624681010842323}}, "errors": ["PreArm: RC not found", "PreArm: Compasses inconsistent"]}
{"timestamp": "2026-01-31T12:20:07.945999Z", "telemetry": {"lat": 0.0, "lon": 0.0, "satellites": 0, "altitude_gps_m": -0.3400000035762787, "groundspeed_mps": 0.03115970268845558}, "flight": {"mode": "STABILIZE", "armed": false}, "ekf": {"attitude": {"roll": -0.023198284208774567, "pitch": 0.0025537610054016113, "yaw": -0.2243155986070633}, "local_position": {"x": null, "y": null, "z": null}, "status": {"flags": 135, "velocity_variance": 0.0, "pos_horiz_variance": 0.007256918121129274, "pos_vert_variance": 0.049478817731142044}}, "errors": ["PreArm: RC not found", "PreArm: Compasses inconsistent"]}
{"timestamp": "2026-01-31T12:20:08.945992Z", "telemetry": {"lat": 0.0, "lon": 0.0, "satellites": 0, "altitude_gps_m": -0.3400000035762787, "groundspeed_mps": 0.032579146325588226}, "flight": {"mode": "STABILIZE", "armed": false}, "ekf": {"attitude": {"roll": -0.023297611624002457, "pitch": 0.0024885982275009155, "yaw": -0.22426767647266388}, "local_position": {"x": null, "y": null, "z": null}, "status": {"flags": 135, "velocity_variance": 0.0, "pos_horiz_variance": 0.007609708234667778, "pos_vert_variance": 0.044856633991003036}}, "errors": ["PreArm: RC not found", "PreArm: Compasses inconsistent"]}
{"timestamp": "2026-01-31T12:20:09.946336Z", "telemetry": {"lat": 0.0, "lon": 0.0, "satellites": 0, "altitude_gps_m": -0.3400000035762787, "groundspeed_mps": 0.036630962044000626}, "flight": {"mode": "STABILIZE", "armed": false}, "ekf": {"attitude": {"roll": -0.02326187677681446, "pitch": 0.002376694232225418, "yaw": -0.2244240790605545}, "local_position": {"x": null, "y": null, "z": null}, "status": {"flags": 135, "velocity_variance": 0.0, "pos_horiz_variance": 0.008022274821996689, "pos_vert_variance": 0.04508147016167641}}, "errors": ["PreArm: RC not found", "PreArm: Compasses inconsistent"]}
{"timestamp": "2026-01-31T12:20:10.946094Z", "telemetry": {"lat": 0.0, "lon": 0.0, "satellites": 0, "altitude_gps_m": -0.3400000035762787, "groundspeed_mps": 0.03521285951137543}, "flight": {"mode": "STABILIZE", "armed": false}, "ekf": {"attitude": {"roll": -0.023174945265054703, "pitch": 0.0022120587527751923, "yaw": -0.22447197139263153}, "local_position": {"x": null, "y": null, "z": null}, "status": {"flags": 135, "velocity_variance": 0.0, "pos_horiz_variance": 0.008476626127958298, "pos_vert_variance": 0.028156857937574387}}, "errors": ["PreArm: RC not found", "PreArm: Compasses inconsistent"]}
{"timestamp": "2026-01-31T12:20:11.946546Z", "telemetry": {"lat": 0.0, "lon": 0.0, "satellites": 0, "altitude_gps_m": -0.3400000035762787, "groundspeed_mps": 0.03901512548327446}, "flight": {"mode": "STABILIZE", "armed": false}, "ekf": {"attitude": {"roll": -0.0231102854013443, "pitch": 0.002189379185438156, "yaw": -0.22450943291187286}, "local_position": {"x": null, "y": null, "z": null}, "status": {"flags": 135, "velocity_variance": 0.0, "pos_horiz_variance": 0.00874267891049385, "pos_vert_variance": 0.024905966594815254}}, "errors": ["PreArm: RC not found", "PreArm: Compasses inconsistent"]}
{"timestamp": "2026-01-31T12:20:12.946533Z", "telemetry": {"lat": 0.0, "lon": 0.0, "satellites": 0, "altitude_gps_m": -0.3400000035762787, "groundspeed_mps": 0.04358849301934242}, "flight": {"mode": "STABILIZE", "armed": false}, "ekf": {"attitude": {"roll": -0.023169344291090965, "pitch": 0.002199847251176834, "yaw": -0.22449170053005219}, "local_position": {"x": null, "y": null, "z": null}, "status": {"flags": 135, "velocity_variance": 0.0, "pos_horiz_variance": 0.009438605047762394, "pos_vert_variance": 0.0318758524954319}}, "errors": ["PreArm: RC not found", "PreArm: Compasses inconsistent"]}
{"timestamp": "2026-01-31T12:20:13.946209Z", "telemetry": {"lat": 0.0, "lon": 0.0, "satellites": 0, "altitude_gps_m": -0.3400000035762787, "groundspeed_mps": 0.04661976918578148}, "flight": {"mode": "STABILIZE", "armed": false}, "ekf": {"attitude": {"roll": -0.023263705894351006, "pitch": 0.0022813156247138977, "yaw": -0.22446389496326447}, "local_position": {"x": null, "y": null, "z": null}, "status": {"flags": 135, "velocity_variance": 0.0, "pos_horiz_variance": 0.010440601035952568, "pos_vert_variance": 0.09288250654935837}}, "errors": ["PreArm: RC not found", "PreArm: Compasses inconsistent"]}
{"timestamp": "2026-01-31T12:20:14.945977Z", "telemetry": {"lat": 0.0, "lon": 0.0, "satellites": 0, "altitude_gps_m": -0.3400000035762787, "groundspeed_mps": 0.04504424333572388}, "flight": {"mode": "STABILIZE", "armed": false}, "ekf": {"attitude": {"roll": -0.023381432518363, "pitch": 0.002323940396308899, "yaw": -0.22453336417675018}, "local_position": {"x": null, "y": null, "z": null}, "status": {"flags": 135, "velocity_variance": 0.0, "pos_horiz_variance": 0.01097403559833765, "pos_vert_variance": 0.023334013298153877}}, "errors": ["PreArm: RC not found", "PreArm: Compasses inconsistent"]}
{"timestamp": "2026-01-31T12:20:15.946651Z", "telemetry": {"lat": 0.0, "lon": 0.0, "satellites": 0, "altitude_gps_m": -0.3400000035762787, "groundspeed_mps": 0.045727651566267014}, "flight": {"mode": "STABILIZE", "armed": false}, "ekf": {"attitude": {"roll": -0.023462887853384018, "pitch": 0.002339337021112442, "yaw": -0.2246004194021225}, "local_position": {"x": null, "y": null, "z": null}, "status": {"flags": 135, "velocity_variance": 0.0, "pos_horiz_variance": 0.011055638082325459, "pos_vert_variance": 0.02593580260872841}}, "errors": ["PreArm: RC not found", "PreArm: Compasses inconsistent"]}
{"timestamp": "2026-01-31T12:20:16.946591Z", "telemetry": {"lat": 0.0, "lon": 0.0, "satellites": 0, "altitude_gps_m": -0.3400000035762787, "groundspeed_mps": 0.041052550077438354}, "flight": {"mode": "STABILIZE", "armed": false}, "ekf": {"attitude": {"roll": -0.023621579632163048, "pitch": 0.002498585730791092, "yaw": -0.22467049956321716}, "local_position": {"x": null, "y": null, "z": null}, "status": {"flags": 135, "velocity_variance": 0.0, "pos_horiz_variance": 0.010962017811834812, "pos_vert_variance": 0.11337252706289291}}, "errors": ["PreArm: RC not found", "PreArm: Compasses inconsistent"]}
{"timestamp": "2026-01-31T12:20:17.946849Z", "telemetry": {"lat": 0.0, "lon": 0.0, "satellites": 0, "altitude_gps_m": -0.3400000035762787, "groundspeed_mps": 0.03994069993495941}, "flight": {"mode": "STABILIZE", "armed": false}, "ekf": {"attitude": {"roll": -0.023731935769319534, "pitch": 0.0025977417826652527, "yaw": -0.22463448345661163}, "local_position": {"x": null, "y": null, "z": null}, "status": {"flags": 135, "velocity_variance": 0.0, "pos_horiz_variance": 0.01030745729804039, "pos_vert_variance": 0.03043844737112522}}, "errors": ["PreArm: RC not found", "PreArm: Compasses inconsistent"]}
{"timestamp": "2026-01-31T12:20:18.946187Z", "telemetry": {"lat": 0.0, "lon": 0.0, "satellites": 0, "altitude_gps_m": -0.3400000035762787, "groundspeed_mps": 0.0374201200902462}, "flight": {"mode": "STABILIZE", "armed": false}, "ekf": {"attitude": {"roll": -0.023829927667975426, "pitch": 0.0026363879442214966, "yaw": -0.22468812763690948}, "local_position": {"x": null, "y": null, "z": null}, "status": {"flags": 135, "velocity_variance": 0.0, "pos_horiz_variance": 0.009779268875718117, "pos_vert_variance": 0.05430525168776512}}, "errors": ["PreArm: RC not found", "PreArm: Compasses inconsistent"]}
{"timestamp": "2026-01-31T12:20:19.946080Z", "telemetry": {"lat": 0.0, "lon": 0.0, "satellites": 0, "altitude_gps_m": -0.3400000035762787, "groundspeed_mps": 0.03421999141573906}, "flight": {"mode": "STABILIZE", "armed": false}, "ekf": {"attitude": {"roll": -0.023816682398319244, "pitch": 0.0026315972208976746, "yaw": -0.22468923032283783}, "local_position": {"x": null, "y": null, "z": null}, "status": {"flags": 135, "velocity_variance": 0.0, "pos_horiz_variance": 0.00905116181820631, "pos_vert_variance": 0.02551967278122902}}, "errors": ["PreArm: RC not found", "PreArm: Compasses inconsistent"]}
{"timestamp": "2026-01-31T12:20:20.946028Z", "telemetry": {"lat": 0.0, "lon": 0.0, "satellites": 0, "altitude_gps_m": -0.3400000035762787, "groundspeed_mps": 0.03387982025742531}, "flight": {"mode": "STABILIZE", "armed": false}, "ekf": {"attitude": {"roll": -0.023786084726452827, "pitch": 0.0026672445237636566, "yaw": -0.22470667958259583}, "local_position": {"x": null, "y": null, "z": null}, "status": {"flags": 135, "velocity_variance": 0.0, "pos_horiz_variance": 0.008761993609368801, "pos_vert_variance": 0.07588087767362595}}, "errors": ["PreArm: RC not found", "PreArm: Compasses inconsistent"]}
{"timestamp": "2026-01-31T12:20:21.945949Z", "telemetry": {"lat": 0.0, "lon": 0.0, "satellites": 0, "altitude_gps_m": -0.3400000035762787, "groundspeed_mps": 0.03509325906634331}, "flight": {"mode": "STABILIZE", "armed": false}, "ekf": {"attitude": {"roll": -0.023856017738580704, "pitch": 0.002775687724351883, "yaw": -0.22469094395637512}, "local_position": {"x": null, "y": null, "z": null}, "status": {"flags": 135, "velocity_variance": 0.0, "pos_horiz_variance": 0.008633842691779137, "pos_vert_variance": 0.053197067230939865}}, "errors": ["PreArm: RC not found", "PreArm: Compasses inconsistent"]}
{"timestamp": "2026-01-31T12:20:22.946497Z", "telemetry": {"lat": 0.0, "lon": 0.0, "satellites": 0, "altitude_gps_m": -0.3400000035762787, "groundspeed_mps": 0.03562082350254059}, "flight": {"mode": "STABILIZE", "armed": false}, "ekf": {"attitude": {"roll": -0.02389412373304367, "pitch": 0.002773575484752655, "yaw": -0.22482037544250488}, "local_position": {"x": null, "y": null, "z": null}, "status": {"flags": 135, "velocity_variance": 0.0, "pos_horiz_variance": 0.008686657063663006, "pos_vert_variance": 0.02963700331747532}}, "errors": ["PreArm: RC not found", "PreArm: Compasses inconsistent"]}
{"timestamp": "2026-01-31T12:20:23.946259Z", "telemetry": {"lat": 0.0, "lon": 0.0, "satellites": 0, "altitude_gps_m": -0.3400000035762787, "groundspeed_mps": 0.033499862998723984}, "flight": {"mode": "STABILIZE", "armed": false}, "ekf": {"attitude": {"roll": -0.023832160979509354, "pitch": 0.002765897661447525, "yaw": -0.22471177577972412}, "local_position": {"x": null, "y": null, "z": null}, "status": {"flags": 135, "velocity_variance": 0.0, "pos_horiz_variance": 0.008696944452822208, "pos_vert_variance": 0.014951932244002819}}, "errors": ["PreArm: RC not found", "PreArm: Compasses inconsistent"]}
{"timestamp": "2026-01-31T12:20:24.946710Z", "telemetry": {"lat": 0.0, "lon": 0.0, "satellites": 0, "altitude_gps_m": -0.3400000035762787, "groundspeed_mps": 0.03175262361764908}, "flight": {"mode": "STABILIZE", "armed": false}, "ekf": {"attitude": {"roll": -0.023825913667678833, "pitch": 0.0027559585869312286, "yaw": -0.22460173070430756}, "local_position": {"x": null, "y": null, "z": null}, "status": {"flags": 135, "velocity_variance": 0.0, "pos_horiz_variance": 0.008296563290059566, "pos_vert_variance": 0.0901414006948471}}, "errors": ["PreArm: RC not found", "PreArm: Compasses inconsistent"]}
{"timestamp": "2026-01-31T12:20:25.946471Z", "telemetry": {"lat": 0.0, "lon": 0.0, "satellites": 0, "altitude_gps_m": -0.3400000035762787, "groundspeed_mps": 0.03330869600176811}, "flight": {"mode": "STABILIZE", "armed": false}, "ekf": {"attitude": {"roll": -0.023674823343753815, "pitch": 0.0027452073991298676, "yaw": -0.22465112805366516}, "local_position": {"x": null, "y": null, "z": null}, "status": {"flags": 135, "velocity_variance": 0.0, "pos_horiz_variance": 0.00808774121105671, "pos_vert_variance": 0.07489626854658127}}, "errors": ["PreArm: RC not found", "PreArm: Compasses inconsistent"]}
{"timestamp": "2026-01-31T12:20:26.946281Z", "telemetry": {"lat": 0.0, "lon": 0.0, "satellites": 0, "altitude_gps_m": -0.3400000035762787, "groundspeed_mps": 0.0329580195248127}, "flight": {"mode": "STABILIZE", "armed": false}, "ekf": {"attitude": {"roll": -0.02374659851193428, "pitch": 0.002816390246152878, "yaw": -0.22465063631534576}, "local_position": {"x": null, "y": null, "z": null}, "status": {"flags": 135, "velocity_variance": 0.0, "pos_horiz_variance": 0.008179828524589539, "pos_vert_variance": 0.0025746277533471584}}, "errors": ["PreArm: RC not found", "PreArm: Compasses inconsistent"]}
{"timestamp": "2026-01-31T12:20:27.946440Z", "telemetry": {"lat": 0.0, "lon": 0.0, "satellites": 0, "altitude_gps_m": -0.3400000035762787, "groundspeed_mps": 0.032892823219299316}, "flight": {"mode": "STABILIZE", "armed": false}, "ekf": {"attitude": {"roll": -0.02367825247347355, "pitch": 0.0028118006885051727, "yaw": -0.22455433011054993}, "local_position": {"x": null, "y": null, "z": null}, "status": {"flags": 135, "velocity_variance": 0.0, "pos_horiz_variance": 0.008062743581831455, "pos_vert_variance": 0.017674986273050308}}, "errors": ["PreArm: RC not found", "PreArm: Compasses inconsistent"]}
{"timestamp": "2026-01-31T12:20:28.946655Z", "telemetry": {"lat": 0.0, "lon": 0.0, "satellites": 0, "altitude_gps_m": -0.3400000035762787, "groundspeed_mps": 0.030300410464406013}, "flight": {"mode": "STABILIZE", "armed": false}, "ekf": {"attitude": {"roll": -0.02364089898765087, "pitch": 0.002872522920370102, "yaw": -0.22467875480651855}, "local_position": {"x": null, "y": null, "z": null}, "status": {"flags": 135, "velocity_variance": 0.0, "pos_horiz_variance": 0.007859291508793831, "pos_vert_variance": 0.10543717443943024}}, "errors": ["PreArm: RC not found", "PreArm: Compasses inconsistent"]}
{"timestamp": "2026-01-31T12:20:29.946102Z", "telemetry": {"lat": 0.0, "lon": 0.0, "satellites": 0, "altitude_gps_m": -0.3400000035762787, "groundspeed_mps": 0.02986336499452591}, "flight": {"mode": "STABILIZE", "armed": false}, "ekf": {"attitude": {"roll": -0.023626022040843964, "pitch": 0.0029212869703769684, "yaw": -0.2246275544166565}, "local_position": {"x": null, "y": null, "z": null}, "status": {"flags": 135, "velocity_variance": 0.0, "pos_horiz_variance": 0.007591892499476671, "pos_vert_variance": 0.09425771981477737}}, "errors": ["PreArm: RC not found", "PreArm: Compasses inconsistent"]}
{"timestamp": "2026-01-31T12:20:30.946480Z", "telemetry": {"lat": 0.0, "lon": 0.0, "satellites": 0, "altitude_gps_m": -0.3400000035762787, "groundspeed_mps": 0.029475528746843338}, "flight": {"mode": "STABILIZE", "armed": false}, "ekf": {"attitude": {"roll": -0.023637032136321068, "pitch": 0.0029405243694782257, "yaw": -0.22449927031993866}, "local_position": {"x": null, "y": null, "z": null}, "status": {"flags": 135, "velocity_variance": 0.0, "pos_horiz_variance": 0.007472669705748558, "pos_vert_variance": 0.05302121862769127}}, "errors": ["PreArm: RC not found", "PreArm: Compasses inconsistent"]}
{"timestamp": "2026-01-31T12:20:31.946419Z", "telemetry": {"lat": 0.0, "lon": 0.0, "satellites": 0, "altitude_gps_m": -0.3400000035762787, "groundspeed_mps": 0.027752717956900597}, "flight": {"mode": "STABILIZE", "armed": false}, "ekf": {"attitude": {"roll": -0.023639332503080368, "pitch": 0.0029190294444561005, "yaw": -0.2244909405708313}, "local_position": {"x": null, "y": null, "z": null}, "status": {"flags": 135, "velocity_variance": 0.0, "pos_horiz_variance": 0.00716152461245656, "pos_vert_variance": 0.07745270431041718}}, "errors": ["PreArm: RC not found", "PreArm: Compasses inconsistent", "PreArm: RC not found", "PreArm: Compasses inconsistent"]}
{"timestamp": "2026-01-31T12:20:32.946237Z", "telemetry": {"lat": 0.0, "lon": 0.0, "satellites": 0, "altitude_gps_m": -0.3400000035762787, "groundspeed_mps": 0.024579165503382683}, "flight": {"mode": "STABILIZE", "armed": false}, "ekf": {"attitude": {"roll": -0.023540012538433075, "pitch": 0.0030725523829460144, "yaw": -0.22444181144237518}, "local_position": {"x": null, "y": null, "z": null}, "status": {"flags": 135, "velocity_variance": 0.0, "pos_horiz_variance": 0.006677004974335432, "pos_vert_variance": 0.030654802918434143}}, "errors": ["PreArm: RC not found", "PreArm: Compasses inconsistent", "PreArm: RC not found", "PreArm: Compasses inconsistent"]}
{"timestamp": "2026-01-31T12:20:33.946148Z", "telemetry": {"lat": 0.0, "lon": 0.0, "satellites": 0, "altitude_gps_m": -0.3400000035762787, "groundspeed_mps": 0.02275051362812519}, "flight": {"mode": "STABILIZE", "armed": false}, "ekf": {"attitude": {"roll": -0.0235288143157959, "pitch": 0.003508441150188446, "yaw": -0.2243061512708664}, "local_position": {"x": null, "y": null, "z": null}, "status": {"flags": 135, "velocity_variance": 0.0, "pos_horiz_variance": 0.006219646893441677, "pos_vert_variance": 0.032787956297397614}}, "errors": ["PreArm: RC not found", "PreArm: Compasses inconsistent", "PreArm: RC not found", "PreArm: Compasses inconsistent"]}
{"timestamp": "2026-01-31T12:20:34.946068Z", "telemetry": {"lat": 0.0, "lon": 0.0, "satellites": 0, "altitude_gps_m": -0.3400000035762787, "groundspeed_mps": 0.01723080687224865}, "flight": {"mode": "STABILIZE", "armed": false}, "ekf": {"attitude": {"roll": -0.02341935783624649, "pitch": 0.0038929618895053864, "yaw": -0.22451545298099518}, "local_position": {"x": null, "y": null, "z": null}, "status": {"flags": 135, "velocity_variance": 0.0, "pos_horiz_variance": 0.005468793213367462, "pos_vert_variance": 0.03618555888533592}}, "errors": ["PreArm: RC not found", "PreArm: Compasses inconsistent", "PreArm: RC not found", "PreArm: Compasses inconsistent"]}
{"timestamp": "2026-01-31T12:20:35.946329Z", "telemetry": {"lat": 0.0, "lon": 0.0, "satellites": 0, "altitude_gps_m": -0.3400000035762787, "groundspeed_mps": 0.00934544950723648}, "flight": {"mode": "STABILIZE", "armed": false}, "ekf": {"attitude": {"roll": -0.023298421874642372, "pitch": 0.004356343299150467, "yaw": -0.22457240521907806}, "local_position": {"x": null, "y": null, "z": null}, "status": {"flags": 135, "velocity_variance": 0.0, "pos_horiz_variance": 0.004318109713494778, "pos_vert_variance": 0.09251606464385986}}, "errors": ["PreArm: RC not found", "PreArm: Compasses inconsistent", "PreArm: RC not found", "PreArm: Compasses inconsistent"]}
{"timestamp": "2026-01-31T12:20:36.946537Z", "telemetry": {"lat": 0.0, "lon": 0.0, "satellites": 0, "altitude_gps_m": -0.3400000035762787, "groundspeed_mps": 0.0029056791681796312}, "flight": {"mode": "STABILIZE", "armed": false}, "ekf": {"attitude": {"roll": -0.023296337574720383, "pitch": 0.00452495738863945, "yaw": -0.22455452382564545}, "local_position": {"x": null, "y": null, "z": null}, "status": {"flags": 135, "velocity_variance": 0.0, "pos_horiz_variance": 0.002804624615237117, "pos_vert_variance": 0.008347482420504093}}, "errors": ["PreArm: RC not found", "PreArm: Compasses inconsistent", "PreArm: RC not found", "PreArm: Compasses inconsistent"]}
{"timestamp": "2026-01-31T12:20:37.946502Z", "telemetry": {"lat": 0.0, "lon": 0.0, "satellites": 0, "altitude_gps_m": -0.3400000035762787, "groundspeed_mps": 0.001730851479806006}, "flight": {"mode": "STABILIZE", "armed": false}, "ekf": {"attitude": {"roll": -0.02313908375799656, "pitch": 0.004565250128507614, "yaw": -0.2245074212551117}, "local_position": {"x": null, "y": null, "z": null}, "status": {"flags": 135, "velocity_variance": 0.0, "pos_horiz_variance": 0.0012517645955085754, "pos_vert_variance": 0.014413249678909779}}, "errors": ["PreArm: RC not found", "PreArm: Compasses inconsistent", "PreArm: RC not found", "PreArm: Compasses inconsistent"]}
{"timestamp": "2026-01-31T12:20:38.946960Z", "telemetry": {"lat": 0.0, "lon": 0.0, "satellites": 0, "altitude_gps_m": -0.3400000035762787, "groundspeed_mps": 0.0036156519781798124}, "flight": {"mode": "STABILIZE", "armed": false}, "ekf": {"attitude": {"roll": -0.023278407752513885, "pitch": 0.004365328699350357, "yaw": -0.22439996898174286}, "local_position": {"x": null, "y": null, "z": null}, "status": {"flags": 135, "velocity_variance": 0.0, "pos_horiz_variance": 0.0003165866364724934, "pos_vert_variance": 0.1418367177248001}}, "errors": ["PreArm: RC not found", "PreArm: Compasses inconsistent", "PreArm: RC not found", "PreArm: Compasses inconsistent"]}
{"timestamp": "2026-01-31T12:20:39.946873Z", "telemetry": {"lat": 0.0, "lon": 0.0, "satellites": 0, "altitude_gps_m": -0.3400000035762787, "groundspeed_mps": 0.0028419054578989744}, "flight": {"mode": "STABILIZE", "armed": false}, "ekf": {"attitude": {"roll": -0.023301145061850548, "pitch": 0.004242599010467529, "yaw": -0.22459132969379425}, "local_position": {"x": null, "y": null, "z": null}, "status": {"flags": 135, "velocity_variance": 0.0, "pos_horiz_variance": 0.00034756556851789355, "pos_vert_variance": 0.015040101483464241}}, "errors": ["PreArm: RC not found", "PreArm: Compasses inconsistent", "PreArm: RC not found", "PreArm: Compasses inconsistent"]}
{"timestamp": "2026-01-31T12:20:40.946994Z", "telemetry": {"lat": 0.0, "lon": 0.0, "satellites": 0, "altitude_gps_m": -0.3400000035762787, "groundspeed_mps": 0.0034194050822407007}, "flight": {"mode": "STABILIZE", "armed": false}, "ekf": {"attitude": {"roll": -0.02342073805630207, "pitch": 0.004232581704854965, "yaw": -0.22473539412021637}, "local_position": {"x": null, "y": null, "z": null}, "status": {"flags": 135, "velocity_variance": 0.0, "pos_horiz_variance": 8.376584446523339e-05, "pos_vert_variance": 0.052870385348796844}}, "errors": ["PreArm: RC not found", "PreArm: Compasses inconsistent", "PreArm: RC not found", "PreArm: Compasses inconsistent"]}
{"timestamp": "2026-01-31T12:20:41.946075Z", "telemetry": {"lat": 0.0, "lon": 0.0, "satellites": 0, "altitude_gps_m": -0.3400000035762787, "groundspeed_mps": 0.00619560806080699}, "flight": {"mode": "STABILIZE", "armed": false}, "ekf": {"attitude": {"roll": -0.023389140143990517, "pitch": 0.004268702119588852, "yaw": -0.2248297780752182}, "local_position": {"x": null, "y": null, "z": null}, "status": {"flags": 135, "velocity_variance": 0.0, "pos_horiz_variance": 0.0009965818608179688, "pos_vert_variance": 0.002592547796666622}}, "errors": ["PreArm: RC not found", "PreArm: Compasses inconsistent", "PreArm: RC not found", "PreArm: Compasses inconsistent"]}
{"timestamp": "2026-01-31T12:20:42.945968Z", "telemetry": {"lat": 0.0, "lon": 0.0, "satellites": 0, "altitude_gps_m": -0.3400000035762787, "groundspeed_mps": 0.007995269261300564}, "flight": {"mode": "STABILIZE", "armed": false}, "ekf": {"attitude": {"roll": -0.023329870775341988, "pitch": 0.003984447568655014, "yaw": -0.22479094564914703}, "local_position": {"x": null, "y": null, "z": null}, "status": {"flags": 135, "velocity_variance": 0.0, "pos_horiz_variance": 0.0014931297628208995, "pos_vert_variance": 0.0807865560054779}}, "errors": ["PreArm: RC not found", "PreArm: Compasses inconsistent", "PreArm: RC not found", "PreArm: Compasses inconsistent"]}
{"timestamp": "2026-01-31T12:20:43.946617Z", "telemetry": {"lat": 0.0, "lon": 0.0, "satellites": 0, "altitude_gps_m": -0.3400000035762787, "groundspeed_mps": 0.014121856540441513}, "flight": {"mode": "STABILIZE", "armed": false}, "ekf": {"attitude": {"roll": -0.023366831243038177, "pitch": 0.00341796875, "yaw": -0.22465120255947113}, "local_position": {"x": null, "y": null, "z": null}, "status": {"flags": 135, "velocity_variance": 0.0, "pos_horiz_variance": 0.002241565613076091, "pos_vert_variance": 0.0018768513109534979}}, "errors": ["PreArm: RC not found", "PreArm: Compasses inconsistent", "PreArm: RC not found", "PreArm: Compasses inconsistent"]}
{"timestamp": "2026-01-31T12:20:44.946400Z", "telemetry": {"lat": 0.0, "lon": 0.0, "satellites": 0, "altitude_gps_m": -0.3400000035762787, "groundspeed_mps": 0.02251938357949257}, "flight": {"mode": "STABILIZE", "armed": false}, "ekf": {"attitude": {"roll": -0.023442087695002556, "pitch": 0.0028611496090888977, "yaw": -0.22466857731342316}, "local_position": {"x": null, "y": null, "z": null}, "status": {"flags": 135, "velocity_variance": 0.0, "pos_horiz_variance": 0.0033703965600579977, "pos_vert_variance": 0.0057610380463302135}}, "errors": ["PreArm: RC not found", "PreArm: Compasses inconsistent", "PreArm: RC not found", "PreArm: Compasses inconsistent"]}
{"timestamp": "2026-01-31T12:20:45.945999Z", "telemetry": {"lat": 0.0, "lon": 0.0, "satellites": 0, "altitude_gps_m": -0.3400000035762787, "groundspeed_mps": 0.027154427021741867}, "flight": {"mode": "STABILIZE", "armed": false}, "ekf": {"attitude": {"roll": -0.023387867957353592, "pitch": 0.0025129541754722595, "yaw": -0.22462555766105652}, "local_position": {"x": null, "y": null, "z": null}, "status": {"flags": 135, "velocity_variance": 0.0, "pos_horiz_variance": 0.004855021368712187, "pos_vert_variance": 0.009598832577466965}}, "errors": ["PreArm: RC not found", "PreArm: Compasses inconsistent", "PreArm: RC not found", "PreArm: Compasses inconsistent"]}
{"timestamp": "2026-01-31T12:20:46.946332Z", "telemetry": {"lat": 0.0, "lon": 0.0, "satellites": 0, "altitude_gps_m": -0.3400000035762787, "groundspeed_mps": 0.035287465900182724}, "flight": {"mode": "STABILIZE", "armed": false}, "ekf": {"attitude": {"roll": -0.023465879261493683, "pitch": 0.0021740347146987915, "yaw": -0.22453007102012634}, "local_position": {"x": null, "y": null, "z": null}, "status": {"flags": 135, "velocity_variance": 0.0, "pos_horiz_variance": 0.00630718469619751, "pos_vert_variance": 0.03507330268621445}}, "errors": ["PreArm: RC not found", "PreArm: Compasses inconsistent", "PreArm: RC not found", "PreArm: Compasses inconsistent"]}
{"timestamp": "2026-01-31T12:20:47.946698Z", "telemetry": {"lat": 0.0, "lon": 0.0, "satellites": 0, "altitude_gps_m": -0.3400000035762787, "groundspeed_mps": 0.043197501450777054}, "flight": {"mode": "STABILIZE", "armed": false}, "ekf": {"attitude": {"roll": -0.02357318252325058, "pitch": 0.0019279718399047852, "yaw": -0.22447410225868225}, "local_position": {"x": null, "y": null, "z": null}, "status": {"flags": 135, "velocity_variance": 0.0, "pos_horiz_variance": 0.008173445239663124, "pos_vert_variance": 0.036260586231946945}}, "errors": ["PreArm: RC not found", "PreArm: Compasses inconsistent", "PreArm: RC not found", "PreArm: Compasses inconsistent"]}
{"timestamp": "2026-01-31T12:20:48.946769Z", "telemetry": {"lat": 0.0, "lon": 0.0, "satellites": 0, "altitude_gps_m": -0.3400000035762787, "groundspeed_mps": 0.047902774065732956}, "flight": {"mode": "STABILIZE", "armed": false}, "ekf": {"attitude": {"roll": -0.023567717522382736, "pitch": 0.0018590465188026428, "yaw": -0.2243814915418625}, "local_position": {"x": null, "y": null, "z": null}, "status": {"flags": 135, "velocity_variance": 0.0, "pos_horiz_variance": 0.009784551337361336, "pos_vert_variance": 0.033301666378974915}}, "errors": ["PreArm: RC not found", "PreArm: Compasses inconsistent", "PreArm: RC not found", "PreArm: Compasses inconsistent"]}
{"timestamp": "2026-01-31T12:20:49.946670Z", "telemetry": {"lat": 0.0, "lon": 0.0, "satellites": 0, "altitude_gps_m": -0.3400000035762787, "groundspeed_mps": 0.0489729605615139}, "flight": {"mode": "STABILIZE", "armed": false}, "ekf": {"attitude": {"roll": -0.023629499599337578, "pitch": 0.0019166134297847748, "yaw": -0.22439764440059662}, "local_position": {"x": null, "y": null, "z": null}, "status": {"flags": 135, "velocity_variance": 0.0, "pos_horiz_variance": 0.010884810239076614, "pos_vert_variance": 0.04436143860220909}}, "errors": ["PreArm: RC not found", "PreArm: Compasses inconsistent", "PreArm: RC not found", "PreArm: Compasses inconsistent"]}
{"timestamp": "2026-01-31T12:20:50.946098Z", "telemetry": {"lat": 0.0, "lon": 0.0, "satellites": 0, "altitude_gps_m": -0.3400000035762787, "groundspeed_mps": 0.047206081449985504}, "flight": {"mode": "STABILIZE", "armed": false}, "ekf": {"attitude": {"roll": -0.023530127480626106, "pitch": 0.0018847621977329254, "yaw": -0.22438320517539978}, "local_position": {"x": null, "y": null, "z": null}, "status": {"flags": 135, "velocity_variance": 0.0, "pos_horiz_variance": 0.011241370812058449, "pos_vert_variance": 0.03871143236756325}}, "errors": ["PreArm: RC not found", "PreArm: Compasses inconsistent", "PreArm: RC not found", "PreArm: Compasses inconsistent"]}
{"timestamp": "2026-01-31T12:20:51.946563Z", "telemetry": {"lat": 0.0, "lon": 0.0, "satellites": 0, "altitude_gps_m": -0.3400000035762787, "groundspeed_mps": 0.048503048717975616}, "flight": {"mode": "STABILIZE", "armed": false}, "ekf": {"attitude": {"roll": -0.023450179025530815, "pitch": 0.0018286816775798798, "yaw": -0.22439303994178772}, "local_position": {"x": null, "y": null, "z": null}, "status": {"flags": 135, "velocity_variance": 0.0, "pos_horiz_variance": 0.011372455395758152, "pos_vert_variance": 0.007002529222518206}}, "errors": ["PreArm: RC not found", "PreArm: Compasses inconsistent", "PreArm: RC not found", "PreArm: Compasses inconsistent"]}
{"timestamp": "2026-01-31T12:20:52.946124Z", "telemetry": {"lat": 0.0, "lon": 0.0, "satellites": 0, "altitude_gps_m": -0.3400000035762787, "groundspeed_mps": 0.05246887356042862}, "flight": {"mode": "STABILIZE", "armed": false}, "ekf": {"attitude": {"roll": -0.023388121277093887, "pitch": 0.0018162801861763, "yaw": -0.2244831919670105}, "local_position": {"x": null, "y": null, "z": null}, "status": {"flags": 135, "velocity_variance": 0.0, "pos_horiz_variance": 0.01185372844338417, "pos_vert_variance": 0.05853244662284851}}, "errors": ["PreArm: RC not found", "PreArm: Compasses inconsistent", "PreArm: RC not found", "PreArm: Compasses inconsistent"]}
{"timestamp": "2026-01-31T12:20:53.946189Z", "telemetry": {"lat": 0.0, "lon": 0.0, "satellites": 0, "altitude_gps_m": -0.3400000035762787, "groundspeed_mps": 0.051221560686826706}, "flight": {"mode": "STABILIZE", "armed": false}, "ekf": {"attitude": {"roll": -0.02325821854174137, "pitch": 0.001962844282388687, "yaw": -0.22435827553272247}, "local_position": {"x": null, "y": null, "z": null}, "status": {"flags": 135, "velocity_variance": 0.0, "pos_horiz_variance": 0.012463364750146866, "pos_vert_variance": 0.05239919573068619}}, "errors": ["PreArm: RC not found", "PreArm: Compasses inconsistent", "PreArm: RC not found", "PreArm: Compasses inconsistent"]}
{"timestamp": "2026-01-31T12:20:54.946519Z", "telemetry": {"lat": 0.0, "lon": 0.0, "satellites": 0, "altitude_gps_m": -0.3400000035762787, "groundspeed_mps": 0.049704745411872864}, "flight": {"mode": "STABILIZE", "armed": false}, "ekf": {"attitude": {"roll": -0.023276586085557938, "pitch": 0.002040345221757889, "yaw": -0.2244044542312622}, "local_position": {"x": null, "y": null, "z": null}, "status": {"flags": 135, "velocity_variance": 0.0, "pos_horiz_variance": 0.012326898984611034, "pos_vert_variance": 0.04670495167374611}}, "errors": ["PreArm: RC not found", "PreArm: Compasses inconsistent", "PreArm: RC not found", "PreArm: Compasses inconsistent"]}
{"timestamp": "2026-01-31T12:20:55.946433Z", "telemetry": {"lat": 0.0, "lon": 0.0, "satellites": 0, "altitude_gps_m": -0.3400000035762787, "groundspeed_mps": 0.04581025242805481}, "flight": {"mode": "STABILIZE", "armed": false}, "ekf": {"attitude": {"roll": -0.023257799446582794, "pitch": 0.0020704083144664764, "yaw": -0.22440141439437866}, "local_position": {"x": null, "y": null, "z": null}, "status": {"flags": 135, "velocity_variance": 0.0, "pos_horiz_variance": 0.011894521303474903, "pos_vert_variance": 0.0274050235748291}}, "errors": ["PreArm: RC not found", "PreArm: Compasses inconsistent", "PreArm: RC not found", "PreArm: Compasses inconsistent"]}
{"timestamp": "2026-01-31T12:20:56.946878Z", "telemetry": {"lat": 0.0, "lon": 0.0, "satellites": 0, "altitude_gps_m": -0.3400000035762787, "groundspeed_mps": 0.04263618588447571}, "flight": {"mode": "STABILIZE", "armed": false}, "ekf": {"attitude": {"roll": -0.023252103477716446, "pitch": 0.0020185336470603943, "yaw": -0.22438400983810425}, "local_position": {"x": null, "y": null, "z": null}, "status": {"flags": 135, "velocity_variance": 0.0, "pos_horiz_variance": 0.011264207772910595, "pos_vert_variance": 0.016400683671236038}}, "errors": ["PreArm: RC not found", "PreArm: Compasses inconsistent", "PreArm: RC not found", "PreArm: Compasses inconsistent"]}
{"timestamp": "2026-01-31T12:20:57.946569Z", "telemetry": {"lat": 0.0, "lon": 0.0, "satellites": 0, "altitude_gps_m": -0.3400000035762787, "groundspeed_mps": 0.04393433779478073}, "flight": {"mode": "STABILIZE", "armed": false}, "ekf": {"attitude": {"roll": -0.023263046517968178, "pitch": 0.0021352618932724, "yaw": -0.22446909546852112}, "local_position": {"x": null, "y": null, "z": null}, "status": {"flags": 135, "velocity_variance": 0.0, "pos_horiz_variance": 0.010786710307002068, "pos_vert_variance": 0.034472912549972534}}, "errors": ["PreArm: RC not found", "PreArm: Compasses inconsistent", "PreArm: RC not found", "PreArm: Compasses inconsistent"]}
{"timestamp": "2026-01-31T12:20:58.945999Z", "telemetry": {"lat": 0.0, "lon": 0.0, "satellites": 0, "altitude_gps_m": -0.3400000035762787, "groundspeed_mps": 0.04360340163111687}, "flight": {"mode": "STABILIZE", "armed": false}, "ekf": {"attitude": {"roll": -0.023281879723072052, "pitch": 0.002204321324825287, "yaw": -0.22456759214401245}, "local_position": {"x": null, "y": null, "z": null}, "status": {"flags": 135, "velocity_variance": 0.0, "pos_horiz_variance": 0.010712617076933384, "pos_vert_variance": 0.03546369820833206}}, "errors": ["PreArm: RC not found", "PreArm: Compasses inconsistent", "PreArm: RC not found", "PreArm: Compasses inconsistent"]}
{"timestamp": "2026-01-31T12:20:59.946688Z", "telemetry": {"lat": 0.0, "lon": 0.0, "satellites": 0, "altitude_gps_m": -0.3400000035762787, "groundspeed_mps": 0.04136296361684799}, "flight": {"mode": "STABILIZE", "armed": false}, "ekf": {"attitude": {"roll": -0.023266803473234177, "pitch": 0.002343893051147461, "yaw": -0.22457201778888702}, "local_position": {"x": null, "y": null, "z": null}, "status": {"flags": 135, "velocity_variance": 0.0, "pos_horiz_variance": 0.010667390190064907, "pos_vert_variance": 0.03398551791906357}}, "errors": ["PreArm: RC not found", "PreArm: Compasses inconsistent", "PreArm: RC not found", "PreArm: Compasses inconsistent"]}
{"timestamp": "2026-01-31T12:21:00.945963Z", "telemetry": {"lat": 0.0, "lon": 0.0, "satellites": 0, "altitude_gps_m": -0.3400000035762787, "groundspeed_mps": 0.039126526564359665}, "flight": {"mode": "STABILIZE", "armed": false}, "ekf": {"attitude": {"roll": -0.0232620220631361, "pitch": 0.002410493791103363, "yaw": -0.2245977818965912}, "local_position": {"x": null, "y": null, "z": null}, "status": {"flags": 135, "velocity_variance": 0.0, "pos_horiz_variance": 0.010212586261332035, "pos_vert_variance": 0.03980785608291626}}, "errors": ["PreArm: RC not found", "PreArm: Compasses inconsistent", "PreArm: RC not found", "PreArm: Compasses inconsistent"]}
{"timestamp": "2026-01-31T12:21:01.946299Z", "telemetry": {"lat": 0.0, "lon": 0.0, "satellites": 0, "altitude_gps_m": -0.3400000035762787, "groundspeed_mps": 0.03882448002696037}, "flight": {"mode": "STABILIZE", "armed": false}, "ekf": {"attitude": {"roll": -0.023159103468060493, "pitch": 0.002478301525115967, "yaw": -0.22468812763690948}, "local_position": {"x": null, "y": null, "z": null}, "status": {"flags": 135, "velocity_variance": 0.0, "pos_horiz_variance": 0.009873506613075733, "pos_vert_variance": 0.019649608060717583}}, "errors": ["PreArm: RC not found", "PreArm: Compasses inconsistent", "PreArm: RC not found", "PreArm: Compasses inconsistent"]}
{"timestamp": "2026-01-31T12:21:02.946249Z", "telemetry": {"lat": 0.0, "lon": 0.0, "satellites": 0, "altitude_gps_m": -0.3400000035762787, "groundspeed_mps": 0.03785734251141548}, "flight": {"mode": "STABILIZE", "armed": false}, "ekf": {"attitude": {"roll": -0.02323940582573414, "pitch": 0.0025818757712841034, "yaw": -0.22472941875457764}, "local_position": {"x": null, "y": null, "z": null}, "status": {"flags": 135, "velocity_variance": 0.0, "pos_horiz_variance": 0.009621704928576946, "pos_vert_variance": 0.04620810225605965}}, "errors": ["PreArm: RC not found", "PreArm: Compasses inconsistent", "PreArm: RC not found", "PreArm: Compasses inconsistent", "PreArm: RC not found", "PreArm: Compasses inconsistent"]}
{"timestamp": "2026-01-31T12:21:03.946437Z", "telemetry": {"lat": 0.0, "lon": 0.0, "satellites": 0, "altitude_gps_m": -0.3400000035762787, "groundspeed_mps": 0.03428627550601959}, "flight": {"mode": "STABILIZE", "armed": false}, "ekf": {"attitude": {"roll": -0.023328034207224846, "pitch": 0.0027686618268489838, "yaw": -0.22490249574184418}, "local_position": {"x": null, "y": null, "z": null}, "status": {"flags": 135, "velocity_variance": 0.0, "pos_horiz_variance": 0.009450310841202736, "pos_vert_variance": 0.010258506052196026}}, "errors": ["PreArm: RC not found", "PreArm: Compasses inconsistent", "PreArm: RC not found", "PreArm: Compasses inconsistent", "PreArm: RC not found", "PreArm: Compasses inconsistent"]}
{"timestamp": "2026-01-31T12:21:04.946043Z", "telemetry": {"lat": 0.0, "lon": 0.0, "satellites": 0, "altitude_gps_m": -0.3400000035762787, "groundspeed_mps": 0.03232857957482338}, "flight": {"mode": "STABILIZE", "armed": false}, "ekf": {"attitude": {"roll": -0.023312384262681007, "pitch": 0.0027734823524951935, "yaw": -0.22490468621253967}, "local_position": {"x": null, "y": null, "z": null}, "status": {"flags": 135, "velocity_variance": 0.0, "pos_horiz_variance": 0.008711489848792553, "pos_vert_variance": 0.04849883168935776}}, "errors": ["PreArm: RC not found", "PreArm: Compasses inconsistent", "PreArm: RC not found", "PreArm: Compasses inconsistent", "PreArm: RC not found", "PreArm: Compasses inconsistent"]}
{"timestamp": "2026-01-31T12:21:05.946608Z", "telemetry": {"lat": 0.0, "lon": 0.0, "satellites": 0, "altitude_gps_m": -0.3400000035762787, "groundspeed_mps": 0.032491862773895264}, "flight": {"mode": "STABILIZE", "armed": false}, "ekf": {"attitude": {"roll": -0.02326572872698307, "pitch": 0.0027131177484989166, "yaw": -0.2248389571905136}, "local_position": {"x": null, "y": null, "z": null}, "status": {"flags": 135, "velocity_variance": 0.0, "pos_horiz_variance": 0.00824758131057024, "pos_vert_variance": 0.032301727682352066}}, "errors": ["PreArm: RC not found", "PreArm: Compasses inconsistent", "PreArm: RC not found", "PreArm: Compasses inconsistent", "PreArm: RC not found", "PreArm: Compasses inconsistent"]}
{"timestamp": "2026-01-31T12:21:06.946369Z", "telemetry": {"lat": 0.0, "lon": 0.0, "satellites": 0, "altitude_gps_m": -0.3400000035762787, "groundspeed_mps": 0.031225593760609627}, "flight": {"mode": "STABILIZE", "armed": false}, "ekf": {"attitude": {"roll": -0.02321302704513073, "pitch": 0.00273740291595459, "yaw": -0.224730983376503}, "local_position": {"x": null, "y": null, "z": null}, "status": {"flags": 135, "velocity_variance": 0.0, "pos_horiz_variance": 0.008217204362154007, "pos_vert_variance": 0.02535121701657772}}, "errors": ["PreArm: RC not found", "PreArm: Compasses inconsistent", "PreArm: RC not found", "PreArm: Compasses inconsistent", "PreArm: RC not found", "PreArm: Compasses inconsistent"]}
{"timestamp": "2026-01-31T12:21:07.946071Z", "telemetry": {"lat": 0.0, "lon": 0.0, "satellites": 0, "altitude_gps_m": -0.3400000035762787, "groundspeed_mps": 0.03200357034802437}, "flight": {"mode": "STABILIZE", "armed": false}, "ekf": {"attitude": {"roll": -0.023184465244412422, "pitch": 0.0028255395591259003, "yaw": -0.2246701866388321}, "local_position": {"x": null, "y": null, "z": null}, "status": {"flags": 135, "velocity_variance": 0.0, "pos_horiz_variance": 0.00797196663916111, "pos_vert_variance": 0.08193638175725937}}, "errors": ["PreArm: RC not found", "PreArm: Compasses inconsistent", "PreArm: RC not found", "PreArm: Compasses inconsistent", "PreArm: RC not found", "PreArm: Compasses inconsistent"]}
{"timestamp": "2026-01-31T12:21:08.946804Z", "telemetry": {"lat": 0.0, "lon": 0.0, "satellites": 0, "altitude_gps_m": -0.3400000035762787, "groundspeed_mps": 0.032571882009506226}, "flight": {"mode": "STABILIZE", "armed": false}, "ekf": {"attitude": {"roll": -0.023311156779527664, "pitch": 0.0028580911457538605, "yaw": -0.22462251782417297}, "local_position": {"x": null, "y": null, "z": null}, "status": {"flags": 135, "velocity_variance": 0.0, "pos_horiz_variance": 0.007982021197676659, "pos_vert_variance": 0.04551813006401062}}, "errors": ["PreArm: RC not found", "PreArm: Compasses inconsistent", "PreArm: RC not found", "PreArm: Compasses inconsistent", "PreArm: RC not found", "PreArm: Compasses inconsistent"]}
{"timestamp": "2026-01-31T12:21:09.946864Z", "telemetry": {"lat": 0.0, "lon": 0.0, "satellites": 0, "altitude_gps_m": -0.3400000035762787, "groundspeed_mps": 0.03161662071943283}, "flight": {"mode": "STABILIZE", "armed": false}, "ekf": {"attitude": {"roll": -0.023203006014227867, "pitch": 0.00293833389878273, "yaw": -0.22446352243423462}, "local_position": {"x": null, "y": null, "z": null}, "status": {"flags": 135, "velocity_variance": 0.0, "pos_horiz_variance": 0.008088987320661545, "pos_vert_variance": 0.02399236522614956}}, "errors": ["PreArm: RC not found", "PreArm: Compasses inconsistent", "PreArm: RC not found", "PreArm: Compasses inconsistent", "PreArm: RC not found", "PreArm: Compasses inconsistent"]}
{"timestamp": "2026-01-31T12:21:10.946352Z", "telemetry": {"lat": 0.0, "lon": 0.0, "satellites": 0, "altitude_gps_m": -0.3400000035762787, "groundspeed_mps": 0.03072020411491394}, "flight": {"mode": "STABILIZE", "armed": false}, "ekf": {"attitude": {"roll": -0.023190079256892204, "pitch": 0.0030374787747859955, "yaw": -0.22440364956855774}, "local_position": {"x": null, "y": null, "z": null}, "status": {"flags": 135, "velocity_variance": 0.0, "pos_horiz_variance": 0.00785183534026146, "pos_vert_variance": 0.06785798817873001}}, "errors": ["PreArm: RC not found", "PreArm: Compasses inconsistent", "PreArm: RC not found", "PreArm: Compasses inconsistent", "PreArm: RC not found", "PreArm: Compasses inconsistent"]}
{"timestamp": "2026-01-31T12:21:11.946585Z", "telemetry": {"lat": 0.0, "lon": 0.0, "satellites": 0, "altitude_gps_m": -0.3400000035762787, "groundspeed_mps": 0.029304666444659233}, "flight": {"mode": "STABILIZE", "armed": false}, "ekf": {"attitude": {"roll": -0.02318534441292286, "pitch": 0.003152932971715927, "yaw": -0.22431479394435883}, "local_position": {"x": null, "y": null, "z": null}, "status": {"flags": 135, "velocity_variance": 0.0, "pos_horiz_variance": 0.007409506011754274, "pos_vert_variance": 0.01012919656932354}}, "errors": ["PreArm: RC not found", "PreArm: Compasses inconsistent", "PreArm: RC not found", "PreArm: Compasses inconsistent", "PreArm: RC not found", "PreArm: Compasses inconsistent"]}
{"timestamp": "2026-01-31T12:21:12.946099Z", "telemetry": {"lat": 0.0, "lon": 0.0, "satellites": 0, "altitude_gps_m": -0.3400000035762787, "groundspeed_mps": 0.0282084122300148}, "flight": {"mode": "STABILIZE", "armed": false}, "ekf": {"attitude": {"roll": -0.023099763318896294, "pitch": 0.0031785666942596436, "yaw": -0.2243003100156784}, "local_position": {"x": null, "y": null, "z": null}, "status": {"flags": 135, "velocity_variance": 0.0, "pos_horiz_variance": 0.007195399142801762, "pos_vert_variance": 0.023981807753443718}}, "errors": ["PreArm: RC not found", "PreArm: Compasses inconsistent", "PreArm: RC not found", "PreArm: Compasses inconsistent", "PreArm: RC not found", "PreArm: Compasses inconsistent"]}
