{"timestamp": "2026-01-31T12:54:58.463881Z", "telemetry": {"lat": 13.3525237, "lon": 74.8647375, "satellites": 0, "altitude_rel_m": 0.0, "groundspeed_mps": 0.006680997088551521}, "flight": {"mode": "STABILIZE", "armed": false}, "ekf": {"attitude": {"roll": -0.021552588790655136, "pitch": -0.009973369538784027, "yaw": -2.8970398902893066}, "local_position": {"x": null, "y": null, "z": null}, "status": {"flags": 135, "velocity_variance": 0.0, "pos_horiz_variance": 0.001186801353469491, "pos_vert_variance": 0.028103547170758247}}, "errors": []}
{"timestamp": "2026-01-31T12:54:59.446390Z", "telemetry": {"lat": 13.3525237, "lon": 74.8647375, "satellites": 0, "altitude_rel_m": 0.0, "groundspeed_mps": 0.008700763806700706}, "flight": {"mode": "STABILIZE", "armed": false}, "ekf": {"attitude": {"roll": -0.021422840654850006, "pitch": -0.009884538128972054, "yaw": -2.89700984954834}, "local_position": {"x": null, "y": null, "z": null}, "status": {"flags": 135, "velocity_variance": 0.0, "pos_horiz_variance": 0.0013551961164921522, "pos_vert_variance": 0.04772691801190376}}, "errors": []}
{"timestamp": "2026-01-31T12:55:00.446825Z", "telemetry": {"lat": 13.3525237, "lon": 74.8647375, "satellites": 0, "altitude_rel_m": 0.0, "groundspeed_mps": 0.008281744085252285}, "flight": {"mode": "STABILIZE", "armed": false}, "ekf": {"attitude": {"roll": -0.021457871422171593, "pitch": -0.009910769760608673, "yaw": -2.897052764892578}, "local_position": {"x": null, "y": null, "z": null}, "status": {"flags": 135, "velocity_variance": 0.0, "pos_horiz_variance": 0.001701720291748643, "pos_vert_variance": 0.0317506417632103}}, "errors": []}
{"timestamp": "2026-01-31T12:55:01.446787Z", "telemetry": {"lat": 13.3525237, "lon": 74.8647375, "satellites": 0, "altitude_rel_m": 0.0, "groundspeed_mps": 0.008142118342220783}, "flight": {"mode": "STABILIZE", "armed": false}, "ekf": {"attitude": {"roll": -0.021517807617783546, "pitch": -0.009884683415293694, "yaw": -2.8970143795013428}, "local_position": {"x": null, "y": null, "z": null}, "status": {"flags": 135, "velocity_variance": 0.0, "pos_horiz_variance": 0.0018557222792878747, "pos_vert_variance": 0.05910023674368858}}, "errors": []}
{"timestamp": "2026-01-31T12:55:02.446083Z", "telemetry": {"lat": 13.3525237, "lon": 74.8647375, "satellites": 0, "altitude_rel_m": 0.0, "groundspeed_mps": 0.13704819977283478}, "flight": {"mode": "STABILIZE", "armed": false}, "ekf": {"attitude": {"roll": 0.09911332279443741, "pitch": 0.038691144436597824, "yaw": -2.8433797359466553}, "local_position": {"x": null, "y": null, "z": null}, "status": {"flags": 135, "velocity_variance": 0.0, "pos_horiz_variance": 0.0027738665230572224, "pos_vert_variance": 0.046342529356479645}}, "errors": []}
{"timestamp": "2026-01-31T12:55:03.446809Z", "telemetry": {"lat": 13.3525237, "lon": 74.8647375, "satellites": 0, "altitude_rel_m": 0.0, "groundspeed_mps": 0.5244378447532654}, "flight": {"mode": "STABILIZE", "armed": false}, "ekf": {"attitude": {"roll": -0.07672576606273651, "pitch": -0.05219199135899544, "yaw": 2.5461618900299072}, "local_position": {"x": null, "y": null, "z": null}, "status": {"flags": 135, "velocity_variance": 0.0, "pos_horiz_variance": 0.01902494765818119, "pos_vert_variance": 0.02323220483958721}}, "errors": ["PreArm: RC not found", "PreArm: Hardware safety switch", "PreArm: Compasses inconsistent"]}
{"timestamp": "2026-01-31T12:55:04.446446Z", "telemetry": {"lat": 13.3525237, "lon": 74.8647375, "satellites": 0, "altitude_rel_m": 0.0, "groundspeed_mps": 0.38422802090644836}, "flight": {"mode": "STABILIZE", "armed": false}, "ekf": {"attitude": {"roll": -0.06168825551867485, "pitch": 0.014225218445062637, "yaw": 2.751330852508545}, "local_position": {"x": null, "y": null, "z": null}, "status": {"flags": 135, "velocity_variance": 0.0, "pos_horiz_variance": 0.03919665142893791, "pos_vert_variance": 0.011470837518572807}}, "errors": ["PreArm: RC not found", "PreArm: Hardware safety switch", "PreArm: Compasses inconsistent"]}
{"timestamp": "2026-01-31T12:55:05.446378Z", "telemetry": {"lat": 13.3525237, "lon": 74.8647375, "satellites": 0, "altitude_rel_m": 0.0, "groundspeed_mps": 0.19739143550395966}, "flight": {"mode": "STABILIZE", "armed": false}, "ekf": {"attitude": {"roll": -0.0725734680891037, "pitch": -0.02155524492263794, "yaw": 2.797229051589966}, "local_position": {"x": null, "y": null, "z": null}, "status": {"flags": 135, "velocity_variance": 0.0, "pos_horiz_variance": 0.019168157130479813, "pos_vert_variance": 0.04178909957408905}}, "errors": ["PreArm: RC not found", "PreArm: Hardware safety switch", "PreArm: Compasses inconsistent"]}
{"timestamp": "2026-01-31T12:55:06.446769Z", "telemetry": {"lat": 13.3525237, "lon": 74.8647375, "satellites": 0, "altitude_rel_m": 0.0, "groundspeed_mps": 0.20616650581359863}, "flight": {"mode": "STABILIZE", "armed": false}, "ekf": {"attitude": {"roll": -0.0816534236073494, "pitch": -0.0022345371544361115, "yaw": 2.777268886566162}, "local_position": {"x": null, "y": null, "z": null}, "status": {"flags": 135, "velocity_variance": 0.0, "pos_horiz_variance": 0.03629860281944275, "pos_vert_variance": 0.05105822533369064}}, "errors": ["PreArm: RC not found", "PreArm: Hardware safety switch", "PreArm: Compasses inconsistent"]}
{"timestamp": "2026-01-31T12:55:07.445847Z", "telemetry": {"lat": 13.3525237, "lon": 74.8647375, "satellites": 0, "altitude_rel_m": 0.0, "groundspeed_mps": 0.14587511122226715}, "flight": {"mode": "STABILIZE", "armed": false}, "ekf": {"attitude": {"roll": -0.016180485486984253, "pitch": -0.030973471701145172, "yaw": 2.718388557434082}, "local_position": {"x": null, "y": null, "z": null}, "status": {"flags": 135, "velocity_variance": 0.0, "pos_horiz_variance": 0.042322710156440735, "pos_vert_variance": 0.009220325388014317}}, "errors": ["PreArm: RC not found", "PreArm: Hardware safety switch", "PreArm: Compasses inconsistent"]}
{"timestamp": "2026-01-31T12:55:08.446372Z", "telemetry": {"lat": 13.3525237, "lon": 74.8647375, "satellites": 0, "altitude_rel_m": 0.0, "groundspeed_mps": 0.0808320865035057}, "flight": {"mode": "STABILIZE", "armed": false}, "ekf": {"attitude": {"roll": -0.010118832811713219, "pitch": -0.030987534672021866, "yaw": 2.7102222442626953}, "local_position": {"x": null, "y": null, "z": null}, "status": {"flags": 135, "velocity_variance": 0.0, "pos_horiz_variance": 0.03278740495443344, "pos_vert_variance": 0.0014185162726789713}}, "errors": ["PreArm: RC not found", "PreArm: Hardware safety switch", "PreArm: Compasses inconsistent"]}
{"timestamp": "2026-01-31T12:55:09.446385Z", "telemetry": {"lat": 13.3525237, "lon": 74.8647375, "satellites": 0, "altitude_rel_m": 0.0, "groundspeed_mps": 0.03338992968201637}, "flight": {"mode": "STABILIZE", "armed": false}, "ekf": {"attitude": {"roll": 0.00751486886292696, "pitch": -0.05574367195367813, "yaw": 2.6917855739593506}, "local_position": {"x": null, "y": null, "z": null}, "status": {"flags": 135, "velocity_variance": 0.0, "pos_horiz_variance": 0.021474644541740417, "pos_vert_variance": 0.022764896973967552}}, "errors": ["PreArm: RC not found", "PreArm: Hardware safety switch", "PreArm: Compasses inconsistent"]}
{"timestamp": "2026-01-31T12:55:10.446772Z", "telemetry": {"lat": 13.3525237, "lon": 74.8647375, "satellites": 0, "altitude_rel_m": 0.0, "groundspeed_mps": 0.12392960488796234}, "flight": {"mode": "STABILIZE", "armed": false}, "ekf": {"attitude": {"roll": 0.179818794131279, "pitch": 0.10513345897197723, "yaw": -2.9943110942840576}, "local_position": {"x": null, "y": null, "z": null}, "status": {"flags": 135, "velocity_variance": 0.0, "pos_horiz_variance": 0.07159234583377838, "pos_vert_variance": 0.023492485284805298}}, "errors": ["PreArm: RC not found", "PreArm: Hardware safety switch", "PreArm: Compasses inconsistent"]}
{"timestamp": "2026-01-31T12:55:11.446642Z", "telemetry": {"lat": 13.3525237, "lon": 74.8647375, "satellites": 0, "altitude_rel_m": 0.0, "groundspeed_mps": 0.39031562209129333}, "flight": {"mode": "STABILIZE", "armed": false}, "ekf": {"attitude": {"roll": 0.17207272350788116, "pitch": -0.034896120429039, "yaw": -2.9104254245758057}, "local_position": {"x": null, "y": null, "z": null}, "status": {"flags": 135, "velocity_variance": 0.0, "pos_horiz_variance": 0.008978419005870819, "pos_vert_variance": 0.051859065890312195}}, "errors": ["PreArm: RC not found", "PreArm: Hardware safety switch", "PreArm: Compasses inconsistent"]}
{"timestamp": "2026-01-31T12:55:12.446335Z", "telemetry": {"lat": 13.3525237, "lon": 74.8647375, "satellites": 0, "altitude_rel_m": 0.0, "groundspeed_mps": 0.36643949151039124}, "flight": {"mode": "STABILIZE", "armed": false}, "ekf": {"attitude": {"roll": -0.009918734431266785, "pitch": -0.019529441371560097, "yaw": -2.875216007232666}, "local_position": {"x": null, "y": null, "z": null}, "status": {"flags": 135, "velocity_variance": 0.0, "pos_horiz_variance": 0.052227333188056946, "pos_vert_variance": 0.024302247911691666}}, "errors": ["PreArm: RC not found", "PreArm: Hardware safety switch", "PreArm: Compasses inconsistent"]}
{"timestamp": "2026-01-31T12:55:13.446979Z", "telemetry": {"lat": 13.3525237, "lon": 74.8647375, "satellites": 0, "altitude_rel_m": 0.0, "groundspeed_mps": 0.3182131350040436}, "flight": {"mode": "STABILIZE", "armed": false}, "ekf": {"attitude": {"roll": -0.012096277438104153, "pitch": -0.017606738954782486, "yaw": -2.875544786453247}, "local_position": {"x": null, "y": null, "z": null}, "status": {"flags": 135, "velocity_variance": 0.0, "pos_horiz_variance": 0.06973935663700104, "pos_vert_variance": 0.027031050994992256}}, "errors": ["PreArm: RC not found", "PreArm: Hardware safety switch", "PreArm: Compasses inconsistent"]}
{"timestamp": "2026-01-31T12:55:14.446116Z", "telemetry": {"lat": 13.3525237, "lon": 74.8647375, "satellites": 0, "altitude_rel_m": 0.0, "groundspeed_mps": 0.23037326335906982}, "flight": {"mode": "STABILIZE", "armed": false}, "ekf": {"attitude": {"roll": -0.01485312171280384, "pitch": -0.01585492119193077, "yaw": -2.8760859966278076}, "local_position": {"x": null, "y": null, "z": null}, "status": {"flags": 135, "velocity_variance": 0.0, "pos_horiz_variance": 0.0641854777932167, "pos_vert_variance": 0.007148859556764364}}, "errors": ["PreArm: RC not found", "PreArm: Hardware safety switch", "PreArm: Compasses inconsistent"]}
{"timestamp": "2026-01-31T12:55:15.446798Z", "telemetry": {"lat": 13.3525237, "lon": 74.8647375, "satellites": 0, "altitude_rel_m": 0.0, "groundspeed_mps": 0.13555394113063812}, "flight": {"mode": "STABILIZE", "armed": false}, "ekf": {"attitude": {"roll": -0.017330054193735123, "pitch": -0.014316456392407417, "yaw": -2.876585006713867}, "local_position": {"x": null, "y": null, "z": null}, "status": {"flags": 135, "velocity_variance": 0.0, "pos_horiz_variance": 0.05410672351717949, "pos_vert_variance": 0.02868429571390152}}, "errors": ["PreArm: RC not found", "PreArm: Hardware safety switch", "PreArm: Compasses inconsistent"]}
{"timestamp": "2026-01-31T12:55:16.446387Z", "telemetry": {"lat": 13.3525237, "lon": 74.8647375, "satellites": 0, "altitude_rel_m": 0.0, "groundspeed_mps": 0.055816903710365295}, "flight": {"mode": "STABILIZE", "armed": false}, "ekf": {"attitude": {"roll": -0.019317587837576866, "pitch": -0.013290593400597572, "yaw": -2.8769307136535645}, "local_position": {"x": null, "y": null, "z": null}, "status": {"flags": 135, "velocity_variance": 0.0, "pos_horiz_variance": 0.03656259551644325, "pos_vert_variance": 0.034624941647052765}}, "errors": ["PreArm: RC not found", "PreArm: Hardware safety switch", "PreArm: Compasses inconsistent"]}
{"timestamp": "2026-01-31T12:55:17.446201Z", "telemetry": {"lat": 13.3525237, "lon": 74.8647375, "satellites": 0, "altitude_rel_m": 0.0, "groundspeed_mps": 0.002351952251046896}, "flight": {"mode": "STABILIZE", "armed": false}, "ekf": {"attitude": {"roll": -0.020786767825484276, "pitch": -0.012509142979979515, "yaw": -2.8770289421081543}, "local_position": {"x": null, "y": null, "z": null}, "status": {"flags": 135, "velocity_variance": 0.0, "pos_horiz_variance": 0.01586780697107315, "pos_vert_variance": 0.0003761120606213808}}, "errors": ["PreArm: RC not found", "PreArm: Hardware safety switch", "PreArm: Compasses inconsistent"]}
{"timestamp": "2026-01-31T12:55:18.446568Z", "telemetry": {"lat": 13.3525237, "lon": 74.8647375, "satellites": 0, "altitude_rel_m": 0.0, "groundspeed_mps": 0.03257592394948006}, "flight": {"mode": "STABILIZE", "armed": false}, "ekf": {"attitude": {"roll": -0.021506980061531067, "pitch": -0.012033900246024132, "yaw": -2.8770627975463867}, "local_position": {"x": null, "y": null, "z": null}, "status": {"flags": 135, "velocity_variance": 0.0, "pos_horiz_variance": 0.004314040765166283, "pos_vert_variance": 0.036240022629499435}}, "errors": ["PreArm: RC not found", "PreArm: Hardware safety switch", "PreArm: Compasses inconsistent"]}
{"timestamp": "2026-01-31T12:55:19.446862Z", "telemetry": {"lat": 13.3525237, "lon": 74.8647375, "satellites": 0, "altitude_rel_m": 0.0, "groundspeed_mps": 0.046343039721250534}, "flight": {"mode": "STABILIZE", "armed": false}, "ekf": {"attitude": {"roll": -0.021799486130475998, "pitch": -0.011894367635250092, "yaw": -2.876922845840454}, "local_position": {"x": null, "y": null, "z": null}, "status": {"flags": 135, "velocity_variance": 0.0, "pos_horiz_variance": 0.0018116086721420288, "pos_vert_variance": 0.007213664706796408}}, "errors": ["PreArm: RC not found", "PreArm: Hardware safety switch", "PreArm: Compasses inconsistent"]}
{"timestamp": "2026-01-31T12:55:20.446874Z", "telemetry": {"lat": 13.3525237, "lon": 74.8647375, "satellites": 0, "altitude_rel_m": 0.0, "groundspeed_mps": 0.048213016241788864}, "flight": {"mode": "STABILIZE", "armed": false}, "ekf": {"attitude": {"roll": -0.021755050867795944, "pitch": -0.011777214705944061, "yaw": -2.8768138885498047}, "local_position": {"x": null, "y": null, "z": null}, "status": {"flags": 135, "velocity_variance": 0.0, "pos_horiz_variance": 0.007168433163315058, "pos_vert_variance": 0.008879716508090496}}, "errors": ["PreArm: RC not found", "PreArm: Hardware safety switch", "PreArm: Compasses inconsistent"]}
{"timestamp": "2026-01-31T12:55:21.446434Z", "telemetry": {"lat": 13.3525237, "lon": 74.8647375, "satellites": 0, "altitude_rel_m": 0.0, "groundspeed_mps": 0.04738559573888779}, "flight": {"mode": "STABILIZE", "armed": false}, "ekf": {"attitude": {"roll": -0.021465908735990524, "pitch": -0.011742813512682915, "yaw": -2.8768928050994873}, "local_position": {"x": null, "y": null, "z": null}, "status": {"flags": 135, "velocity_variance": 0.0, "pos_horiz_variance": 0.008363469503819942, "pos_vert_variance": 0.011913479305803776}}, "errors": ["PreArm: RC not found", "PreArm: Hardware safety switch", "PreArm: Compasses inconsistent"]}
{"timestamp": "2026-01-31T12:55:22.446417Z", "telemetry": {"lat": 13.3525237, "lon": 74.8647375, "satellites": 0, "altitude_rel_m": 0.0, "groundspeed_mps": 0.03872760757803917}, "flight": {"mode": "STABILIZE", "armed": false}, "ekf": {"attitude": {"roll": -0.021235022693872452, "pitch": -0.011932555586099625, "yaw": -2.8768606185913086}, "local_position": {"x": null, "y": null, "z": null}, "status": {"flags": 135, "velocity_variance": 0.0, "pos_horiz_variance": 0.009096945635974407, "pos_vert_variance": 0.02332223951816559}}, "errors": ["PreArm: RC not found", "PreArm: Hardware safety switch", "PreArm: Compasses inconsistent"]}
{"timestamp": "2026-01-31T12:55:23.446831Z", "telemetry": {"lat": 13.3525237, "lon": 74.8647375, "satellites": 0, "altitude_rel_m": 0.0, "groundspeed_mps": 0.026114406064152718}, "flight": {"mode": "STABILIZE", "armed": false}, "ekf": {"attitude": {"roll": -0.020838893949985504, "pitch": -0.01211225800216198, "yaw": -2.876727342605591}, "local_position": {"x": null, "y": null, "z": null}, "status": {"flags": 135, "velocity_variance": 0.0, "pos_horiz_variance": 0.007547084242105484, "pos_vert_variance": 0.0038874901365488768}}, "errors": ["PreArm: RC not found", "PreArm: Hardware safety switch", "PreArm: Compasses inconsistent"]}
{"timestamp": "2026-01-31T12:55:24.446554Z", "telemetry": {"lat": 13.3525237, "lon": 74.8647375, "satellites": 0, "altitude_rel_m": 0.0, "groundspeed_mps": 0.016255969181656837}, "flight": {"mode": "STABILIZE", "armed": false}, "ekf": {"attitude": {"roll": -0.02063690312206745, "pitch": -0.01217908039689064, "yaw": -2.8765063285827637}, "local_position": {"x": null, "y": null, "z": null}, "status": {"flags": 135, "velocity_variance": 0.0, "pos_horiz_variance": 0.006066774018108845, "pos_vert_variance": 0.011977639980614185}}, "errors": ["PreArm: RC not found", "PreArm: Hardware safety switch", "PreArm: Compasses inconsistent"]}
{"timestamp": "2026-01-31T12:55:25.446234Z", "telemetry": {"lat": 13.3525237, "lon": 74.8647375, "satellites": 0, "altitude_rel_m": 0.0, "groundspeed_mps": 0.010437633842229843}, "flight": {"mode": "STABILIZE", "armed": false}, "ekf": {"attitude": {"roll": -0.020637353882193565, "pitch": -0.012254849076271057, "yaw": -2.8765063285827637}, "local_position": {"x": null, "y": null, "z": null}, "status": {"flags": 135, "velocity_variance": 0.0, "pos_horiz_variance": 0.00415079714730382, "pos_vert_variance": 0.0005924079450778663}}, "errors": ["PreArm: RC not found", "PreArm: Hardware safety switch", "PreArm: Compasses inconsistent"]}
{"timestamp": "2026-01-31T12:55:26.446358Z", "telemetry": {"lat": 13.3525237, "lon": 74.8647375, "satellites": 0, "altitude_rel_m": 0.0, "groundspeed_mps": 0.008833770640194416}, "flight": {"mode": "STABILIZE", "armed": false}, "ekf": {"attitude": {"roll": -0.020632388070225716, "pitch": -0.012337090447545052, "yaw": -2.876408100128174}, "local_position": {"x": null, "y": null, "z": null}, "status": {"flags": 135, "velocity_variance": 0.0, "pos_horiz_variance": 0.0028214859776198864, "pos_vert_variance": 0.07055586576461792}}, "errors": ["PreArm: RC not found", "PreArm: Hardware safety switch", "PreArm: Compasses inconsistent"]}
{"timestamp": "2026-01-31T12:55:27.446500Z", "telemetry": {"lat": 13.3525237, "lon": 74.8647375, "satellites": 0, "altitude_rel_m": 0.0, "groundspeed_mps": 0.00844601634889841}, "flight": {"mode": "STABILIZE", "armed": false}, "ekf": {"attitude": {"roll": -0.020615126937627792, "pitch": -0.01240997202694416, "yaw": -2.8764007091522217}, "local_position": {"x": null, "y": null, "z": null}, "status": {"flags": 135, "velocity_variance": 0.0, "pos_horiz_variance": 0.002380962250754237, "pos_vert_variance": 0.05988151580095291}}, "errors": ["PreArm: RC not found", "PreArm: Hardware safety switch", "PreArm: Compasses inconsistent"]}
{"timestamp": "2026-01-31T12:55:28.446086Z", "telemetry": {"lat": 13.3525237, "lon": 74.8647375, "satellites": 0, "altitude_rel_m": 0.0, "groundspeed_mps": 0.006307699251919985}, "flight": {"mode": "STABILIZE", "armed": false}, "ekf": {"attitude": {"roll": -0.020582135766744614, "pitch": -0.012407490983605385, "yaw": -2.8762433528900146}, "local_position": {"x": null, "y": null, "z": null}, "status": {"flags": 135, "velocity_variance": 0.0, "pos_horiz_variance": 0.002157451817765832, "pos_vert_variance": 0.03806731849908829}}, "errors": ["PreArm: RC not found", "PreArm: Hardware safety switch", "PreArm: Compasses inconsistent"]}
{"timestamp": "2026-01-31T12:55:29.446779Z", "telemetry": {"lat": 13.3525237, "lon": 74.8647375, "satellites": 0, "altitude_rel_m": 0.0, "groundspeed_mps": 0.005424718838185072}, "flight": {"mode": "STABILIZE", "armed": false}, "ekf": {"attitude": {"roll": -0.020694419741630554, "pitch": -0.012395033612847328, "yaw": -2.8762412071228027}, "local_position": {"x": null, "y": null, "z": null}, "status": {"flags": 135, "velocity_variance": 0.0, "pos_horiz_variance": 0.0018056196859106421, "pos_vert_variance": 0.03048078902065754}}, "errors": ["PreArm: RC not found", "PreArm: Hardware safety switch", "PreArm: Compasses inconsistent"]}
{"timestamp": "2026-01-31T12:55:30.446428Z", "telemetry": {"lat": 13.3525237, "lon": 74.8647375, "satellites": 0, "altitude_rel_m": 0.0, "groundspeed_mps": 0.007711431942880154}, "flight": {"mode": "STABILIZE", "armed": false}, "ekf": {"attitude": {"roll": -0.02064625732600689, "pitch": -0.01231355033814907, "yaw": -2.8762834072113037}, "local_position": {"x": null, "y": null, "z": null}, "status": {"flags": 135, "velocity_variance": 0.0, "pos_horiz_variance": 0.0016703094588592649, "pos_vert_variance": 0.018697688356041908}}, "errors": ["PreArm: RC not found", "PreArm: Hardware safety switch", "PreArm: Compasses inconsistent"]}
{"timestamp": "2026-01-31T12:55:31.446526Z", "telemetry": {"lat": 13.3525237, "lon": 74.8647375, "satellites": 0, "altitude_rel_m": 0.0, "groundspeed_mps": 0.009003262035548687}, "flight": {"mode": "STABILIZE", "armed": false}, "ekf": {"attitude": {"roll": -0.02074839361011982, "pitch": -0.01223810389637947, "yaw": -2.876272439956665}, "local_position": {"x": null, "y": null, "z": null}, "status": {"flags": 135, "velocity_variance": 0.0, "pos_horiz_variance": 0.0018861115677282214, "pos_vert_variance": 0.004860060755163431}}, "errors": ["PreArm: RC not found", "PreArm: Hardware safety switch", "PreArm: Compasses inconsistent"]}
{"timestamp": "2026-01-31T12:55:32.446615Z", "telemetry": {"lat": 13.3525237, "lon": 74.8647375, "satellites": 0, "altitude_rel_m": 0.0, "groundspeed_mps": 0.010459608398377895}, "flight": {"mode": "STABILIZE", "armed": false}, "ekf": {"attitude": {"roll": -0.02080092765390873, "pitch": -0.012142855674028397, "yaw": -2.8762288093566895}, "local_position": {"x": null, "y": null, "z": null}, "status": {"flags": 135, "velocity_variance": 0.0, "pos_horiz_variance": 0.002222167793661356, "pos_vert_variance": 0.022908447310328484}}, "errors": ["PreArm: RC not found", "PreArm: Hardware safety switch", "PreArm: Compasses inconsistent"]}
{"timestamp": "2026-01-31T12:55:33.446575Z", "telemetry": {"lat": 13.3525237, "lon": 74.8647375, "satellites": 0, "altitude_rel_m": 0.0, "groundspeed_mps": 0.013799015432596207}, "flight": {"mode": "STABILIZE", "armed": false}, "ekf": {"attitude": {"roll": -0.020776847377419472, "pitch": -0.01220725104212761, "yaw": -2.8761534690856934}, "local_position": {"x": null, "y": null, "z": null}, "status": {"flags": 135, "velocity_variance": 0.0, "pos_horiz_variance": 0.0026891184970736504, "pos_vert_variance": 0.03387392312288284}}, "errors": ["PreArm: RC not found", "PreArm: Hardware safety switch", "PreArm: Compasses inconsistent"]}
{"timestamp": "2026-01-31T12:55:34.446941Z", "telemetry": {"lat": 13.3525237, "lon": 74.8647375, "satellites": 0, "altitude_rel_m": 0.0, "groundspeed_mps": 0.013376520946621895}, "flight": {"mode": "STABILIZE", "armed": false}, "ekf": {"attitude": {"roll": -0.020757285878062248, "pitch": -0.012191640213131905, "yaw": -2.8760879039764404}, "local_position": {"x": null, "y": null, "z": null}, "status": {"flags": 135, "velocity_variance": 0.0, "pos_horiz_variance": 0.002941192127764225, "pos_vert_variance": 0.012050876393914223}}, "errors": ["PreArm: RC not found", "PreArm: Hardware safety switch", "PreArm: Compasses inconsistent", "PreArm: RC not found", "PreArm: Hardware safety switch", "PreArm: Compasses inconsistent"]}
{"timestamp": "2026-01-31T12:55:35.446716Z", "telemetry": {"lat": 13.3525237, "lon": 74.8647375, "satellites": 0, "altitude_rel_m": 0.0, "groundspeed_mps": 0.013459516689181328}, "flight": {"mode": "STABILIZE", "armed": false}, "ekf": {"attitude": {"roll": -0.020755596458911896, "pitch": -0.012188691645860672, "yaw": -2.876030683517456}, "local_position": {"x": null, "y": null, "z": null}, "status": {"flags": 135, "velocity_variance": 0.0, "pos_horiz_variance": 0.0030297385528683662, "pos_vert_variance": 0.005356829613447189}}, "errors": ["PreArm: RC not found", "PreArm: Hardware safety switch", "PreArm: Compasses inconsistent", "PreArm: RC not found", "PreArm: Hardware safety switch", "PreArm: Compasses inconsistent"]}
{"timestamp": "2026-01-31T12:55:36.446702Z", "telemetry": {"lat": 13.3525237, "lon": 74.8647375, "satellites": 0, "altitude_rel_m": 0.0, "groundspeed_mps": 0.013831852003932}, "flight": {"mode": "STABILIZE", "armed": false}, "ekf": {"attitude": {"roll": -0.020773950964212418, "pitch": -0.012209858745336533, "yaw": -2.875941753387451}, "local_position": {"x": null, "y": null, "z": null}, "status": {"flags": 135, "velocity_variance": 0.0, "pos_horiz_variance": 0.0030536954291164875, "pos_vert_variance": 0.0812971219420433}}, "errors": ["PreArm: RC not found", "PreArm: Hardware safety switch", "PreArm: Compasses inconsistent", "PreArm: RC not found", "PreArm: Hardware safety switch", "PreArm: Compasses inconsistent"]}
{"timestamp": "2026-01-31T12:55:37.446539Z", "telemetry": {"lat": 13.3525237, "lon": 74.8647375, "satellites": 0, "altitude_rel_m": 0.0, "groundspeed_mps": 0.012856469489634037}, "flight": {"mode": "STABILIZE", "armed": false}, "ekf": {"attitude": {"roll": -0.02064068801701069, "pitch": -0.012039022520184517, "yaw": -2.8757362365722656}, "local_position": {"x": null, "y": null, "z": null}, "status": {"flags": 135, "velocity_variance": 0.0, "pos_horiz_variance": 0.0032215288374572992, "pos_vert_variance": 0.13066521286964417}}, "errors": ["PreArm: RC not found", "PreArm: Hardware safety switch", "PreArm: Compasses inconsistent", "PreArm: RC not found", "PreArm: Hardware safety switch", "PreArm: Compasses inconsistent"]}
{"timestamp": "2026-01-31T12:55:38.446441Z", "telemetry": {"lat": 13.3525237, "lon": 74.8647375, "satellites": 0, "altitude_rel_m": 0.0, "groundspeed_mps": 0.013484125025570393}, "flight": {"mode": "STABILIZE", "armed": false}, "ekf": {"attitude": {"roll": -0.020566578954458237, "pitch": -0.011980608105659485, "yaw": -2.8757662773132324}, "local_position": {"x": null, "y": null, "z": null}, "status": {"flags": 135, "velocity_variance": 0.0, "pos_horiz_variance": 0.0032862441148608923, "pos_vert_variance": 0.07627083361148834}}, "errors": ["PreArm: RC not found", "PreArm: Hardware safety switch", "PreArm: Compasses inconsistent", "PreArm: RC not found", "PreArm: Hardware safety switch", "PreArm: Compasses inconsistent"]}
{"timestamp": "2026-01-31T12:55:39.446289Z", "telemetry": {"lat": 13.3525237, "lon": 74.8647375, "satellites": 0, "altitude_rel_m": 0.0, "groundspeed_mps": 0.010724061168730259}, "flight": {"mode": "STABILIZE", "armed": false}, "ekf": {"attitude": {"roll": -0.02052219957113266, "pitch": -0.012004692107439041, "yaw": -2.8756065368652344}, "local_position": {"x": null, "y": null, "z": null}, "status": {"flags": 135, "velocity_variance": 0.0, "pos_horiz_variance": 0.0029489046428352594, "pos_vert_variance": 0.11040454357862473}}, "errors": ["PreArm: RC not found", "PreArm: Hardware safety switch", "PreArm: Compasses inconsistent", "PreArm: RC not found", "PreArm: Hardware safety switch", "PreArm: Compasses inconsistent"]}
{"timestamp": "2026-01-31T12:55:40.446770Z", "telemetry": {"lat": 13.3525237, "lon": 74.8647375, "satellites": 0, "altitude_rel_m": 0.0, "groundspeed_mps": 0.009880905039608479}, "flight": {"mode": "STABILIZE", "armed": false}, "ekf": {"attitude": {"roll": -0.020399004220962524, "pitch": -0.012118680402636528, "yaw": -2.875575542449951}, "local_position": {"x": null, "y": null, "z": null}, "status": {"flags": 135, "velocity_variance": 0.0, "pos_horiz_variance": 0.002684926148504019, "pos_vert_variance": 0.03718384727835655}}, "errors": ["PreArm: RC not found", "PreArm: Hardware safety switch", "PreArm: Compasses inconsistent", "PreArm: RC not found", "PreArm: Hardware safety switch", "PreArm: Compasses inconsistent"]}
{"timestamp": "2026-01-31T12:55:41.446016Z", "telemetry": {"lat": 13.3525237, "lon": 74.8647375, "satellites": 0, "altitude_rel_m": 0.0, "groundspeed_mps": 0.006986181251704693}, "flight": {"mode": "STABILIZE", "armed": false}, "ekf": {"attitude": {"roll": -0.020406750962138176, "pitch": -0.012202790006995201, "yaw": -2.8754451274871826}, "local_position": {"x": null, "y": null, "z": null}, "status": {"flags": 135, "velocity_variance": 0.0, "pos_horiz_variance": 0.0024217611644417048, "pos_vert_variance": 0.020147336646914482}}, "errors": ["PreArm: RC not found", "PreArm: Hardware safety switch", "PreArm: Compasses inconsistent", "PreArm: RC not found", "PreArm: Hardware safety switch", "PreArm: Compasses inconsistent"]}
{"timestamp": "2026-01-31T12:55:42.446210Z", "telemetry": {"lat": 13.3525237, "lon": 74.8647375, "satellites": 0, "altitude_rel_m": 0.0, "groundspeed_mps": 0.006980294361710548}, "flight": {"mode": "STABILIZE", "armed": false}, "ekf": {"attitude": {"roll": -0.02040678635239601, "pitch": -0.012167729437351227, "yaw": -2.8756000995635986}, "local_position": {"x": null, "y": null, "z": null}, "status": {"flags": 135, "velocity_variance": 0.0, "pos_horiz_variance": 0.0018807161832228303, "pos_vert_variance": 0.05915495753288269}}, "errors": ["PreArm: RC not found", "PreArm: Hardware safety switch", "PreArm: Compasses inconsistent", "PreArm: RC not found", "PreArm: Hardware safety switch", "PreArm: Compasses inconsistent"]}
{"timestamp": "2026-01-31T12:55:43.446388Z", "telemetry": {"lat": 13.3525237, "lon": 74.8647375, "satellites": 0, "altitude_rel_m": 0.0, "groundspeed_mps": 0.005335425492376089}, "flight": {"mode": "STABILIZE", "armed": false}, "ekf": {"attitude": {"roll": -0.020444609224796295, "pitch": -0.012217076495289803, "yaw": -2.875626564025879}, "local_position": {"x": null, "y": null, "z": null}, "status": {"flags": 135, "velocity_variance": 0.0, "pos_horiz_variance": 0.0015256241895258427, "pos_vert_variance": 0.05678362399339676}}, "errors": ["PreArm: RC not found", "PreArm: Hardware safety switch", "PreArm: Compasses inconsistent", "PreArm: RC not found", "PreArm: Hardware safety switch", "PreArm: Compasses inconsistent"]}
{"timestamp": "2026-01-31T12:55:44.446066Z", "telemetry": {"lat": 13.3525237, "lon": 74.8647375, "satellites": 0, "altitude_rel_m": 0.0, "groundspeed_mps": 0.006669118069112301}, "flight": {"mode": "STABILIZE", "armed": false}, "ekf": {"attitude": {"roll": -0.02050776407122612, "pitch": -0.012216154485940933, "yaw": -2.875552177429199}, "local_position": {"x": null, "y": null, "z": null}, "status": {"flags": 135, "velocity_variance": 0.0, "pos_horiz_variance": 0.0014225122286006808, "pos_vert_variance": 0.005121155641973019}}, "errors": ["PreArm: RC not found", "PreArm: Hardware safety switch", "PreArm: Compasses inconsistent", "PreArm: RC not found", "PreArm: Hardware safety switch", "PreArm: Compasses inconsistent"]}
{"timestamp": "2026-01-31T12:55:45.446988Z", "telemetry": {"lat": 13.3525237, "lon": 74.8647375, "satellites": 0, "altitude_rel_m": 0.0, "groundspeed_mps": 0.009789163246750832}, "flight": {"mode": "STABILIZE", "armed": false}, "ekf": {"attitude": {"roll": -0.020502721890807152, "pitch": -0.012253139168024063, "yaw": -2.8754918575286865}, "local_position": {"x": null, "y": null, "z": null}, "status": {"flags": 135, "velocity_variance": 0.0, "pos_horiz_variance": 0.001861328026279807, "pos_vert_variance": 0.002657342469319701}}, "errors": ["PreArm: RC not found", "PreArm: Hardware safety switch", "PreArm: Compasses inconsistent", "PreArm: RC not found", "PreArm: Hardware safety switch", "PreArm: Compasses inconsistent"]}
{"timestamp": "2026-01-31T12:55:46.446210Z", "telemetry": {"lat": 13.3525237, "lon": 74.8647375, "satellites": 0, "altitude_rel_m": 0.0, "groundspeed_mps": 0.012019533663988113}, "flight": {"mode": "STABILIZE", "armed": false}, "ekf": {"attitude": {"roll": -0.020464204251766205, "pitch": -0.012178359553217888, "yaw": -2.875422239303589}, "local_position": {"x": null, "y": null, "z": null}, "status": {"flags": 135, "velocity_variance": 0.0, "pos_horiz_variance": 0.002450263360515237, "pos_vert_variance": 0.016318438574671745}}, "errors": ["PreArm: RC not found", "PreArm: Hardware safety switch", "PreArm: Compasses inconsistent", "PreArm: RC not found", "PreArm: Hardware safety switch", "PreArm: Compasses inconsistent"]}
{"timestamp": "2026-01-31T12:55:47.446591Z", "telemetry": {"lat": 13.3525237, "lon": 74.8647375, "satellites": 0, "altitude_rel_m": 0.0, "groundspeed_mps": 0.011872353963553905}, "flight": {"mode": "STABILIZE", "armed": false}, "ekf": {"attitude": {"roll": -0.02054583467543125, "pitch": -0.012204628437757492, "yaw": -2.875474214553833}, "local_position": {"x": null, "y": null, "z": null}, "status": {"flags": 135, "velocity_variance": 0.0, "pos_horiz_variance": 0.0025087830144912004, "pos_vert_variance": 0.014461343176662922}}, "errors": ["PreArm: RC not found", "PreArm: Hardware safety switch", "PreArm: Compasses inconsistent", "PreArm: RC not found", "PreArm: Hardware safety switch", "PreArm: Compasses inconsistent"]}
{"timestamp": "2026-01-31T12:55:48.446434Z", "telemetry": {"lat": 13.3525237, "lon": 74.8647375, "satellites": 0, "altitude_rel_m": 0.0, "groundspeed_mps": 0.008484707213938236}, "flight": {"mode": "STABILIZE", "armed": false}, "ekf": {"attitude": {"roll": -0.0204374548047781, "pitch": -0.012237003073096275, "yaw": -2.875507354736328}, "local_position": {"x": null, "y": null, "z": null}, "status": {"flags": 135, "velocity_variance": 0.0, "pos_horiz_variance": 0.0025549258571118116, "pos_vert_variance": 0.0675080269575119}}, "errors": ["PreArm: RC not found", "PreArm: Hardware safety switch", "PreArm: Compasses inconsistent", "PreArm: RC not found", "PreArm: Hardware safety switch", "PreArm: Compasses inconsistent"]}
{"timestamp": "2026-01-31T12:55:49.446265Z", "telemetry": {"lat": 13.3525237, "lon": 74.8647375, "satellites": 0, "altitude_rel_m": 0.0, "groundspeed_mps": 0.0076669128611683846}, "flight": {"mode": "STABILIZE", "armed": false}, "ekf": {"attitude": {"roll": -0.02030598185956478, "pitch": -0.012303998693823814, "yaw": -2.875406265258789}, "local_position": {"x": null, "y": null, "z": null}, "status": {"flags": 135, "velocity_variance": 0.0, "pos_horiz_variance": 0.002045935019850731, "pos_vert_variance": 0.008290627971291542}}, "errors": ["PreArm: RC not found", "PreArm: Hardware safety switch", "PreArm: Compasses inconsistent", "PreArm: RC not found", "PreArm: Hardware safety switch", "PreArm: Compasses inconsistent"]}
{"timestamp": "2026-01-31T12:55:50.446926Z", "telemetry": {"lat": 13.3525237, "lon": 74.8647375, "satellites": 0, "altitude_rel_m": 0.0, "groundspeed_mps": 0.0057018958032131195}, "flight": {"mode": "STABILIZE", "armed": false}, "ekf": {"attitude": {"roll": -0.02038538083434105, "pitch": -0.012297533452510834, "yaw": -2.875279188156128}, "local_position": {"x": null, "y": null, "z": null}, "status": {"flags": 135, "velocity_variance": 0.0, "pos_horiz_variance": 0.0018757390789687634, "pos_vert_variance": 0.041926562786102295}}, "errors": ["PreArm: RC not found", "PreArm: Hardware safety switch", "PreArm: Compasses inconsistent", "PreArm: RC not found", "PreArm: Hardware safety switch", "PreArm: Compasses inconsistent"]}
{"timestamp": "2026-01-31T12:55:51.446483Z", "telemetry": {"lat": 13.3525237, "lon": 74.8647375, "satellites": 0, "altitude_rel_m": 0.0, "groundspeed_mps": 0.007093911059200764}, "flight": {"mode": "STABILIZE", "armed": false}, "ekf": {"attitude": {"roll": -0.02041279338300228, "pitch": -0.012329567223787308, "yaw": -2.8753397464752197}, "local_position": {"x": null, "y": null, "z": null}, "status": {"flags": 135, "velocity_variance": 0.0, "pos_horiz_variance": 0.0016976466868072748, "pos_vert_variance": 0.01291320938616991}}, "errors": ["PreArm: RC not found", "PreArm: Hardware safety switch", "PreArm: Compasses inconsistent", "PreArm: RC not found", "PreArm: Hardware safety switch", "PreArm: Compasses inconsistent"]}
{"timestamp": "2026-01-31T12:55:52.446127Z", "telemetry": {"lat": 13.3525237, "lon": 74.8647375, "satellites": 0, "altitude_rel_m": 0.0, "groundspeed_mps": 0.006392002571374178}, "flight": {"mode": "STABILIZE", "armed": false}, "ekf": {"attitude": {"roll": -0.020412107929587364, "pitch": -0.01231289654970169, "yaw": -2.8752028942108154}, "local_position": {"x": null, "y": null, "z": null}, "status": {"flags": 135, "velocity_variance": 0.0, "pos_horiz_variance": 0.0017468438018113375, "pos_vert_variance": 0.017093123868107796}}, "errors": ["PreArm: RC not found", "PreArm: Hardware safety switch", "PreArm: Compasses inconsistent", "PreArm: RC not found", "PreArm: Hardware safety switch", "PreArm: Compasses inconsistent"]}
{"timestamp": "2026-01-31T12:55:53.446206Z", "telemetry": {"lat": 13.3525237, "lon": 74.8647375, "satellites": 0, "altitude_rel_m": 0.0, "groundspeed_mps": 0.004610993433743715}, "flight": {"mode": "STABILIZE", "armed": false}, "ekf": {"attitude": {"roll": -0.020374584943056107, "pitch": -0.012254668399691582, "yaw": -2.8751885890960693}, "local_position": {"x": null, "y": null, "z": null}, "status": {"flags": 135, "velocity_variance": 0.0, "pos_horiz_variance": 0.0015381179982796311, "pos_vert_variance": 0.00565895764157176}}, "errors": ["PreArm: RC not found", "PreArm: Hardware safety switch", "PreArm: Compasses inconsistent", "PreArm: RC not found", "PreArm: Hardware safety switch", "PreArm: Compasses inconsistent"]}
{"timestamp": "2026-01-31T12:55:54.446792Z", "telemetry": {"lat": 13.3525237, "lon": 74.8647375, "satellites": 0, "altitude_rel_m": 0.0, "groundspeed_mps": 0.005191282834857702}, "flight": {"mode": "STABILIZE", "armed": false}, "ekf": {"attitude": {"roll": -0.02030787244439125, "pitch": -0.012310607358813286, "yaw": -2.875230312347412}, "local_position": {"x": null, "y": null, "z": null}, "status": {"flags": 135, "velocity_variance": 0.0, "pos_horiz_variance": 0.0013658966636285186, "pos_vert_variance": 0.01102480385452509}}, "errors": ["PreArm: RC not found", "PreArm: Hardware safety switch", "PreArm: Compasses inconsistent", "PreArm: RC not found", "PreArm: Hardware safety switch", "PreArm: Compasses inconsistent"]}
{"timestamp": "2026-01-31T12:55:55.446929Z", "telemetry": {"lat": 13.3525237, "lon": 74.8647375, "satellites": 0, "altitude_rel_m": 0.0, "groundspeed_mps": 0.005056072026491165}, "flight": {"mode": "STABILIZE", "armed": false}, "ekf": {"attitude": {"roll": -0.020287293940782547, "pitch": -0.012332314625382423, "yaw": -2.875258684158325}, "local_position": {"x": null, "y": null, "z": null}, "status": {"flags": 135, "velocity_variance": 0.0, "pos_horiz_variance": 0.0011959196999669075, "pos_vert_variance": 0.028060419484972954}}, "errors": ["PreArm: RC not found", "PreArm: Hardware safety switch", "PreArm: Compasses inconsistent", "PreArm: RC not found", "PreArm: Hardware safety switch", "PreArm: Compasses inconsistent"]}
{"timestamp": "2026-01-31T12:55:56.446699Z", "telemetry": {"lat": 13.3525237, "lon": 74.8647375, "satellites": 0, "altitude_rel_m": 0.0, "groundspeed_mps": 0.006729211658239365}, "flight": {"mode": "STABILIZE", "armed": false}, "ekf": {"attitude": {"roll": -0.020372211933135986, "pitch": -0.012304527685046196, "yaw": -2.8751440048217773}, "local_position": {"x": null, "y": null, "z": null}, "status": {"flags": 135, "velocity_variance": 0.0, "pos_horiz_variance": 0.0012336077634245157, "pos_vert_variance": 0.05992083251476288}}, "errors": ["PreArm: RC not found", "PreArm: Hardware safety switch", "PreArm: Compasses inconsistent", "PreArm: RC not found", "PreArm: Hardware safety switch", "PreArm: Compasses inconsistent"]}
{"timestamp": "2026-01-31T12:55:57.446044Z", "telemetry": {"lat": 13.3525237, "lon": 74.8647375, "satellites": 0, "altitude_rel_m": 0.0, "groundspeed_mps": 0.0077625904232263565}, "flight": {"mode": "STABILIZE", "armed": false}, "ekf": {"attitude": {"roll": -0.020306622609496117, "pitch": -0.012255808338522911, "yaw": -2.8749301433563232}, "local_position": {"x": null, "y": null, "z": null}, "status": {"flags": 135, "velocity_variance": 0.0, "pos_horiz_variance": 0.0015737288631498814, "pos_vert_variance": 0.1010977029800415}}, "errors": ["PreArm: RC not found", "PreArm: Hardware safety switch", "PreArm: Compasses inconsistent", "PreArm: RC not found", "PreArm: Hardware safety switch", "PreArm: Compasses inconsistent"]}
{"timestamp": "2026-01-31T12:55:58.446958Z", "telemetry": {"lat": 13.3525237, "lon": 74.8647375, "satellites": 0, "altitude_rel_m": 0.0, "groundspeed_mps": 0.0075181229040026665}, "flight": {"mode": "STABILIZE", "armed": false}, "ekf": {"attitude": {"roll": -0.020330723375082016, "pitch": -0.01221248134970665, "yaw": -2.875135898590088}, "local_position": {"x": null, "y": null, "z": null}, "status": {"flags": 135, "velocity_variance": 0.0, "pos_horiz_variance": 0.0017334800213575363, "pos_vert_variance": 0.07223197817802429}}, "errors": ["PreArm: RC not found", "PreArm: Hardware safety switch", "PreArm: Compasses inconsistent", "PreArm: RC not found", "PreArm: Hardware safety switch", "PreArm: Compasses inconsistent"]}
{"timestamp": "2026-01-31T12:55:59.446324Z", "telemetry": {"lat": 13.3525237, "lon": 74.8647375, "satellites": 0, "altitude_rel_m": 0.0, "groundspeed_mps": 0.007202657405287027}, "flight": {"mode": "STABILIZE", "armed": false}, "ekf": {"attitude": {"roll": -0.020274460315704346, "pitch": -0.012159306555986404, "yaw": -2.8751230239868164}, "local_position": {"x": null, "y": null, "z": null}, "status": {"flags": 135, "velocity_variance": 0.0, "pos_horiz_variance": 0.0017255634302273393, "pos_vert_variance": 0.09254232794046402}}, "errors": ["PreArm: RC not found", "PreArm: Hardware safety switch", "PreArm: Compasses inconsistent", "PreArm: RC not found", "PreArm: Hardware safety switch", "PreArm: Compasses inconsistent"]}
{"timestamp": "2026-01-31T12:56:00.446629Z", "telemetry": {"lat": 13.3525237, "lon": 74.8647375, "satellites": 0, "altitude_rel_m": 0.0, "groundspeed_mps": 0.005657767876982689}, "flight": {"mode": "STABILIZE", "armed": false}, "ekf": {"attitude": {"roll": -0.020252419635653496, "pitch": -0.012144951149821281, "yaw": -2.874988079071045}, "local_position": {"x": null, "y": null, "z": null}, "status": {"flags": 135, "velocity_variance": 0.0, "pos_horiz_variance": 0.0017374604940414429, "pos_vert_variance": 0.06655124574899673}}, "errors": ["PreArm: RC not found", "PreArm: Hardware safety switch", "PreArm: Compasses inconsistent", "PreArm: RC not found", "PreArm: Hardware safety switch", "PreArm: Compasses inconsistent"]}
{"timestamp": "2026-01-31T12:56:01.446236Z", "telemetry": {"lat": 13.3525237, "lon": 74.8647375, "satellites": 0, "altitude_rel_m": 0.0, "groundspeed_mps": 0.006897186394780874}, "flight": {"mode": "STABILIZE", "armed": false}, "ekf": {"attitude": {"roll": -0.020137371495366096, "pitch": -0.012157674878835678, "yaw": -2.874945640563965}, "local_position": {"x": null, "y": null, "z": null}, "status": {"flags": 135, "velocity_variance": 0.0, "pos_horiz_variance": 0.0015290086157619953, "pos_vert_variance": 0.06551551073789597}}, "errors": ["PreArm: RC not found", "PreArm: Hardware safety switch", "PreArm: Compasses inconsistent", "PreArm: RC not found", "PreArm: Hardware safety switch", "PreArm: Compasses inconsistent"]}
{"timestamp": "2026-01-31T12:56:02.446878Z", "telemetry": {"lat": 13.3525237, "lon": 74.8647375, "satellites": 0, "altitude_rel_m": 0.0, "groundspeed_mps": 0.0059074517339468}, "flight": {"mode": "STABILIZE", "armed": false}, "ekf": {"attitude": {"roll": -0.020195750519633293, "pitch": -0.012152615934610367, "yaw": -2.874927282333374}, "local_position": {"x": null, "y": null, "z": null}, "status": {"flags": 135, "velocity_variance": 0.0, "pos_horiz_variance": 0.0016373016405850649, "pos_vert_variance": 0.017966626212000847}}, "errors": ["PreArm: RC not found", "PreArm: Hardware safety switch", "PreArm: Compasses inconsistent", "PreArm: RC not found", "PreArm: Hardware safety switch", "PreArm: Compasses inconsistent"]}
{"timestamp": "2026-01-31T12:56:03.446876Z", "telemetry": {"lat": 13.3525237, "lon": 74.8647375, "satellites": 0, "altitude_rel_m": 0.0, "groundspeed_mps": 0.009331733919680119}, "flight": {"mode": "STABILIZE", "armed": false}, "ekf": {"attitude": {"roll": -0.020195262506604195, "pitch": -0.012178944423794746, "yaw": -2.874929428100586}, "local_position": {"x": null, "y": null, "z": null}, "status": {"flags": 135, "velocity_variance": 0.0, "pos_horiz_variance": 0.0017348109977319837, "pos_vert_variance": 0.022973310202360153}}, "errors": ["PreArm: RC not found", "PreArm: Hardware safety switch", "PreArm: Compasses inconsistent", "PreArm: RC not found", "PreArm: Hardware safety switch", "PreArm: Compasses inconsistent"]}
{"timestamp": "2026-01-31T12:56:04.446878Z", "telemetry": {"lat": 13.3525237, "lon": 74.8647375, "satellites": 0, "altitude_rel_m": 0.0, "groundspeed_mps": 0.010677355341613293}, "flight": {"mode": "STABILIZE", "armed": false}, "ekf": {"attitude": {"roll": -0.0201361533254385, "pitch": -0.012147674337029457, "yaw": -2.8749468326568604}, "local_position": {"x": null, "y": null, "z": null}, "status": {"flags": 135, "velocity_variance": 0.0, "pos_horiz_variance": 0.0022112687584012747, "pos_vert_variance": 0.037828948348760605}}, "errors": ["PreArm: RC not found", "PreArm: Hardware safety switch", "PreArm: Compasses inconsistent", "PreArm: RC not found", "PreArm: Hardware safety switch", "PreArm: Compasses inconsistent"]}
{"timestamp": "2026-01-31T12:56:05.446553Z", "telemetry": {"lat": 13.3525237, "lon": 74.8647375, "satellites": 0, "altitude_rel_m": 0.0, "groundspeed_mps": 0.00942111387848854}, "flight": {"mode": "STABILIZE", "armed": false}, "ekf": {"attitude": {"roll": -0.020075922831892967, "pitch": -0.012191418558359146, "yaw": -2.875033378601074}, "local_position": {"x": null, "y": null, "z": null}, "status": {"flags": 135, "velocity_variance": 0.0, "pos_horiz_variance": 0.002363551175221801, "pos_vert_variance": 0.021547963842749596}}, "errors": ["PreArm: RC not found", "PreArm: Hardware safety switch", "PreArm: Compasses inconsistent", "PreArm: RC not found", "PreArm: Hardware safety switch", "PreArm: Compasses inconsistent", "PreArm: RC not found", "PreArm: Hardware safety switch", "PreArm: Compasses inconsistent"]}
{"timestamp": "2026-01-31T12:56:06.446365Z", "telemetry": {"lat": 13.3525237, "lon": 74.8647375, "satellites": 0, "altitude_rel_m": 0.0, "groundspeed_mps": 0.006653817370533943}, "flight": {"mode": "STABILIZE", "armed": false}, "ekf": {"attitude": {"roll": -0.020029623061418533, "pitch": -0.012276427820324898, "yaw": -2.8751184940338135}, "local_position": {"x": null, "y": null, "z": null}, "status": {"flags": 135, "velocity_variance": 0.0, "pos_horiz_variance": 0.0021191274281591177, "pos_vert_variance": 0.03197851777076721}}, "errors": ["PreArm: RC not found", "PreArm: Hardware safety switch", "PreArm: Compasses inconsistent", "PreArm: RC not found", "PreArm: Hardware safety switch", "PreArm: Compasses inconsistent", "PreArm: RC not found", "PreArm: Hardware safety switch", "PreArm: Compasses inconsistent"]}
{"timestamp": "2026-01-31T12:56:07.446044Z", "telemetry": {"lat": 13.3525237, "lon": 74.8647375, "satellites": 0, "altitude_rel_m": 0.0, "groundspeed_mps": 0.0066801863722503185}, "flight": {"mode": "STABILIZE", "armed": false}, "ekf": {"attitude": {"roll": -0.02003294974565506, "pitch": -0.01229512132704258, "yaw": -2.875051498413086}, "local_position": {"x": null, "y": null, "z": null}, "status": {"flags": 135, "velocity_variance": 0.0, "pos_horiz_variance": 0.0017614028183743358, "pos_vert_variance": 0.02409834787249565}}, "errors": ["PreArm: RC not found", "PreArm: Hardware safety switch", "PreArm: Compasses inconsistent", "PreArm: RC not found", "PreArm: Hardware safety switch", "PreArm: Compasses inconsistent", "PreArm: RC not found", "PreArm: Hardware safety switch", "PreArm: Compasses inconsistent"]}
{"timestamp": "2026-01-31T12:56:08.446877Z", "telemetry": {"lat": 13.3525237, "lon": 74.8647375, "satellites": 0, "altitude_rel_m": 0.0, "groundspeed_mps": 0.0071198055520653725}, "flight": {"mode": "STABILIZE", "armed": false}, "ekf": {"attitude": {"roll": -0.02003568969666958, "pitch": -0.012342298403382301, "yaw": -2.875027656555176}, "local_position": {"x": null, "y": null, "z": null}, "status": {"flags": 135, "velocity_variance": 0.0, "pos_horiz_variance": 0.001770095550455153, "pos_vert_variance": 0.12125714123249054}}, "errors": ["PreArm: RC not found", "PreArm: Hardware safety switch", "PreArm: Compasses inconsistent", "PreArm: RC not found", "PreArm: Hardware safety switch", "PreArm: Compasses inconsistent", "PreArm: RC not found", "PreArm: Hardware safety switch", "PreArm: Compasses inconsistent"]}
{"timestamp": "2026-01-31T12:56:09.446956Z", "telemetry": {"lat": 13.3525237, "lon": 74.8647375, "satellites": 0, "altitude_rel_m": 0.0, "groundspeed_mps": 0.005998746957629919}, "flight": {"mode": "STABILIZE", "armed": false}, "ekf": {"attitude": {"roll": -0.0200188085436821, "pitch": -0.01247897744178772, "yaw": -2.875119209289551}, "local_position": {"x": null, "y": null, "z": null}, "status": {"flags": 135, "velocity_variance": 0.0, "pos_horiz_variance": 0.0017857711063697934, "pos_vert_variance": 0.10788056254386902}}, "errors": ["PreArm: RC not found", "PreArm: Hardware safety switch", "PreArm: Compasses inconsistent", "PreArm: RC not found", "PreArm: Hardware safety switch", "PreArm: Compasses inconsistent", "PreArm: RC not found", "PreArm: Hardware safety switch", "PreArm: Compasses inconsistent"]}
{"timestamp": "2026-01-31T12:56:10.446384Z", "telemetry": {"lat": 13.3525237, "lon": 74.8647375, "satellites": 0, "altitude_rel_m": 0.0, "groundspeed_mps": 0.005306074395775795}, "flight": {"mode": "STABILIZE", "armed": false}, "ekf": {"attitude": {"roll": -0.020196182653307915, "pitch": -0.012595206499099731, "yaw": -2.875316619873047}, "local_position": {"x": null, "y": null, "z": null}, "status": {"flags": 135, "velocity_variance": 0.0, "pos_horiz_variance": 0.0015038513811305165, "pos_vert_variance": 0.05497297644615173}}, "errors": ["PreArm: RC not found", "PreArm: Hardware safety switch", "PreArm: Compasses inconsistent", "PreArm: RC not found", "PreArm: Hardware safety switch", "PreArm: Compasses inconsistent", "PreArm: RC not found", "PreArm: Hardware safety switch", "PreArm: Compasses inconsistent"]}
{"timestamp": "2026-01-31T12:56:11.446136Z", "telemetry": {"lat": 13.3525237, "lon": 74.8647375, "satellites": 0, "altitude_rel_m": 0.0, "groundspeed_mps": 0.0017455082852393389}, "flight": {"mode": "STABILIZE", "armed": false}, "ekf": {"attitude": {"roll": -0.020278118550777435, "pitch": -0.012591484934091568, "yaw": -2.8753159046173096}, "local_position": {"x": null, "y": null, "z": null}, "status": {"flags": 135, "velocity_variance": 0.0, "pos_horiz_variance": 0.0012252727756276727, "pos_vert_variance": 0.022217370569705963}}, "errors": ["PreArm: RC not found", "PreArm: Hardware safety switch", "PreArm: Compasses inconsistent", "PreArm: RC not found", "PreArm: Hardware safety switch", "PreArm: Compasses inconsistent", "PreArm: RC not found", "PreArm: Hardware safety switch", "PreArm: Compasses inconsistent"]}
{"timestamp": "2026-01-31T12:56:12.445943Z", "telemetry": {"lat": 13.3525237, "lon": 74.8647375, "satellites": 0, "altitude_rel_m": 0.0, "groundspeed_mps": 0.0021010248456150293}, "flight": {"mode": "STABILIZE", "armed": false}, "ekf": {"attitude": {"roll": -0.020338984206318855, "pitch": -0.012562243267893791, "yaw": -2.8752341270446777}, "local_position": {"x": null, "y": null, "z": null}, "status": {"flags": 135, "velocity_variance": 0.0, "pos_horiz_variance": 0.0006270551821216941, "pos_vert_variance": 6.258588655327912e-06}}, "errors": ["PreArm: RC not found", "PreArm: Hardware safety switch", "PreArm: Compasses inconsistent", "PreArm: RC not found", "PreArm: Hardware safety switch", "PreArm: Compasses inconsistent", "PreArm: RC not found", "PreArm: Hardware safety switch", "PreArm: Compasses inconsistent"]}
{"timestamp": "2026-01-31T12:56:13.446637Z", "telemetry": {"lat": 13.3525237, "lon": 74.8647375, "satellites": 0, "altitude_rel_m": 0.0, "groundspeed_mps": 0.006105620414018631}, "flight": {"mode": "STABILIZE", "armed": false}, "ekf": {"attitude": {"roll": -0.020318496972322464, "pitch": -0.012570047751069069, "yaw": -2.8751606941223145}, "local_position": {"x": null, "y": null, "z": null}, "status": {"flags": 135, "velocity_variance": 0.0, "pos_horiz_variance": 0.0004179570241831243, "pos_vert_variance": 0.035222530364990234}}, "errors": ["PreArm: RC not found", "PreArm: Hardware safety switch", "PreArm: Compasses inconsistent", "PreArm: RC not found", "PreArm: Hardware safety switch", "PreArm: Compasses inconsistent", "PreArm: RC not found", "PreArm: Hardware safety switch", "PreArm: Compasses inconsistent"]}
{"timestamp": "2026-01-31T12:56:14.446150Z", "telemetry": {"lat": 13.3525237, "lon": 74.8647375, "satellites": 0, "altitude_rel_m": 0.0, "groundspeed_mps": 0.008652148768305779}, "flight": {"mode": "STABILIZE", "armed": false}, "ekf": {"attitude": {"roll": -0.020251719281077385, "pitch": -0.01253228448331356, "yaw": -2.8753066062927246}, "local_position": {"x": null, "y": null, "z": null}, "status": {"flags": 135, "velocity_variance": 0.0, "pos_horiz_variance": 0.0012080760207027197, "pos_vert_variance": 0.048365216702222824}}, "errors": ["PreArm: RC not found", "PreArm: Hardware safety switch", "PreArm: Compasses inconsistent", "PreArm: RC not found", "PreArm: Hardware safety switch", "PreArm: Compasses inconsistent", "PreArm: RC not found", "PreArm: Hardware safety switch", "PreArm: Compasses inconsistent"]}
{"timestamp": "2026-01-31T12:56:15.445961Z", "telemetry": {"lat": 13.3525237, "lon": 74.8647375, "satellites": 0, "altitude_rel_m": 0.0, "groundspeed_mps": 0.0075481245294213295}, "flight": {"mode": "STABILIZE", "armed": false}, "ekf": {"attitude": {"roll": -0.020251644775271416, "pitch": -0.012513482943177223, "yaw": -2.8752493858337402}, "local_position": {"x": null, "y": null, "z": null}, "status": {"flags": 135, "velocity_variance": 0.0, "pos_horiz_variance": 0.001737220911309123, "pos_vert_variance": 0.021703893318772316}}, "errors": ["PreArm: RC not found", "PreArm: Hardware safety switch", "PreArm: Compasses inconsistent", "PreArm: RC not found", "PreArm: Hardware safety switch", "PreArm: Compasses inconsistent", "PreArm: RC not found", "PreArm: Hardware safety switch", "PreArm: Compasses inconsistent"]}
{"timestamp": "2026-01-31T12:56:16.446165Z", "telemetry": {"lat": 13.3525237, "lon": 74.8647375, "satellites": 0, "altitude_rel_m": 0.0, "groundspeed_mps": 0.003252663416787982}, "flight": {"mode": "STABILIZE", "armed": false}, "ekf": {"attitude": {"roll": -0.02003704197704792, "pitch": -0.012520713731646538, "yaw": -2.8753533363342285}, "local_position": {"x": null, "y": null, "z": null}, "status": {"flags": 135, "velocity_variance": 0.0, "pos_horiz_variance": 0.001347009907476604, "pos_vert_variance": 0.020705953240394592}}, "errors": ["PreArm: RC not found", "PreArm: Hardware safety switch", "PreArm: Compasses inconsistent", "PreArm: RC not found", "PreArm: Hardware safety switch", "PreArm: Compasses inconsistent", "PreArm: RC not found", "PreArm: Hardware safety switch", "PreArm: Compasses inconsistent"]}
{"timestamp": "2026-01-31T12:56:17.446227Z", "telemetry": {"lat": 13.3525237, "lon": 74.8647375, "satellites": 0, "altitude_rel_m": 0.0, "groundspeed_mps": 0.002107206266373396}, "flight": {"mode": "STABILIZE", "armed": false}, "ekf": {"attitude": {"roll": -0.020005350932478905, "pitch": -0.012332513928413391, "yaw": -2.875490665435791}, "local_position": {"x": null, "y": null, "z": null}, "status": {"flags": 135, "velocity_variance": 0.0, "pos_horiz_variance": 0.000719419913366437, "pos_vert_variance": 0.03854518011212349}}, "errors": ["PreArm: RC not found", "PreArm: Hardware safety switch", "PreArm: Compasses inconsistent", "PreArm: RC not found", "PreArm: Hardware safety switch", "PreArm: Compasses inconsistent", "PreArm: RC not found", "PreArm: Hardware safety switch", "PreArm: Compasses inconsistent"]}
{"timestamp": "2026-01-31T12:56:18.446060Z", "telemetry": {"lat": 13.3525237, "lon": 74.8647375, "satellites": 0, "altitude_rel_m": 0.0, "groundspeed_mps": 0.0057089379988610744}, "flight": {"mode": "STABILIZE", "armed": false}, "ekf": {"attitude": {"roll": -0.01992981508374214, "pitch": -0.012239942327141762, "yaw": -2.875375986099243}, "local_position": {"x": null, "y": null, "z": null}, "status": {"flags": 135, "velocity_variance": 0.0, "pos_horiz_variance": 0.0004748227947857231, "pos_vert_variance": 0.05235515162348747}}, "errors": ["PreArm: RC not found", "PreArm: Hardware safety switch", "PreArm: Compasses inconsistent", "PreArm: RC not found", "PreArm: Hardware safety switch", "PreArm: Compasses inconsistent", "PreArm: RC not found", "PreArm: Hardware safety switch", "PreArm: Compasses inconsistent"]}
{"timestamp": "2026-01-31T12:56:19.446104Z", "telemetry": {"lat": 13.3525237, "lon": 74.8647375, "satellites": 0, "altitude_rel_m": 0.0, "groundspeed_mps": 0.008122161962091923}, "flight": {"mode": "STABILIZE", "armed": false}, "ekf": {"attitude": {"roll": -0.019918331876397133, "pitch": -0.01220763474702835, "yaw": -2.8752994537353516}, "local_position": {"x": null, "y": null, "z": null}, "status": {"flags": 135, "velocity_variance": 0.0, "pos_horiz_variance": 0.001313030836172402, "pos_vert_variance": 0.035978395491838455}}, "errors": ["PreArm: RC not found", "PreArm: Hardware safety switch", "PreArm: Compasses inconsistent", "PreArm: RC not found", "PreArm: Hardware safety switch", "PreArm: Compasses inconsistent", "PreArm: RC not found", "PreArm: Hardware safety switch", "PreArm: Compasses inconsistent"]}
{"timestamp": "2026-01-31T12:56:20.446719Z", "telemetry": {"lat": 13.3525237, "lon": 74.8647375, "satellites": 0, "altitude_rel_m": 0.0, "groundspeed_mps": 0.008713377639651299}, "flight": {"mode": "STABILIZE", "armed": false}, "ekf": {"attitude": {"roll": -0.02003343403339386, "pitch": -0.012101897969841957, "yaw": -2.875188112258911}, "local_position": {"x": null, "y": null, "z": null}, "status": {"flags": 135, "velocity_variance": 0.0, "pos_horiz_variance": 0.0016890839906409383, "pos_vert_variance": 0.01873154193162918}}, "errors": ["PreArm: RC not found", "PreArm: Hardware safety switch", "PreArm: Compasses inconsistent", "PreArm: RC not found", "PreArm: Hardware safety switch", "PreArm: Compasses inconsistent", "PreArm: RC not found", "PreArm: Hardware safety switch", "PreArm: Compasses inconsistent"]}
{"timestamp": "2026-01-31T12:56:21.446643Z", "telemetry": {"lat": 13.3525237, "lon": 74.8647375, "satellites": 0, "altitude_rel_m": 0.0, "groundspeed_mps": 0.00810349453240633}, "flight": {"mode": "STABILIZE", "armed": false}, "ekf": {"attitude": {"roll": -0.02000337466597557, "pitch": -0.012004191055893898, "yaw": -2.8752262592315674}, "local_position": {"x": null, "y": null, "z": null}, "status": {"flags": 135, "velocity_variance": 0.0, "pos_horiz_variance": 0.0016023308271542192, "pos_vert_variance": 0.08812934160232544}}, "errors": ["PreArm: RC not found", "PreArm: Hardware safety switch", "PreArm: Compasses inconsistent", "PreArm: RC not found", "PreArm: Hardware safety switch", "PreArm: Compasses inconsistent", "PreArm: RC not found", "PreArm: Hardware safety switch", "PreArm: Compasses inconsistent"]}
{"timestamp": "2026-01-31T12:56:22.446258Z", "telemetry": {"lat": 13.3525237, "lon": 74.8647375, "satellites": 0, "altitude_rel_m": 0.0, "groundspeed_mps": 0.013132971711456776}, "flight": {"mode": "STABILIZE", "armed": false}, "ekf": {"attitude": {"roll": -0.020074475556612015, "pitch": -0.011958321556448936, "yaw": -2.8751914501190186}, "local_position": {"x": null, "y": null, "z": null}, "status": {"flags": 135, "velocity_variance": 0.0, "pos_horiz_variance": 0.002170332008972764, "pos_vert_variance": 0.020176801830530167}}, "errors": ["PreArm: RC not found", "PreArm: Hardware safety switch", "PreArm: Compasses inconsistent", "PreArm: RC not found", "PreArm: Hardware safety switch", "PreArm: Compasses inconsistent", "PreArm: RC not found", "PreArm: Hardware safety switch", "PreArm: Compasses inconsistent"]}
