{"timestamp": "2026-01-31T07:33:17.843774Z", "telemetry": {"lat": 13.3545963, "lon": 74.8648177, "satellites": 13, "altitude_gps_m": 40.64999771118164, "groundspeed_mps": 0.027724139392375946}, "flight": {"mode": "LOITER", "armed": true}, "ekf": {"attitude": {"roll": -0.03605281561613083, "pitch": -0.029334748163819313, "yaw": 2.2996561527252197}, "local_position": {"x": -0.5311692953109741, "y": -1.582773208618164, "z": 1.1544841527938843}, "status": {"flags": 831, "velocity_variance": 0.017987491562962532, "pos_horiz_variance": 0.008983757346868515, "pos_vert_variance": 0.016318440437316895}}, "errors": []}
{"timestamp": "2026-01-31T07:33:18.832441Z", "telemetry": {"lat": 13.354596, "lon": 74.864818, "satellites": 13, "altitude_gps_m": 40.68000030517578, "groundspeed_mps": 0.03024967946112156}, "flight": {"mode": "LOITER", "armed": true}, "ekf": {"attitude": {"roll": -0.03599908575415611, "pitch": -0.02970200404524803, "yaw": 2.299985647201538}, "local_position": {"x": -0.5302360653877258, "y": -1.5643298625946045, "z": 1.1286954879760742}, "status": {"flags": 831, "velocity_variance": 0.030577244237065315, "pos_horiz_variance": 0.010475649498403072, "pos_vert_variance": 0.01322406530380249}}, "errors": []}
{"timestamp": "2026-01-31T07:33:19.761481Z", "telemetry": {"lat": 13.3545958, "lon": 74.8648185, "satellites": 13, "altitude_gps_m": 40.68000030517578, "groundspeed_mps": 0.03216279670596123}, "flight": {"mode": "LOITER", "armed": true}, "ekf": {"attitude": {"roll": -0.03593270853161812, "pitch": -0.030086025595664978, "yaw": 2.2998576164245605}, "local_position": {"x": -0.552821695804596, "y": -1.5267529487609863, "z": 1.1276333332061768}, "status": {"flags": 831, "velocity_variance": 0.017574789002537727, "pos_horiz_variance": 0.012001734226942062, "pos_vert_variance": 0.009573765099048615}}, "errors": []}
{"timestamp": "2026-01-31T07:33:20.733985Z", "telemetry": {"lat": 13.3545957, "lon": 74.8648192, "satellites": 13, "altitude_gps_m": 40.65999984741211, "groundspeed_mps": 0.041521020233631134}, "flight": {"mode": "LOITER", "armed": true}, "ekf": {"attitude": {"roll": -0.03618656098842621, "pitch": -0.03009161166846752, "yaw": 2.2998952865600586}, "local_position": {"x": -0.5565889477729797, "y": -1.4764446020126343, "z": 1.1404258012771606}, "status": {"flags": 831, "velocity_variance": 0.04526350647211075, "pos_horiz_variance": 0.01465409155935049, "pos_vert_variance": 0.010118570178747177}}, "errors": []}
{"timestamp": "2026-01-31T07:33:21.694729Z", "telemetry": {"lat": 13.3545956, "lon": 74.8648198, "satellites": 13, "altitude_gps_m": 40.64999771118164, "groundspeed_mps": 0.05072780326008797}, "flight": {"mode": "LOITER", "armed": true}, "ekf": {"attitude": {"roll": -0.03629331290721893, "pitch": -0.030363574624061584, "yaw": 2.299852132797241}, "local_position": {"x": -0.5700979828834534, "y": -1.4017345905303955, "z": 1.1604068279266357}, "status": {"flags": 831, "velocity_variance": 0.033852044492959976, "pos_horiz_variance": 0.01478266716003418, "pos_vert_variance": 0.01779777742922306}}, "errors": []}
{"timestamp": "2026-01-31T07:33:22.694605Z", "telemetry": {"lat": 13.3545955, "lon": 74.8648202, "satellites": 13, "altitude_gps_m": 40.65999984741211, "groundspeed_mps": 0.05303294211626053}, "flight": {"mode": "LOITER", "armed": true}, "ekf": {"attitude": {"roll": -0.036187976598739624, "pitch": -0.0302851814776659, "yaw": 2.299670457839966}, "local_position": {"x": -0.5768004059791565, "y": -1.3646180629730225, "z": 1.15727698802948}, "status": {"flags": 831, "velocity_variance": 0.03794243559241295, "pos_horiz_variance": 0.01511863712221384, "pos_vert_variance": 0.01762106828391552}}, "errors": []}
{"timestamp": "2026-01-31T07:33:23.695080Z", "telemetry": {"lat": 13.3545954, "lon": 74.8648207, "satellites": 13, "altitude_gps_m": 40.71999740600586, "groundspeed_mps": 0.04577673599123955}, "flight": {"mode": "LOITER", "armed": true}, "ekf": {"attitude": {"roll": -0.0361187718808651, "pitch": -0.030245959758758545, "yaw": 2.29966402053833}, "local_position": {"x": -0.5634439587593079, "y": -1.3154983520507812, "z": 1.0993436574935913}, "status": {"flags": 831, "velocity_variance": 0.03207593038678169, "pos_horiz_variance": 0.01576114073395729, "pos_vert_variance": 0.026518121361732483}}, "errors": []}
{"timestamp": "2026-01-31T07:33:24.695780Z", "telemetry": {"lat": 13.3545951, "lon": 74.8648213, "satellites": 13, "altitude_gps_m": 40.7599983215332, "groundspeed_mps": 0.04297666996717453}, "flight": {"mode": "LOITER", "armed": false}, "ekf": {"attitude": {"roll": -0.035520121455192566, "pitch": -0.03009943664073944, "yaw": 2.299752712249756}, "local_position": {"x": -0.5990058183670044, "y": -1.2702833414077759, "z": 1.0400694608688354}, "status": {"flags": 831, "velocity_variance": 0.04305245727300644, "pos_horiz_variance": 0.018602143973112106, "pos_vert_variance": 0.02114679291844368}}, "errors": []}
{"timestamp": "2026-01-31T07:33:25.696120Z", "telemetry": {"lat": 13.3545944, "lon": 74.8648218, "satellites": 13, "altitude_gps_m": 40.77000045776367, "groundspeed_mps": 0.0409492589533329}, "flight": {"mode": "LOITER", "armed": false}, "ekf": {"attitude": {"roll": -0.035483039915561676, "pitch": -0.029738985002040863, "yaw": 2.2997162342071533}, "local_position": {"x": -0.6296479105949402, "y": -1.2201755046844482, "z": 1.0386314392089844}, "status": {"flags": 831, "velocity_variance": 0.03671519085764885, "pos_horiz_variance": 0.020857417955994606, "pos_vert_variance": 0.026510311290621758}}, "errors": []}
{"timestamp": "2026-01-31T07:33:26.696655Z", "telemetry": {"lat": 13.3545938, "lon": 74.8648224, "satellites": 13, "altitude_gps_m": 40.80999755859375, "groundspeed_mps": 0.04184228554368019}, "flight": {"mode": "LOITER", "armed": false}, "ekf": {"attitude": {"roll": -0.03536302596330643, "pitch": -0.029814109206199646, "yaw": 2.2997195720672607}, "local_position": {"x": -0.6754453182220459, "y": -1.1636743545532227, "z": 0.9938781261444092}, "status": {"flags": 831, "velocity_variance": 0.02766019105911255, "pos_horiz_variance": 0.02336331084370613, "pos_vert_variance": 0.03072367236018181}}, "errors": []}
{"timestamp": "2026-01-31T07:33:27.697417Z", "telemetry": {"lat": 13.3545934, "lon": 74.8648227, "satellites": 13, "altitude_gps_m": 40.869998931884766, "groundspeed_mps": 0.0542304664850235}, "flight": {"mode": "LOITER", "armed": false}, "ekf": {"attitude": {"roll": -0.03539750352501869, "pitch": -0.029528629034757614, "yaw": 2.299600839614868}, "local_position": {"x": -0.7537832856178284, "y": -1.1176491975784302, "z": 0.936038613319397}, "status": {"flags": 831, "velocity_variance": 0.042152658104896545, "pos_horiz_variance": 0.02127111703157425, "pos_vert_variance": 0.02536177448928356}}, "errors": []}
{"timestamp": "2026-01-31T07:33:28.697827Z", "telemetry": {"lat": 13.3545937, "lon": 74.864823, "satellites": 13, "altitude_gps_m": 40.91999816894531, "groundspeed_mps": 0.0399884358048439}, "flight": {"mode": "LOITER", "armed": true}, "ekf": {"attitude": {"roll": -0.03548349812626839, "pitch": -0.029553890228271484, "yaw": 2.2995247840881348}, "local_position": {"x": -0.778449535369873, "y": -1.0803614854812622, "z": 0.8861321806907654}, "status": {"flags": 831, "velocity_variance": 0.019581634551286697, "pos_horiz_variance": 0.018292363733053207, "pos_vert_variance": 0.016934525221586227}}, "errors": []}
{"timestamp": "2026-01-31T07:33:29.698930Z", "telemetry": {"lat": 13.3545939, "lon": 74.8648234, "satellites": 13, "altitude_gps_m": 40.95000076293945, "groundspeed_mps": 0.04086223989725113}, "flight": {"mode": "LOITER", "armed": true}, "ekf": {"attitude": {"roll": -0.035542335361242294, "pitch": -0.02960165962576866, "yaw": 2.2995378971099854}, "local_position": {"x": -0.7920646667480469, "y": -1.0084644556045532, "z": 0.8506757616996765}, "status": {"flags": 831, "velocity_variance": 0.041745733469724655, "pos_horiz_variance": 0.015134946443140507, "pos_vert_variance": 0.015288898721337318}}, "errors": []}
{"timestamp": "2026-01-31T07:33:30.698929Z", "telemetry": {"lat": 13.3545941, "lon": 74.8648234, "satellites": 13, "altitude_gps_m": 40.959999084472656, "groundspeed_mps": 0.03415066376328468}, "flight": {"mode": "LOITER", "armed": true}, "ekf": {"attitude": {"roll": -0.03574250638484955, "pitch": -0.029861055314540863, "yaw": 2.2997307777404785}, "local_position": {"x": -0.8019829988479614, "y": -0.9696547389030457, "z": 0.8447427153587341}, "status": {"flags": 831, "velocity_variance": 0.04752384498715401, "pos_horiz_variance": 0.01030005794018507, "pos_vert_variance": 0.00890447199344635}}, "errors": []}
{"timestamp": "2026-01-31T07:33:31.699491Z", "telemetry": {"lat": 13.3545941, "lon": 74.8648232, "satellites": 13, "altitude_gps_m": 40.959999084472656, "groundspeed_mps": 0.03067876771092415}, "flight": {"mode": "LOITER", "armed": true}, "ekf": {"attitude": {"roll": -0.035612259060144424, "pitch": -0.03018774464726448, "yaw": 2.299626111984253}, "local_position": {"x": -0.7993850708007812, "y": -0.9447494149208069, "z": 0.8476459383964539}, "status": {"flags": 831, "velocity_variance": 0.036723919212818146, "pos_horiz_variance": 0.006621109787374735, "pos_vert_variance": 0.01147498656064272}}, "errors": []}
{"timestamp": "2026-01-31T07:33:32.700745Z", "telemetry": {"lat": 13.3545942, "lon": 74.8648227, "satellites": 13, "altitude_gps_m": 40.96999740600586, "groundspeed_mps": 0.01729135401546955}, "flight": {"mode": "LOITER", "armed": true}, "ekf": {"attitude": {"roll": -0.035268500447273254, "pitch": -0.030307766050100327, "yaw": 2.2996280193328857}, "local_position": {"x": -0.8044314980506897, "y": -0.9503970742225647, "z": 0.8323269486427307}, "status": {"flags": 831, "velocity_variance": 0.02545720711350441, "pos_horiz_variance": 0.003064605873078108, "pos_vert_variance": 0.010300317779183388}}, "errors": []}
{"timestamp": "2026-01-31T07:33:33.702116Z", "telemetry": {"lat": 13.3545942, "lon": 74.8648225, "satellites": 13, "altitude_gps_m": 40.97999954223633, "groundspeed_mps": 0.02572733908891678}, "flight": {"mode": "LOITER", "armed": true}, "ekf": {"attitude": {"roll": -0.03535459190607071, "pitch": -0.030836373567581177, "yaw": 2.299630641937256}, "local_position": {"x": -0.8097357749938965, "y": -0.9557006359100342, "z": 0.821491539478302}, "status": {"flags": 831, "velocity_variance": 0.02627274952828884, "pos_horiz_variance": 0.004365523345768452, "pos_vert_variance": 0.013638440519571304}}, "errors": []}
{"timestamp": "2026-01-31T07:33:34.701088Z", "telemetry": {"lat": 13.3545946, "lon": 74.8648221, "satellites": 13, "altitude_gps_m": 41.0, "groundspeed_mps": 0.013136705383658409}, "flight": {"mode": "LOITER", "armed": true}, "ekf": {"attitude": {"roll": -0.035287681967020035, "pitch": -0.031097356230020523, "yaw": 2.2997124195098877}, "local_position": {"x": -0.7822520136833191, "y": -0.9723083972930908, "z": 0.8107198476791382}, "status": {"flags": 831, "velocity_variance": 0.032381705939769745, "pos_horiz_variance": 0.007414332125335932, "pos_vert_variance": 0.018567800521850586}}, "errors": []}
{"timestamp": "2026-01-31T07:33:35.701799Z", "telemetry": {"lat": 13.3545953, "lon": 74.8648219, "satellites": 13, "altitude_gps_m": 41.040000915527344, "groundspeed_mps": 0.011550186201930046}, "flight": {"mode": "LOITER", "armed": true}, "ekf": {"attitude": {"roll": -0.035110585391521454, "pitch": -0.03077022358775139, "yaw": 2.300567388534546}, "local_position": {"x": -0.7301851511001587, "y": -0.9932019710540771, "z": 0.764112114906311}, "status": {"flags": 831, "velocity_variance": 0.007629148196429014, "pos_horiz_variance": 0.010084990411996841, "pos_vert_variance": 0.020212918519973755}}, "errors": []}
{"timestamp": "2026-01-31T07:33:36.702514Z", "telemetry": {"lat": 13.3545952, "lon": 74.8648218, "satellites": 13, "altitude_gps_m": 41.12999725341797, "groundspeed_mps": 0.024814605712890625}, "flight": {"mode": "LOITER", "armed": true}, "ekf": {"attitude": {"roll": -0.03385316580533981, "pitch": -0.029590733349323273, "yaw": 2.3032047748565674}, "local_position": {"x": -0.7181088924407959, "y": -0.9916986227035522, "z": 0.7043672800064087}, "status": {"flags": 831, "velocity_variance": 0.046680010855197906, "pos_horiz_variance": 0.008184002712368965, "pos_vert_variance": 0.025260573253035545}}, "errors": []}
{"timestamp": "2026-01-31T07:33:37.702537Z", "telemetry": {"lat": 13.3545955, "lon": 74.8648217, "satellites": 13, "altitude_gps_m": 41.22999954223633, "groundspeed_mps": 0.14567945897579193}, "flight": {"mode": "LOITER", "armed": true}, "ekf": {"attitude": {"roll": 0.009439850226044655, "pitch": -0.020443931221961975, "yaw": 2.4226326942443848}, "local_position": {"x": -0.7157253623008728, "y": -0.9895059466362, "z": 0.6212856769561768}, "status": {"flags": 831, "velocity_variance": 0.018497072160243988, "pos_horiz_variance": 0.010961942374706268, "pos_vert_variance": 0.023848596960306168}}, "errors": []}
{"timestamp": "2026-01-31T07:33:38.701738Z", "telemetry": {"lat": 13.3545953, "lon": 74.86482, "satellites": 13, "altitude_gps_m": 41.64999771118164, "groundspeed_mps": 0.1497701108455658}, "flight": {"mode": "LOITER", "armed": true}, "ekf": {"attitude": {"roll": 0.005060416646301746, "pitch": 0.03135540708899498, "yaw": -1.9518977403640747}, "local_position": {"x": -0.7725856304168701, "y": -1.1595382690429688, "z": 0.2323177009820938}, "status": {"flags": 831, "velocity_variance": 0.11398540437221527, "pos_horiz_variance": 0.01769109070301056, "pos_vert_variance": 0.03205287456512451}}, "errors": []}
{"timestamp": "2026-01-31T07:33:39.687563Z", "telemetry": {"lat": 13.3545965, "lon": 74.8648201, "satellites": 13, "altitude_gps_m": 42.040000915527344, "groundspeed_mps": 0.4580661356449127}, "flight": {"mode": "LOITER", "armed": true}, "ekf": {"attitude": {"roll": -0.013482844457030296, "pitch": -0.058963194489479065, "yaw": -0.897867739200592}, "local_position": {"x": -0.7385232448577881, "y": -1.080838918685913, "z": -0.2360231727361679}, "status": {"flags": 831, "velocity_variance": 0.12151258438825607, "pos_horiz_variance": 0.02262846939265728, "pos_vert_variance": 0.03204590827226639}}, "errors": []}
{"timestamp": "2026-01-31T07:33:40.690840Z", "telemetry": {"lat": 13.3545984, "lon": 74.8648204, "satellites": 13, "altitude_gps_m": 42.46999740600586, "groundspeed_mps": 0.341982901096344}, "flight": {"mode": "LOITER", "armed": true}, "ekf": {"attitude": {"roll": -0.016684124246239662, "pitch": -0.05960434675216675, "yaw": -0.4026048183441162}, "local_position": {"x": -0.6865010857582092, "y": -1.0125218629837036, "z": -0.6730066537857056}, "status": {"flags": 831, "velocity_variance": 0.14129655063152313, "pos_horiz_variance": 0.03801140561699867, "pos_vert_variance": 0.02760876528918743}}, "errors": []}
{"timestamp": "2026-01-31T07:33:41.687068Z", "telemetry": {"lat": 13.3545979, "lon": 74.8648192, "satellites": 13, "altitude_gps_m": 43.09000015258789, "groundspeed_mps": 0.3232329189777374}, "flight": {"mode": "LOITER", "armed": true}, "ekf": {"attitude": {"roll": -0.015976902097463608, "pitch": -0.0743500143289566, "yaw": 0.32079535722732544}, "local_position": {"x": -0.6727168560028076, "y": -1.1694505214691162, "z": -1.290277361869812}, "status": {"flags": 831, "velocity_variance": 0.1385597288608551, "pos_horiz_variance": 0.032596275210380554, "pos_vert_variance": 0.008206190541386604}}, "errors": []}
{"timestamp": "2026-01-31T07:33:42.689889Z", "telemetry": {"lat": 13.3545978, "lon": 74.8648188, "satellites": 13, "altitude_gps_m": 43.73999786376953, "groundspeed_mps": 0.23896518349647522}, "flight": {"mode": "LOITER", "armed": true}, "ekf": {"attitude": {"roll": -0.03241916373372078, "pitch": -0.06197986751794815, "yaw": 0.724376380443573}, "local_position": {"x": -0.5981751680374146, "y": -1.2515050172805786, "z": -1.9454740285873413}, "status": {"flags": 831, "velocity_variance": 0.10411401838064194, "pos_horiz_variance": 0.027661696076393127, "pos_vert_variance": 0.0005665658391080797}}, "errors": ["EKF3 IMU1 MAG0 in-flight yaw alignment complete"]}
{"timestamp": "2026-01-31T07:33:43.689341Z", "telemetry": {"lat": 13.3545977, "lon": 74.8648193, "satellites": 13, "altitude_gps_m": 44.11000061035156, "groundspeed_mps": 0.20463250577449799}, "flight": {"mode": "LOITER", "armed": true}, "ekf": {"attitude": {"roll": -0.034260205924510956, "pitch": -0.06396976858377457, "yaw": 0.6651483774185181}, "local_position": {"x": -0.5576377511024475, "y": -1.228277325630188, "z": -2.306093454360962}, "status": {"flags": 831, "velocity_variance": 0.046563662588596344, "pos_horiz_variance": 0.021114356815814972, "pos_vert_variance": 0.0013417779700830579}}, "errors": ["EKF3 IMU1 MAG0 in-flight yaw alignment complete"]}
{"timestamp": "2026-01-31T07:33:44.686366Z", "telemetry": {"lat": 13.354597, "lon": 74.8648214, "satellites": 13, "altitude_gps_m": 44.47999954223633, "groundspeed_mps": 0.13611111044883728}, "flight": {"mode": "LOITER", "armed": true}, "ekf": {"attitude": {"roll": -0.06252455711364746, "pitch": -0.04581904038786888, "yaw": 0.9021222591400146}, "local_position": {"x": -0.5630035400390625, "y": -1.0449446439743042, "z": -2.6856250762939453}, "status": {"flags": 831, "velocity_variance": 0.07507137209177017, "pos_horiz_variance": 0.01379559189081192, "pos_vert_variance": 0.005832208786159754}}, "errors": ["EKF3 IMU1 MAG0 in-flight yaw alignment complete"]}
{"timestamp": "2026-01-31T07:33:45.685435Z", "telemetry": {"lat": 13.3545963, "lon": 74.864823, "satellites": 13, "altitude_gps_m": 45.03999710083008, "groundspeed_mps": 0.05764460191130638}, "flight": {"mode": "LOITER", "armed": true}, "ekf": {"attitude": {"roll": -0.06699326634407043, "pitch": -0.08428165316581726, "yaw": 0.6059770584106445}, "local_position": {"x": -0.6335054039955139, "y": -0.9174394011497498, "z": -3.2399864196777344}, "status": {"flags": 831, "velocity_variance": 0.044296689331531525, "pos_horiz_variance": 0.013293913565576077, "pos_vert_variance": 0.008326702751219273}}, "errors": ["EKF3 IMU1 MAG0 in-flight yaw alignment complete"]}
{"timestamp": "2026-01-31T07:33:46.684177Z", "telemetry": {"lat": 13.3545978, "lon": 74.8648252, "satellites": 13, "altitude_gps_m": 45.54999923706055, "groundspeed_mps": 1.0311086177825928}, "flight": {"mode": "LOITER", "armed": true}, "ekf": {"attitude": {"roll": -0.059413496404886246, "pitch": -0.16560110449790955, "yaw": 0.666334331035614}, "local_position": {"x": -0.20862120389938354, "y": -0.560020923614502, "z": -3.7547454833984375}, "status": {"flags": 831, "velocity_variance": 0.08525247126817703, "pos_horiz_variance": 0.006610892713069916, "pos_vert_variance": 0.01877346821129322}}, "errors": ["EKF3 IMU1 MAG0 in-flight yaw alignment complete"]}
{"timestamp": "2026-01-31T07:33:47.685287Z", "telemetry": {"lat": 13.354607, "lon": 74.8648318, "satellites": 13, "altitude_gps_m": 45.93000030517578, "groundspeed_mps": 1.2374098300933838}, "flight": {"mode": "LOITER", "armed": true}, "ekf": {"attitude": {"roll": -0.046231161803007126, "pitch": -0.02691519260406494, "yaw": 0.6891133785247803}, "local_position": {"x": 0.8849522471427917, "y": 0.19717422127723694, "z": -4.264379024505615}, "status": {"flags": 831, "velocity_variance": 0.026062339544296265, "pos_horiz_variance": 0.004182023461908102, "pos_vert_variance": 0.014473200775682926}}, "errors": ["EKF3 IMU1 MAG0 in-flight yaw alignment complete"]}
{"timestamp": "2026-01-31T07:33:48.683769Z", "telemetry": {"lat": 13.354615, "lon": 74.8648379, "satellites": 13, "altitude_gps_m": 46.57999801635742, "groundspeed_mps": 0.8565148115158081}, "flight": {"mode": "LOITER", "armed": true}, "ekf": {"attitude": {"roll": -0.03866375982761383, "pitch": -0.04475415125489235, "yaw": 0.6228164434432983}, "local_position": {"x": 1.723667860031128, "y": 0.8360683917999268, "z": -4.779335021972656}, "status": {"flags": 831, "velocity_variance": 0.0611165426671505, "pos_horiz_variance": 0.0038737342692911625, "pos_vert_variance": 0.013768505305051804}}, "errors": ["EKF3 IMU1 MAG0 in-flight yaw alignment complete"]}
{"timestamp": "2026-01-31T07:33:49.685416Z", "telemetry": {"lat": 13.3546204, "lon": 74.8648415, "satellites": 13, "altitude_gps_m": 47.16999816894531, "groundspeed_mps": 0.6957717537879944}, "flight": {"mode": "LOITER", "armed": true}, "ekf": {"attitude": {"roll": -0.04146140068769455, "pitch": -0.04794824495911598, "yaw": 0.5178762674331665}, "local_position": {"x": 2.3972396850585938, "y": 1.3236503601074219, "z": -5.364965438842773}, "status": {"flags": 831, "velocity_variance": 0.193611741065979, "pos_horiz_variance": 0.00443062512204051, "pos_vert_variance": 0.013127656653523445}}, "errors": ["EKF3 IMU1 MAG0 in-flight yaw alignment complete"]}
{"timestamp": "2026-01-31T07:33:50.697123Z", "telemetry": {"lat": 13.3546274, "lon": 74.8648457, "satellites": 13, "altitude_gps_m": 47.22999954223633, "groundspeed_mps": 0.13178573548793793}, "flight": {"mode": "LOITER", "armed": true}, "ekf": {"attitude": {"roll": -0.009609008207917213, "pitch": -0.03724885359406471, "yaw": 0.7454863786697388}, "local_position": {"x": 2.934624433517456, "y": 1.6187433004379272, "z": -5.444775581359863}, "status": {"flags": 831, "velocity_variance": 0.1380096822977066, "pos_horiz_variance": 0.009094388224184513, "pos_vert_variance": 0.019665289670228958}}, "errors": ["EKF3 IMU1 MAG0 in-flight yaw alignment complete"]}
{"timestamp": "2026-01-31T07:33:51.696458Z", "telemetry": {"lat": 13.3546299, "lon": 74.8648467, "satellites": 13, "altitude_gps_m": 47.23999786376953, "groundspeed_mps": 0.0794939324259758}, "flight": {"mode": "LOITER", "armed": true}, "ekf": {"attitude": {"roll": -0.022410105913877487, "pitch": -0.04817284643650055, "yaw": 0.8481547236442566}, "local_position": {"x": 3.1178882122039795, "y": 1.6828444004058838, "z": -5.433882713317871}, "status": {"flags": 831, "velocity_variance": 0.064518503844738, "pos_horiz_variance": 0.011035876348614693, "pos_vert_variance": 0.003722268855199218}}, "errors": ["EKF3 IMU1 MAG0 in-flight yaw alignment complete"]}
{"timestamp": "2026-01-31T07:33:52.695297Z", "telemetry": {"lat": 13.3546307, "lon": 74.8648478, "satellites": 13, "altitude_gps_m": 47.31999969482422, "groundspeed_mps": 0.10857906937599182}, "flight": {"mode": "LOITER", "armed": true}, "ekf": {"attitude": {"roll": -0.036819446831941605, "pitch": -0.03746337443590164, "yaw": 1.0405488014221191}, "local_position": {"x": 3.181781053543091, "y": 1.7782071828842163, "z": -5.48000431060791}, "status": {"flags": 831, "velocity_variance": 0.09968873858451843, "pos_horiz_variance": 0.0122057581320405, "pos_vert_variance": 0.0032301945611834526}}, "errors": ["EKF3 IMU1 MAG0 in-flight yaw alignment complete"]}
{"timestamp": "2026-01-31T07:33:53.695064Z", "telemetry": {"lat": 13.3546311, "lon": 74.8648485, "satellites": 13, "altitude_gps_m": 47.31999969482422, "groundspeed_mps": 0.09845684468746185}, "flight": {"mode": "LOITER", "armed": true}, "ekf": {"attitude": {"roll": -0.0306380745023489, "pitch": -0.02327333763241768, "yaw": 1.1424710750579834}, "local_position": {"x": 3.2223002910614014, "y": 1.8747552633285522, "z": -5.517829418182373}, "status": {"flags": 831, "velocity_variance": 0.03863620385527611, "pos_horiz_variance": 0.012379656545817852, "pos_vert_variance": 0.00598052516579628}}, "errors": ["EKF3 IMU1 MAG0 in-flight yaw alignment complete"]}
{"timestamp": "2026-01-31T07:33:54.695262Z", "telemetry": {"lat": 13.3546312, "lon": 74.8648495, "satellites": 13, "altitude_gps_m": 47.36000061035156, "groundspeed_mps": 0.15723346173763275}, "flight": {"mode": "LOITER", "armed": true}, "ekf": {"attitude": {"roll": -0.03555374592542648, "pitch": -0.020525339990854263, "yaw": 1.1510920524597168}, "local_position": {"x": 3.208648443222046, "y": 1.940492868423462, "z": -5.557345390319824}, "status": {"flags": 831, "velocity_variance": 0.09021218866109848, "pos_horiz_variance": 0.013729614205658436, "pos_vert_variance": 0.007477124221622944}}, "errors": ["EKF3 IMU1 MAG0 in-flight yaw alignment complete"]}
{"timestamp": "2026-01-31T07:33:55.694518Z", "telemetry": {"lat": 13.3546307, "lon": 74.8648497, "satellites": 13, "altitude_gps_m": 47.84000015258789, "groundspeed_mps": 0.1967170685529709}, "flight": {"mode": "LOITER", "armed": true}, "ekf": {"attitude": {"roll": -0.03710440918803215, "pitch": -0.02484646439552307, "yaw": 1.2717537879943848}, "local_position": {"x": 3.1437158584594727, "y": 1.931078553199768, "z": -5.898336410522461}, "status": {"flags": 831, "velocity_variance": 0.0902799740433693, "pos_horiz_variance": 0.015211908146739006, "pos_vert_variance": 0.0018145459471270442}}, "errors": ["EKF3 IMU1 MAG0 in-flight yaw alignment complete"]}
{"timestamp": "2026-01-31T07:33:56.694436Z", "telemetry": {"lat": 13.3546306, "lon": 74.8648493, "satellites": 13, "altitude_gps_m": 48.23999786376953, "groundspeed_mps": 0.13624611496925354}, "flight": {"mode": "LOITER", "armed": true}, "ekf": {"attitude": {"roll": -0.04309331253170967, "pitch": -0.022027377039194107, "yaw": 1.383317470550537}, "local_position": {"x": 3.1485843658447266, "y": 1.8927737474441528, "z": -6.439964294433594}, "status": {"flags": 831, "velocity_variance": 0.12915940582752228, "pos_horiz_variance": 0.014390544965863228, "pos_vert_variance": 0.008525139652192593}}, "errors": ["EKF3 IMU1 MAG0 in-flight yaw alignment complete"]}
{"timestamp": "2026-01-31T07:33:57.695150Z", "telemetry": {"lat": 13.3546307, "lon": 74.8648491, "satellites": 13, "altitude_gps_m": 48.72999954223633, "groundspeed_mps": 0.15291167795658112}, "flight": {"mode": "LOITER", "armed": true}, "ekf": {"attitude": {"roll": -0.022179193794727325, "pitch": -0.020828455686569214, "yaw": 1.5950860977172852}, "local_position": {"x": 3.1832971572875977, "y": 1.884903073310852, "z": -6.930573463439941}, "status": {"flags": 831, "velocity_variance": 0.05733867362141609, "pos_horiz_variance": 0.011133122257888317, "pos_vert_variance": 0.016315560787916183}}, "errors": ["EKF3 IMU1 MAG0 in-flight yaw alignment complete"]}
{"timestamp": "2026-01-31T07:33:58.694568Z", "telemetry": {"lat": 13.354631, "lon": 74.8648488, "satellites": 13, "altitude_gps_m": 49.619998931884766, "groundspeed_mps": 0.20579101145267487}, "flight": {"mode": "LOITER", "armed": true}, "ekf": {"attitude": {"roll": -0.022252919152379036, "pitch": -0.059600986540317535, "yaw": 2.0123348236083984}, "local_position": {"x": 3.21824312210083, "y": 1.8152422904968262, "z": -7.6304521560668945}, "status": {"flags": 831, "velocity_variance": 0.12921567261219025, "pos_horiz_variance": 0.01245152298361063, "pos_vert_variance": 0.02299928106367588}}, "errors": ["EKF3 IMU1 MAG0 in-flight yaw alignment complete"]}
{"timestamp": "2026-01-31T07:33:59.679678Z", "telemetry": {"lat": 13.3546302, "lon": 74.8648476, "satellites": 13, "altitude_gps_m": 50.09000015258789, "groundspeed_mps": 0.06909307092428207}, "flight": {"mode": "LOITER", "armed": true}, "ekf": {"attitude": {"roll": -0.027831269428133965, "pitch": -0.04175161197781563, "yaw": 2.0818939208984375}, "local_position": {"x": 3.1577234268188477, "y": 1.7510347366333008, "z": -8.285699844360352}, "status": {"flags": 831, "velocity_variance": 0.062253016978502274, "pos_horiz_variance": 0.007319881580770016, "pos_vert_variance": 0.02392035722732544}}, "errors": ["EKF3 IMU1 MAG0 in-flight yaw alignment complete"]}
{"timestamp": "2026-01-31T07:34:00.713930Z", "telemetry": {"lat": 13.3546289, "lon": 74.8648486, "satellites": 13, "altitude_gps_m": 50.40999984741211, "groundspeed_mps": 0.0404113307595253}, "flight": {"mode": "LOITER", "armed": true}, "ekf": {"attitude": {"roll": -0.024599455296993256, "pitch": -0.022412549704313278, "yaw": 2.0629611015319824}, "local_position": {"x": 3.0802001953125, "y": 1.8757152557373047, "z": -8.60680103302002}, "status": {"flags": 831, "velocity_variance": 0.07948268204927444, "pos_horiz_variance": 0.000820355664473027, "pos_vert_variance": 0.021249866113066673}}, "errors": ["EKF3 IMU1 MAG0 in-flight yaw alignment complete"]}
{"timestamp": "2026-01-31T07:34:01.683802Z", "telemetry": {"lat": 13.3546284, "lon": 74.8648491, "satellites": 13, "altitude_gps_m": 50.46999740600586, "groundspeed_mps": 0.14227968454360962}, "flight": {"mode": "LOITER", "armed": true}, "ekf": {"attitude": {"roll": -0.014636807143688202, "pitch": -0.01343769021332264, "yaw": 2.298933267593384}, "local_position": {"x": 3.0334107875823975, "y": 1.9372832775115967, "z": -8.653493881225586}, "status": {"flags": 831, "velocity_variance": 0.0906139463186264, "pos_horiz_variance": 0.002797946333885193, "pos_vert_variance": 0.029226619750261307}}, "errors": ["EKF3 IMU1 MAG0 in-flight yaw alignment complete"]}
{"timestamp": "2026-01-31T07:34:02.681603Z", "telemetry": {"lat": 13.3546287, "lon": 74.8648497, "satellites": 13, "altitude_gps_m": 50.48999786376953, "groundspeed_mps": 0.15151742100715637}, "flight": {"mode": "LOITER", "armed": true}, "ekf": {"attitude": {"roll": -0.0002747979015111923, "pitch": -0.03994186222553253, "yaw": 2.2027368545532227}, "local_position": {"x": 3.073331117630005, "y": 1.9499804973602295, "z": -8.683121681213379}, "status": {"flags": 831, "velocity_variance": 0.07346262782812119, "pos_horiz_variance": 0.002579691121354699, "pos_vert_variance": 0.026006393134593964}}, "errors": ["EKF3 IMU1 MAG0 in-flight yaw alignment complete"]}
{"timestamp": "2026-01-31T07:34:03.678085Z", "telemetry": {"lat": 13.3546282, "lon": 74.8648497, "satellites": 13, "altitude_gps_m": 50.46999740600586, "groundspeed_mps": 0.15304893255233765}, "flight": {"mode": "LOITER", "armed": true}, "ekf": {"attitude": {"roll": -0.02070889063179493, "pitch": -0.02517886459827423, "yaw": 2.30918550491333}, "local_position": {"x": 3.016369581222534, "y": 1.9255967140197754, "z": -8.660004615783691}, "status": {"flags": 831, "velocity_variance": 0.07268465310335159, "pos_horiz_variance": 0.0039050253108143806, "pos_vert_variance": 0.0230444073677063}}, "errors": ["EKF3 IMU1 MAG0 in-flight yaw alignment complete"]}
{"timestamp": "2026-01-31T07:34:04.713339Z", "telemetry": {"lat": 13.3546272, "lon": 74.8648499, "satellites": 13, "altitude_gps_m": 50.45000076293945, "groundspeed_mps": 0.1700708568096161}, "flight": {"mode": "LOITER", "armed": true}, "ekf": {"attitude": {"roll": -0.010338515974581242, "pitch": -0.017650598660111427, "yaw": 2.4444901943206787}, "local_position": {"x": 2.9579646587371826, "y": 1.9412840604782104, "z": -8.654589653015137}, "status": {"flags": 831, "velocity_variance": 0.0903303325176239, "pos_horiz_variance": 0.0071729570627212524, "pos_vert_variance": 0.016594724729657173}}, "errors": ["EKF3 IMU1 MAG0 in-flight yaw alignment complete"]}
{"timestamp": "2026-01-31T07:34:05.681483Z", "telemetry": {"lat": 13.354628, "lon": 74.8648506, "satellites": 13, "altitude_gps_m": 50.439998626708984, "groundspeed_mps": 0.19267790019512177}, "flight": {"mode": "LOITER", "armed": true}, "ekf": {"attitude": {"roll": 0.005298900417983532, "pitch": -0.0328575000166893, "yaw": 2.537625312805176}, "local_position": {"x": 3.038094997406006, "y": 1.9453771114349365, "z": -8.63794231414795}, "status": {"flags": 831, "velocity_variance": 0.06742159277200699, "pos_horiz_variance": 0.01178203709423542, "pos_vert_variance": 0.023043563589453697}}, "errors": ["EKF3 IMU1 MAG0 in-flight yaw alignment complete"]}
{"timestamp": "2026-01-31T07:34:06.677398Z", "telemetry": {"lat": 13.3546283, "lon": 74.8648505, "satellites": 13, "altitude_gps_m": 50.459999084472656, "groundspeed_mps": 0.17783814668655396}, "flight": {"mode": "LOITER", "armed": true}, "ekf": {"attitude": {"roll": -0.007455724291503429, "pitch": -0.034376323223114014, "yaw": 2.6097261905670166}, "local_position": {"x": 3.071333408355713, "y": 1.9359934329986572, "z": -8.658432960510254}, "status": {"flags": 831, "velocity_variance": 0.08693057298660278, "pos_horiz_variance": 0.01167403906583786, "pos_vert_variance": 0.024675769731402397}}, "errors": ["EKF3 IMU1 MAG0 in-flight yaw alignment complete"]}
{"timestamp": "2026-01-31T07:34:07.683533Z", "telemetry": {"lat": 13.3546284, "lon": 74.8648498, "satellites": 13, "altitude_gps_m": 50.459999084472656, "groundspeed_mps": 0.08426486700773239}, "flight": {"mode": "LOITER", "armed": true}, "ekf": {"attitude": {"roll": -0.010252280160784721, "pitch": -0.040525760501623154, "yaw": 2.7769341468811035}, "local_position": {"x": 3.064762830734253, "y": 1.9013110399246216, "z": -8.654057502746582}, "status": {"flags": 831, "velocity_variance": 0.05961441993713379, "pos_horiz_variance": 0.00891270861029625, "pos_vert_variance": 0.02126704901456833}}, "errors": ["EKF3 IMU1 MAG0 in-flight yaw alignment complete"]}
{"timestamp": "2026-01-31T07:34:08.681648Z", "telemetry": {"lat": 13.354628, "lon": 74.8648494, "satellites": 13, "altitude_gps_m": 50.47999954223633, "groundspeed_mps": 0.04983161389827728}, "flight": {"mode": "LOITER", "armed": true}, "ekf": {"attitude": {"roll": -0.00338959414511919, "pitch": -0.031217513605952263, "yaw": 2.867704391479492}, "local_position": {"x": 3.03625750541687, "y": 1.9016728401184082, "z": -8.674756050109863}, "status": {"flags": 831, "velocity_variance": 0.06950724124908447, "pos_horiz_variance": 0.0069820089265704155, "pos_vert_variance": 0.018171094357967377}}, "errors": ["EKF3 IMU1 MAG0 in-flight yaw alignment complete"]}
{"timestamp": "2026-01-31T07:34:09.713434Z", "telemetry": {"lat": 13.3546278, "lon": 74.8648493, "satellites": 13, "altitude_gps_m": 50.439998626708984, "groundspeed_mps": 0.09383074939250946}, "flight": {"mode": "LOITER", "armed": true}, "ekf": {"attitude": {"roll": 0.008145896717905998, "pitch": -0.0333518460392952, "yaw": 2.9600727558135986}, "local_position": {"x": 2.992893695831299, "y": 1.9128506183624268, "z": -8.63300895690918}, "status": {"flags": 831, "velocity_variance": 0.0573958121240139, "pos_horiz_variance": 0.003191245486959815, "pos_vert_variance": 0.012202054262161255}}, "errors": ["EKF3 IMU1 MAG0 in-flight yaw alignment complete"]}
{"timestamp": "2026-01-31T07:34:10.684653Z", "telemetry": {"lat": 13.354628, "lon": 74.8648488, "satellites": 13, "altitude_gps_m": 50.5, "groundspeed_mps": 0.11511646956205368}, "flight": {"mode": "LOITER", "armed": true}, "ekf": {"attitude": {"roll": -0.013636534102261066, "pitch": -0.034902650862932205, "yaw": 3.1222951412200928}, "local_position": {"x": 2.988884210586548, "y": 1.8346877098083496, "z": -8.637632369995117}, "status": {"flags": 831, "velocity_variance": 0.0445694774389267, "pos_horiz_variance": 0.003363944822922349, "pos_vert_variance": 0.0180027037858963}}, "errors": ["EKF3 IMU1 MAG0 in-flight yaw alignment complete"]}
{"timestamp": "2026-01-31T07:34:11.682167Z", "telemetry": {"lat": 13.3546286, "lon": 74.8648484, "satellites": 13, "altitude_gps_m": 50.869998931884766, "groundspeed_mps": 0.05201560631394386}, "flight": {"mode": "LOITER", "armed": true}, "ekf": {"attitude": {"roll": -0.006603448651731014, "pitch": -0.04138128459453583, "yaw": -2.97428822517395}, "local_position": {"x": 3.051013708114624, "y": 1.8236792087554932, "z": -9.07886028289795}, "status": {"flags": 831, "velocity_variance": 0.18989628553390503, "pos_horiz_variance": 0.0022458082530647516, "pos_vert_variance": 0.014991521835327148}}, "errors": ["EKF3 IMU1 MAG0 in-flight yaw alignment complete"]}
{"timestamp": "2026-01-31T07:34:12.713324Z", "telemetry": {"lat": 13.3546282, "lon": 74.8648492, "satellites": 13, "altitude_gps_m": 51.18000030517578, "groundspeed_mps": 0.04703334718942642}, "flight": {"mode": "LOITER", "armed": true}, "ekf": {"attitude": {"roll": -0.0010281000286340714, "pitch": -0.04457665979862213, "yaw": -2.7557613849639893}, "local_position": {"x": 3.0358314514160156, "y": 1.8911583423614502, "z": -9.373085021972656}, "status": {"flags": 831, "velocity_variance": 0.0522921048104763, "pos_horiz_variance": 0.00444452790543437, "pos_vert_variance": 0.00983235239982605}}, "errors": ["EKF3 IMU1 MAG0 in-flight yaw alignment complete"]}
{"timestamp": "2026-01-31T07:34:13.713297Z", "telemetry": {"lat": 13.3546282, "lon": 74.8648499, "satellites": 13, "altitude_gps_m": 51.64999771118164, "groundspeed_mps": 0.02466544508934021}, "flight": {"mode": "LOITER", "armed": true}, "ekf": {"attitude": {"roll": 0.0014577687252312899, "pitch": -0.04598549008369446, "yaw": -2.531635284423828}, "local_position": {"x": 3.021277666091919, "y": 1.9430643320083618, "z": -9.850114822387695}, "status": {"flags": 831, "velocity_variance": 0.08320177346467972, "pos_horiz_variance": 0.005201035179197788, "pos_vert_variance": 0.0017148611368611455}}, "errors": ["EKF3 IMU1 MAG0 in-flight yaw alignment complete"]}
{"timestamp": "2026-01-31T07:34:14.682237Z", "telemetry": {"lat": 13.3546279, "lon": 74.8648496, "satellites": 13, "altitude_gps_m": 51.82999801635742, "groundspeed_mps": 0.018585940822958946}, "flight": {"mode": "LOITER", "armed": true}, "ekf": {"attitude": {"roll": 0.0018630975391715765, "pitch": -0.042327262461185455, "yaw": -2.470877170562744}, "local_position": {"x": 2.9835729598999023, "y": 1.8887221813201904, "z": -10.027962684631348}, "status": {"flags": 831, "velocity_variance": 0.03331897780299187, "pos_horiz_variance": 0.008023038506507874, "pos_vert_variance": 0.009828121401369572}}, "errors": ["EKF3 IMU1 MAG0 in-flight yaw alignment complete"]}
{"timestamp": "2026-01-31T07:34:15.716776Z", "telemetry": {"lat": 13.3546274, "lon": 74.8648496, "satellites": 13, "altitude_gps_m": 51.80999755859375, "groundspeed_mps": 0.06322450190782547}, "flight": {"mode": "LOITER", "armed": true}, "ekf": {"attitude": {"roll": -0.0040872362442314625, "pitch": -0.04465348646044731, "yaw": -2.220082998275757}, "local_position": {"x": 2.9679672718048096, "y": 1.8691140413284302, "z": -10.004294395446777}, "status": {"flags": 831, "velocity_variance": 0.05119138956069946, "pos_horiz_variance": 0.009530198760330677, "pos_vert_variance": 0.016509756445884705}}, "errors": ["EKF3 IMU1 MAG0 in-flight yaw alignment complete"]}
{"timestamp": "2026-01-31T07:34:16.681765Z", "telemetry": {"lat": 13.3546277, "lon": 74.8648489, "satellites": 13, "altitude_gps_m": 51.7599983215332, "groundspeed_mps": 0.02025972120463848}, "flight": {"mode": "LOITER", "armed": true}, "ekf": {"attitude": {"roll": 0.0006481539458036423, "pitch": -0.04737166687846184, "yaw": -2.0739006996154785}, "local_position": {"x": 2.971073627471924, "y": 1.8307592868804932, "z": -9.953428268432617}, "status": {"flags": 831, "velocity_variance": 0.04585760086774826, "pos_horiz_variance": 0.005037351045757532, "pos_vert_variance": 0.010490216314792633}}, "errors": ["EKF3 IMU1 MAG0 in-flight yaw alignment complete"]}
{"timestamp": "2026-01-31T07:34:17.685369Z", "telemetry": {"lat": 13.3546275, "lon": 74.8648485, "satellites": 13, "altitude_gps_m": 51.7599983215332, "groundspeed_mps": 0.05746452137827873}, "flight": {"mode": "LOITER", "armed": true}, "ekf": {"attitude": {"roll": 0.020549358800053596, "pitch": -0.022284381091594696, "yaw": -1.9414000511169434}, "local_position": {"x": 2.9371087551116943, "y": 1.7968978881835938, "z": -9.950753211975098}, "status": {"flags": 831, "velocity_variance": 0.053527798503637314, "pos_horiz_variance": 0.0036932597868144512, "pos_vert_variance": 0.0020162814762443304}}, "errors": ["EKF3 IMU1 MAG0 in-flight yaw alignment complete"]}
{"timestamp": "2026-01-31T07:34:18.683356Z", "telemetry": {"lat": 13.3546273, "lon": 74.8648473, "satellites": 13, "altitude_gps_m": 51.66999816894531, "groundspeed_mps": 0.11231674253940582}, "flight": {"mode": "LOITER", "armed": true}, "ekf": {"attitude": {"roll": 0.026745090261101723, "pitch": -0.020384570583701134, "yaw": -1.6634855270385742}, "local_position": {"x": 2.8915653228759766, "y": 1.7106598615646362, "z": -9.861509323120117}, "status": {"flags": 831, "velocity_variance": 0.054743602871894836, "pos_horiz_variance": 0.002163686091080308, "pos_vert_variance": 0.00864266324788332}}, "errors": ["EKF3 IMU1 MAG0 in-flight yaw alignment complete"]}
{"timestamp": "2026-01-31T07:34:19.682914Z", "telemetry": {"lat": 13.3546272, "lon": 74.864848, "satellites": 13, "altitude_gps_m": 51.38999938964844, "groundspeed_mps": 0.14331045746803284}, "flight": {"mode": "LOITER", "armed": true}, "ekf": {"attitude": {"roll": 0.0013513299636542797, "pitch": -0.05362425744533539, "yaw": -1.4394354820251465}, "local_position": {"x": 2.9356157779693604, "y": 1.7835407257080078, "z": -9.659543991088867}, "status": {"flags": 831, "velocity_variance": 0.04801935330033302, "pos_horiz_variance": 0.004098984878510237, "pos_vert_variance": 0.025530312210321426}}, "errors": ["EKF3 IMU1 MAG0 in-flight yaw alignment complete"]}
{"timestamp": "2026-01-31T07:34:20.682066Z", "telemetry": {"lat": 13.3546274, "lon": 74.864849, "satellites": 13, "altitude_gps_m": 51.029998779296875, "groundspeed_mps": 0.06202273443341255}, "flight": {"mode": "LOITER", "armed": true}, "ekf": {"attitude": {"roll": 0.00880407728254795, "pitch": -0.061136238276958466, "yaw": -1.3613786697387695}, "local_position": {"x": 2.971076488494873, "y": 1.8574331998825073, "z": -9.216696739196777}, "status": {"flags": 831, "velocity_variance": 0.05020926892757416, "pos_horiz_variance": 0.005887877661734819, "pos_vert_variance": 0.02475583739578724}}, "errors": ["EKF3 IMU1 MAG0 in-flight yaw alignment complete"]}
{"timestamp": "2026-01-31T07:34:21.714303Z", "telemetry": {"lat": 13.3546277, "lon": 74.8648488, "satellites": 13, "altitude_gps_m": 50.439998626708984, "groundspeed_mps": 0.06557509303092957}, "flight": {"mode": "LOITER", "armed": true}, "ekf": {"attitude": {"roll": -0.0007655315566807985, "pitch": -0.03959071636199951, "yaw": -1.381840467453003}, "local_position": {"x": 3.0039150714874268, "y": 1.8094773292541504, "z": -8.622770309448242}, "status": {"flags": 831, "velocity_variance": 0.058326054364442825, "pos_horiz_variance": 0.005241819657385349, "pos_vert_variance": 0.0324060283601284}}, "errors": ["EKF3 IMU1 MAG0 in-flight yaw alignment complete"]}
{"timestamp": "2026-01-31T07:34:22.682462Z", "telemetry": {"lat": 13.354628, "lon": 74.8648475, "satellites": 13, "altitude_gps_m": 49.81999969482422, "groundspeed_mps": 0.03160294145345688}, "flight": {"mode": "LOITER", "armed": true}, "ekf": {"attitude": {"roll": 0.018155256286263466, "pitch": -0.02256382256746292, "yaw": -1.3270858526229858}, "local_position": {"x": 3.0171473026275635, "y": 1.693231225013733, "z": -8.004898071289062}, "status": {"flags": 831, "velocity_variance": 0.05064871162176132, "pos_horiz_variance": 0.0038978958036750555, "pos_vert_variance": 0.034026842564344406}}, "errors": ["EKF3 IMU1 MAG0 in-flight yaw alignment complete"]}
{"timestamp": "2026-01-31T07:34:23.678416Z", "telemetry": {"lat": 13.3546281, "lon": 74.8648475, "satellites": 13, "altitude_gps_m": 49.29999923706055, "groundspeed_mps": 0.0802106112241745}, "flight": {"mode": "LOITER", "armed": true}, "ekf": {"attitude": {"roll": 0.0062333326786756516, "pitch": -0.03843942657113075, "yaw": -1.3691953420639038}, "local_position": {"x": 3.0311439037323, "y": 1.7102305889129639, "z": -7.4894633293151855}, "status": {"flags": 831, "velocity_variance": 0.0367567203938961, "pos_horiz_variance": 0.003012340283021331, "pos_vert_variance": 0.028397824615240097}}, "errors": ["EKF3 IMU1 MAG0 in-flight yaw alignment complete"]}
{"timestamp": "2026-01-31T07:34:24.714285Z", "telemetry": {"lat": 13.3546282, "lon": 74.8648471, "satellites": 13, "altitude_gps_m": 48.619998931884766, "groundspeed_mps": 0.10181907564401627}, "flight": {"mode": "LOITER", "armed": true}, "ekf": {"attitude": {"roll": 0.009559433907270432, "pitch": -0.016837453469634056, "yaw": -1.339271068572998}, "local_position": {"x": 3.0481276512145996, "y": 1.6920219659805298, "z": -6.811321258544922}, "status": {"flags": 831, "velocity_variance": 0.07019476592540741, "pos_horiz_variance": 0.0029291496612131596, "pos_vert_variance": 0.016164463013410568}}, "errors": ["EKF3 IMU1 MAG0 in-flight yaw alignment complete"]}
{"timestamp": "2026-01-31T07:34:25.714271Z", "telemetry": {"lat": 13.3546283, "lon": 74.8648481, "satellites": 13, "altitude_gps_m": 47.72999954223633, "groundspeed_mps": 0.1972699910402298}, "flight": {"mode": "LOITER", "armed": true}, "ekf": {"attitude": {"roll": 0.0035404812078922987, "pitch": -0.0647314190864563, "yaw": -1.3254777193069458}, "local_position": {"x": 3.0486679077148438, "y": 1.8289258480072021, "z": -5.914784908294678}, "status": {"flags": 831, "velocity_variance": 0.051346227526664734, "pos_horiz_variance": 0.001906764111481607, "pos_vert_variance": 0.013052412308752537}}, "errors": ["EKF3 IMU1 MAG0 in-flight yaw alignment complete"]}
{"timestamp": "2026-01-31T07:34:26.683634Z", "telemetry": {"lat": 13.3546274, "lon": 74.8648494, "satellites": 13, "altitude_gps_m": 46.81999969482422, "groundspeed_mps": 0.04231744632124901}, "flight": {"mode": "LOITER", "armed": true}, "ekf": {"attitude": {"roll": 0.00559674296528101, "pitch": -0.07290420681238174, "yaw": -1.3483949899673462}, "local_position": {"x": 2.975527048110962, "y": 1.8862065076828003, "z": -5.007951736450195}, "status": {"flags": 831, "velocity_variance": 0.04390255734324455, "pos_horiz_variance": 0.006495654582977295, "pos_vert_variance": 0.00034131473512388766}}, "errors": ["EKF3 IMU1 MAG0 in-flight yaw alignment complete"]}
{"timestamp": "2026-01-31T07:34:27.683363Z", "telemetry": {"lat": 13.3546269, "lon": 74.8648483, "satellites": 13, "altitude_gps_m": 46.29999923706055, "groundspeed_mps": 0.09174232929944992}, "flight": {"mode": "LOITER", "armed": true}, "ekf": {"attitude": {"roll": 0.008861828595399857, "pitch": -0.055282384157180786, "yaw": -1.2266058921813965}, "local_position": {"x": 2.9369733333587646, "y": 1.8243458271026611, "z": -4.488548755645752}, "status": {"flags": 831, "velocity_variance": 0.06147570535540581, "pos_horiz_variance": 0.005845735315233469, "pos_vert_variance": 0.005459402687847614}}, "errors": ["EKF3 IMU1 MAG0 in-flight yaw alignment complete"]}
{"timestamp": "2026-01-31T07:34:28.683436Z", "telemetry": {"lat": 13.3546276, "lon": 74.864847, "satellites": 13, "altitude_gps_m": 45.75, "groundspeed_mps": 0.16743189096450806}, "flight": {"mode": "LOITER", "armed": true}, "ekf": {"attitude": {"roll": -0.005360820330679417, "pitch": -0.044431205838918686, "yaw": -1.116754412651062}, "local_position": {"x": 3.037320375442505, "y": 1.7451304197311401, "z": -3.9403398036956787}, "status": {"flags": 831, "velocity_variance": 0.12619604170322418, "pos_horiz_variance": 0.010343268513679504, "pos_vert_variance": 0.008841527625918388}}, "errors": ["EKF3 IMU1 MAG0 in-flight yaw alignment complete"]}
{"timestamp": "2026-01-31T07:34:29.685133Z", "telemetry": {"lat": 13.3546281, "lon": 74.8648456, "satellites": 13, "altitude_gps_m": 45.22999954223633, "groundspeed_mps": 0.06305655837059021}, "flight": {"mode": "LOITER", "armed": true}, "ekf": {"attitude": {"roll": -0.028946494683623314, "pitch": -0.048842765390872955, "yaw": -1.0488512516021729}, "local_position": {"x": 3.1069564819335938, "y": 1.7128452062606812, "z": -3.456507921218872}, "status": {"flags": 831, "velocity_variance": 0.06044188141822815, "pos_horiz_variance": 0.0186102706938982, "pos_vert_variance": 0.02257225103676319}}, "errors": ["EKF3 IMU1 MAG0 in-flight yaw alignment complete"]}
{"timestamp": "2026-01-31T07:34:30.685629Z", "telemetry": {"lat": 13.3546271, "lon": 74.8648441, "satellites": 13, "altitude_gps_m": 45.15999984741211, "groundspeed_mps": 0.06609600782394409}, "flight": {"mode": "LOITER", "armed": true}, "ekf": {"attitude": {"roll": 0.0007526378612965345, "pitch": -0.039980366826057434, "yaw": -0.7518564462661743}, "local_position": {"x": 2.9908394813537598, "y": 1.588592767715454, "z": -3.3519959449768066}, "status": {"flags": 831, "velocity_variance": 0.07233346998691559, "pos_horiz_variance": 0.0252614077180624, "pos_vert_variance": 0.02839944139122963}}, "errors": ["EKF3 IMU1 MAG0 in-flight yaw alignment complete"]}
{"timestamp": "2026-01-31T07:34:31.685887Z", "telemetry": {"lat": 13.3546261, "lon": 74.864843, "satellites": 13, "altitude_gps_m": 45.05999755859375, "groundspeed_mps": 0.1569199562072754}, "flight": {"mode": "LOITER", "armed": true}, "ekf": {"attitude": {"roll": 0.005141603760421276, "pitch": -0.03953620046377182, "yaw": -0.5169708728790283}, "local_position": {"x": 2.92667818069458, "y": 1.5162605047225952, "z": -3.2542166709899902}, "status": {"flags": 831, "velocity_variance": 0.046016089618206024, "pos_horiz_variance": 0.029025213792920113, "pos_vert_variance": 0.034745462238788605}}, "errors": ["EKF3 IMU1 MAG0 in-flight yaw alignment complete"]}
{"timestamp": "2026-01-31T07:34:32.697021Z", "telemetry": {"lat": 13.3546257, "lon": 74.8648438, "satellites": 13, "altitude_gps_m": 45.03999710083008, "groundspeed_mps": 0.15187738835811615}, "flight": {"mode": "LOITER", "armed": true}, "ekf": {"attitude": {"roll": -0.034046441316604614, "pitch": -0.03463215008378029, "yaw": 0.3224010467529297}, "local_position": {"x": 2.901569128036499, "y": 1.5585681200027466, "z": -3.2388482093811035}, "status": {"flags": 831, "velocity_variance": 0.04932228848338127, "pos_horiz_variance": 0.024686606600880623, "pos_vert_variance": 0.03374559059739113}}, "errors": ["EKF3 IMU1 MAG0 in-flight yaw alignment complete"]}
{"timestamp": "2026-01-31T07:34:33.685252Z", "telemetry": {"lat": 13.3546257, "lon": 74.8648449, "satellites": 13, "altitude_gps_m": 45.03999710083008, "groundspeed_mps": 0.058120690286159515}, "flight": {"mode": "LOITER", "armed": true}, "ekf": {"attitude": {"roll": -0.022438975051045418, "pitch": -0.03284242004156113, "yaw": 0.7434038519859314}, "local_position": {"x": 2.90439510345459, "y": 1.6518162488937378, "z": -3.229923963546753}, "status": {"flags": 831, "velocity_variance": 0.059547170996665955, "pos_horiz_variance": 0.026846429333090782, "pos_vert_variance": 0.03967057913541794}}, "errors": ["EKF3 IMU1 MAG0 in-flight yaw alignment complete"]}
{"timestamp": "2026-01-31T07:34:34.684818Z", "telemetry": {"lat": 13.3546253, "lon": 74.8648451, "satellites": 13, "altitude_gps_m": 45.02000045776367, "groundspeed_mps": 0.02221597358584404}, "flight": {"mode": "LOITER", "armed": true}, "ekf": {"attitude": {"roll": -0.03828516975045204, "pitch": -0.04005809873342514, "yaw": 1.359839677810669}, "local_position": {"x": 2.848954677581787, "y": 1.663049578666687, "z": -3.2068564891815186}, "status": {"flags": 831, "velocity_variance": 0.05450306460261345, "pos_horiz_variance": 0.025354567915201187, "pos_vert_variance": 0.03772013261914253}}, "errors": ["EKF3 IMU1 MAG0 in-flight yaw alignment complete"]}
{"timestamp": "2026-01-31T07:34:35.696587Z", "telemetry": {"lat": 13.3546253, "lon": 74.8648453, "satellites": 13, "altitude_gps_m": 45.029998779296875, "groundspeed_mps": 0.27512288093566895}, "flight": {"mode": "LOITER", "armed": true}, "ekf": {"attitude": {"roll": -0.0358373261988163, "pitch": -0.0331726111471653, "yaw": 1.6804277896881104}, "local_position": {"x": 2.862095832824707, "y": 1.6828243732452393, "z": -3.223618507385254}, "status": {"flags": 831, "velocity_variance": 0.05665992572903633, "pos_horiz_variance": 0.024168403819203377, "pos_vert_variance": 0.03236265480518341}}, "errors": ["EKF3 IMU1 MAG0 in-flight yaw alignment complete"]}
{"timestamp": "2026-01-31T07:34:36.697016Z", "telemetry": {"lat": 13.3546264, "lon": 74.8648455, "satellites": 13, "altitude_gps_m": 45.03999710083008, "groundspeed_mps": 0.29602858424186707}, "flight": {"mode": "LOITER", "armed": true}, "ekf": {"attitude": {"roll": -0.03958640620112419, "pitch": -0.03169311583042145, "yaw": 2.306161403656006}, "local_position": {"x": 2.993464708328247, "y": 1.742846131324768, "z": -3.231463670730591}, "status": {"flags": 831, "velocity_variance": 0.043279487639665604, "pos_horiz_variance": 0.026175953447818756, "pos_vert_variance": 0.03917863965034485}}, "errors": ["EKF3 IMU1 MAG0 in-flight yaw alignment complete"]}
{"timestamp": "2026-01-31T07:34:37.697198Z", "telemetry": {"lat": 13.3546283, "lon": 74.864847, "satellites": 13, "altitude_gps_m": 45.03999710083008, "groundspeed_mps": 0.1333203762769699}, "flight": {"mode": "LOITER", "armed": true}, "ekf": {"attitude": {"roll": 0.01035022921860218, "pitch": -0.022171583026647568, "yaw": 2.237947463989258}, "local_position": {"x": 3.1175448894500732, "y": 1.8394670486450195, "z": -3.239358425140381}, "status": {"flags": 831, "velocity_variance": 0.06892438977956772, "pos_horiz_variance": 0.018145563080906868, "pos_vert_variance": 0.03882080316543579}}, "errors": ["EKF3 IMU1 MAG0 in-flight yaw alignment complete"]}
{"timestamp": "2026-01-31T07:34:38.696846Z", "telemetry": {"lat": 13.3546282, "lon": 74.8648476, "satellites": 13, "altitude_gps_m": 45.04999923706055, "groundspeed_mps": 0.0851752758026123}, "flight": {"mode": "LOITER", "armed": true}, "ekf": {"attitude": {"roll": -0.005811389535665512, "pitch": -0.019886666908860207, "yaw": 2.4458067417144775}, "local_position": {"x": 3.0996246337890625, "y": 1.867010235786438, "z": -3.249241590499878}, "status": {"flags": 831, "velocity_variance": 0.050770264118909836, "pos_horiz_variance": 0.016185332089662552, "pos_vert_variance": 0.04774579778313637}}, "errors": ["EKF3 IMU1 MAG0 in-flight yaw alignment complete"]}
{"timestamp": "2026-01-31T07:34:39.683077Z", "telemetry": {"lat": 13.3546278, "lon": 74.8648473, "satellites": 13, "altitude_gps_m": 45.0099983215332, "groundspeed_mps": 0.12454178929328918}, "flight": {"mode": "LOITER", "armed": true}, "ekf": {"attitude": {"roll": -0.022075926885008812, "pitch": -0.022897906601428986, "yaw": 2.6672565937042236}, "local_position": {"x": 3.0426464080810547, "y": 1.798330307006836, "z": -3.201643705368042}, "status": {"flags": 831, "velocity_variance": 0.054206281900405884, "pos_horiz_variance": 0.015431731939315796, "pos_vert_variance": 0.057949263602495193}}, "errors": ["EKF3 IMU1 MAG0 in-flight yaw alignment complete"]}
{"timestamp": "2026-01-31T07:34:40.686347Z", "telemetry": {"lat": 13.3546279, "lon": 74.8648468, "satellites": 13, "altitude_gps_m": 45.0, "groundspeed_mps": 0.09475371986627579}, "flight": {"mode": "LOITER", "armed": true}, "ekf": {"attitude": {"roll": -0.0073359813541173935, "pitch": -0.035092707723379135, "yaw": 2.526388645172119}, "local_position": {"x": 3.0464940071105957, "y": 1.7721619606018066, "z": -3.2465882301330566}, "status": {"flags": 831, "velocity_variance": 0.1286935955286026, "pos_horiz_variance": 0.014079662039875984, "pos_vert_variance": 0.06339321285486221}}, "errors": ["EKF3 IMU1 MAG0 in-flight yaw alignment complete"]}
{"timestamp": "2026-01-31T07:34:41.687971Z", "telemetry": {"lat": 13.3546276, "lon": 74.8648474, "satellites": 13, "altitude_gps_m": 44.96999740600586, "groundspeed_mps": 0.03329514339566231}, "flight": {"mode": "LOITER", "armed": true}, "ekf": {"attitude": {"roll": -0.011363849975168705, "pitch": -0.02193545177578926, "yaw": 2.507411003112793}, "local_position": {"x": 3.003812313079834, "y": 1.8038560152053833, "z": -3.166720390319824}, "status": {"flags": 831, "velocity_variance": 0.05852063372731209, "pos_horiz_variance": 0.010822286829352379, "pos_vert_variance": 0.05809265375137329}}, "errors": ["EKF3 IMU1 MAG0 in-flight yaw alignment complete"]}
{"timestamp": "2026-01-31T07:34:42.698130Z", "telemetry": {"lat": 13.3546272, "lon": 74.8648484, "satellites": 13, "altitude_gps_m": 44.90999984741211, "groundspeed_mps": 0.10064253956079483}, "flight": {"mode": "LOITER", "armed": true}, "ekf": {"attitude": {"roll": -0.008862098678946495, "pitch": -0.006000816822052002, "yaw": 2.5834054946899414}, "local_position": {"x": 2.9551804065704346, "y": 1.8618983030319214, "z": -3.105684518814087}, "status": {"flags": 831, "velocity_variance": 0.07127799093723297, "pos_horiz_variance": 0.006080769468098879, "pos_vert_variance": 0.051421158015728}}, "errors": ["EKF3 IMU1 MAG0 in-flight yaw alignment complete"]}
{"timestamp": "2026-01-31T07:34:43.697976Z", "telemetry": {"lat": 13.3546275, "lon": 74.8648487, "satellites": 13, "altitude_gps_m": 44.959999084472656, "groundspeed_mps": 0.14221790432929993}, "flight": {"mode": "LOITER", "armed": true}, "ekf": {"attitude": {"roll": -0.017747830599546432, "pitch": -0.02732224389910698, "yaw": 2.509880304336548}, "local_position": {"x": 2.9742937088012695, "y": 1.8801158666610718, "z": -3.1359832286834717}, "status": {"flags": 831, "velocity_variance": 0.08021876960992813, "pos_horiz_variance": 0.005157278850674629, "pos_vert_variance": 0.028648648411035538}}, "errors": ["EKF3 IMU1 MAG0 in-flight yaw alignment complete"]}
{"timestamp": "2026-01-31T07:34:44.698677Z", "telemetry": {"lat": 13.3546277, "lon": 74.8648484, "satellites": 13, "altitude_gps_m": 45.06999969482422, "groundspeed_mps": 0.13034138083457947}, "flight": {"mode": "LOITER", "armed": true}, "ekf": {"attitude": {"roll": -0.0027005556039512157, "pitch": -0.033258724957704544, "yaw": -2.9478578567504883}, "local_position": {"x": 3.0190908908843994, "y": 1.8859037160873413, "z": -3.252272605895996}, "status": {"flags": 831, "velocity_variance": 0.06419460475444794, "pos_horiz_variance": 0.006592207122594118, "pos_vert_variance": 0.009940383955836296}}, "errors": ["EKF3 IMU1 MAG0 in-flight yaw alignment complete"]}
{"timestamp": "2026-01-31T07:34:45.698872Z", "telemetry": {"lat": 13.3546288, "lon": 74.8648491, "satellites": 13, "altitude_gps_m": 45.12999725341797, "groundspeed_mps": 0.12152179330587387}, "flight": {"mode": "LOITER", "armed": true}, "ekf": {"attitude": {"roll": -0.009083464741706848, "pitch": -0.04836622253060341, "yaw": -2.5348093509674072}, "local_position": {"x": 3.0917694568634033, "y": 1.9399057626724243, "z": -3.3277249336242676}, "status": {"flags": 831, "velocity_variance": 0.13923527300357819, "pos_horiz_variance": 0.0022790315560996532, "pos_vert_variance": 0.0007620050455443561}}, "errors": ["EKF3 IMU1 MAG0 in-flight yaw alignment complete"]}
{"timestamp": "2026-01-31T07:34:46.686537Z", "telemetry": {"lat": 13.3546296, "lon": 74.86485, "satellites": 13, "altitude_gps_m": 45.209999084472656, "groundspeed_mps": 0.006890290416777134}, "flight": {"mode": "LOITER", "armed": true}, "ekf": {"attitude": {"roll": -0.019977331161499023, "pitch": -0.05475517362356186, "yaw": -2.1843695640563965}, "local_position": {"x": 3.134700059890747, "y": 1.9929505586624146, "z": -3.382162570953369}, "status": {"flags": 831, "velocity_variance": 0.08065641671419144, "pos_horiz_variance": 0.0037586798425763845, "pos_vert_variance": 0.0023464916739612818}}, "errors": ["EKF3 IMU1 MAG0 in-flight yaw alignment complete"]}
{"timestamp": "2026-01-31T07:34:47.665253Z", "telemetry": {"lat": 13.3546295, "lon": 74.8648514, "satellites": 13, "altitude_gps_m": 45.12999725341797, "groundspeed_mps": 0.20367486774921417}, "flight": {"mode": "LOITER", "armed": true}, "ekf": {"attitude": {"roll": -0.03886803239583969, "pitch": -0.045057427138090134, "yaw": -0.34688735008239746}, "local_position": {"x": 3.0429129600524902, "y": 2.067836284637451, "z": -3.339961051940918}, "status": {"flags": 831, "velocity_variance": 0.03610526770353317, "pos_horiz_variance": 0.012962699867784977, "pos_vert_variance": 0.0018412348581478}}, "errors": ["EKF3 IMU1 MAG0 in-flight yaw alignment complete"]}
{"timestamp": "2026-01-31T07:34:48.699023Z", "telemetry": {"lat": 13.3546281, "lon": 74.8648517, "satellites": 13, "altitude_gps_m": 45.12999725341797, "groundspeed_mps": 0.15623164176940918}, "flight": {"mode": "LOITER", "armed": true}, "ekf": {"attitude": {"roll": -0.03527171164751053, "pitch": -0.06040865555405617, "yaw": -0.48496007919311523}, "local_position": {"x": 2.930581569671631, "y": 2.04906964302063, "z": -3.329906940460205}, "status": {"flags": 831, "velocity_variance": 0.0533088818192482, "pos_horiz_variance": 0.013782890513539314, "pos_vert_variance": 0.0011158123379573226}}, "errors": ["EKF3 IMU1 MAG0 in-flight yaw alignment complete"]}
