{"timestamp": "2026-01-31T07:44:10.216324Z", "telemetry": {"lat": 13.354679, "lon": 74.8649656, "satellites": 13, "altitude_gps_m": 42.77000045776367, "groundspeed_mps": 0.12956365942955017}, "flight": {"mode": "LOITER", "armed": true}, "ekf": {"attitude": {"roll": -0.0060331374406814575, "pitch": -0.023733697831630707, "yaw": 1.979056715965271}, "local_position": {"x": -0.3103460371494293, "y": 1.0582635402679443, "z": 0.28450557589530945}, "status": {"flags": 831, "velocity_variance": 0.05738873407244682, "pos_horiz_variance": 0.02342568337917328, "pos_vert_variance": 0.024043569341301918}}, "errors": []}
{"timestamp": "2026-01-31T07:44:11.186809Z", "telemetry": {"lat": 13.3546789, "lon": 74.8649662, "satellites": 13, "altitude_gps_m": 42.77000045776367, "groundspeed_mps": 0.15978237986564636}, "flight": {"mode": "LOITER", "armed": true}, "ekf": {"attitude": {"roll": -0.009122609160840511, "pitch": -0.014167645946145058, "yaw": 2.066387891769409}, "local_position": {"x": -0.3095300495624542, "y": 1.10336172580719, "z": 0.28641393780708313}, "status": {"flags": 831, "velocity_variance": 0.016884755343198776, "pos_horiz_variance": 0.02231811359524727, "pos_vert_variance": 0.021197520196437836}}, "errors": []}
{"timestamp": "2026-01-31T07:44:12.190091Z", "telemetry": {"lat": 13.3546789, "lon": 74.8649669, "satellites": 13, "altitude_gps_m": 42.80999755859375, "groundspeed_mps": 0.11670956015586853}, "flight": {"mode": "LOITER", "armed": true}, "ekf": {"attitude": {"roll": 0.009703988209366798, "pitch": -0.008588006719946861, "yaw": 2.1686882972717285}, "local_position": {"x": -0.3047903776168823, "y": 1.1474345922470093, "z": 0.2739172577857971}, "status": {"flags": 831, "velocity_variance": 0.026474665850400925, "pos_horiz_variance": 0.01893470622599125, "pos_vert_variance": 0.01971358060836792}}, "errors": []}
{"timestamp": "2026-01-31T07:44:13.187468Z", "telemetry": {"lat": 13.3546792, "lon": 74.8649683, "satellites": 13, "altitude_gps_m": 42.71999740600586, "groundspeed_mps": 0.07463988661766052}, "flight": {"mode": "LOITER", "armed": true}, "ekf": {"attitude": {"roll": 0.006577704101800919, "pitch": -0.01767776347696781, "yaw": 2.294478416442871}, "local_position": {"x": -0.26940080523490906, "y": 1.216330885887146, "z": 0.3352006673812866}, "status": {"flags": 831, "velocity_variance": 0.043072883039712906, "pos_horiz_variance": 0.0130118103697896, "pos_vert_variance": 0.01965850591659546}}, "errors": []}
{"timestamp": "2026-01-31T07:44:14.190195Z", "telemetry": {"lat": 13.3546791, "lon": 74.8649686, "satellites": 13, "altitude_gps_m": 42.71999740600586, "groundspeed_mps": 0.08519429713487625}, "flight": {"mode": "LOITER", "armed": true}, "ekf": {"attitude": {"roll": -0.00034141913056373596, "pitch": -0.01048300601541996, "yaw": 2.476871967315674}, "local_position": {"x": -0.2716248333454132, "y": 1.2088059186935425, "z": 0.34661537408828735}, "status": {"flags": 831, "velocity_variance": 0.015028580091893673, "pos_horiz_variance": 0.009351094253361225, "pos_vert_variance": 0.015631765127182007}}, "errors": []}
{"timestamp": "2026-01-31T07:44:15.192143Z", "telemetry": {"lat": 13.3546782, "lon": 74.8649682, "satellites": 13, "altitude_gps_m": 42.779998779296875, "groundspeed_mps": 0.06127646937966347}, "flight": {"mode": "LOITER", "armed": true}, "ekf": {"attitude": {"roll": -0.03329557552933693, "pitch": -0.0237942636013031, "yaw": 2.5717148780822754}, "local_position": {"x": -0.3678198456764221, "y": 1.1222002506256104, "z": 0.2876521944999695}, "status": {"flags": 831, "velocity_variance": 0.05082613229751587, "pos_horiz_variance": 0.007279618643224239, "pos_vert_variance": 0.018684454262256622}}, "errors": []}
{"timestamp": "2026-01-31T07:44:16.189960Z", "telemetry": {"lat": 13.3546784, "lon": 74.8649691, "satellites": 13, "altitude_gps_m": 42.81999969482422, "groundspeed_mps": 0.10291188210248947}, "flight": {"mode": "LOITER", "armed": true}, "ekf": {"attitude": {"roll": 0.01073880773037672, "pitch": -0.0005300343036651611, "yaw": 2.5078134536743164}, "local_position": {"x": -0.3611310124397278, "y": 1.1875933408737183, "z": 0.24158546328544617}, "status": {"flags": 831, "velocity_variance": 0.03647061437368393, "pos_horiz_variance": 0.003070912091061473, "pos_vert_variance": 0.01493123173713684}}, "errors": []}
{"timestamp": "2026-01-31T07:44:17.193000Z", "telemetry": {"lat": 13.3546784, "lon": 74.8649694, "satellites": 13, "altitude_gps_m": 42.82999801635742, "groundspeed_mps": 0.012403848581016064}, "flight": {"mode": "LOITER", "armed": true}, "ekf": {"attitude": {"roll": -0.002326791174709797, "pitch": -0.010001134127378464, "yaw": 2.5831031799316406}, "local_position": {"x": -0.3668000102043152, "y": 1.239786148071289, "z": 0.2150014340877533}, "status": {"flags": 831, "velocity_variance": 0.044505421072244644, "pos_horiz_variance": 0.004799309186637402, "pos_vert_variance": 0.02199500985443592}}, "errors": []}
{"timestamp": "2026-01-31T07:44:18.192155Z", "telemetry": {"lat": 13.3546788, "lon": 74.8649697, "satellites": 13, "altitude_gps_m": 42.80999755859375, "groundspeed_mps": 0.04957294464111328}, "flight": {"mode": "LOITER", "armed": true}, "ekf": {"attitude": {"roll": -0.01594976894557476, "pitch": -0.0213136188685894, "yaw": 2.740215539932251}, "local_position": {"x": -0.32781681418418884, "y": 1.2357778549194336, "z": 0.24906891584396362}, "status": {"flags": 831, "velocity_variance": 0.03876408562064171, "pos_horiz_variance": 0.0038113801274448633, "pos_vert_variance": 0.029898935928940773}}, "errors": []}
{"timestamp": "2026-01-31T07:44:19.192132Z", "telemetry": {"lat": 13.3546795, "lon": 74.8649698, "satellites": 13, "altitude_gps_m": 42.71999740600586, "groundspeed_mps": 0.03157482296228409}, "flight": {"mode": "LOITER", "armed": true}, "ekf": {"attitude": {"roll": -0.004310065880417824, "pitch": -0.029038645327091217, "yaw": 2.822467565536499}, "local_position": {"x": -0.2853234112262726, "y": 1.2604649066925049, "z": 0.2965872883796692}, "status": {"flags": 831, "velocity_variance": 0.022060249000787735, "pos_horiz_variance": 0.005069626960903406, "pos_vert_variance": 0.03206317499279976}}, "errors": []}
{"timestamp": "2026-01-31T07:44:20.190618Z", "telemetry": {"lat": 13.3546797, "lon": 74.8649697, "satellites": 13, "altitude_gps_m": 42.599998474121094, "groundspeed_mps": 0.07369595766067505}, "flight": {"mode": "LOITER", "armed": true}, "ekf": {"attitude": {"roll": -0.020190726965665817, "pitch": -0.0316678062081337, "yaw": 2.9829306602478027}, "local_position": {"x": -0.258523553609848, "y": 1.2326581478118896, "z": 0.43572214245796204}, "status": {"flags": 831, "velocity_variance": 0.009272213093936443, "pos_horiz_variance": 0.005195699632167816, "pos_vert_variance": 0.0331796370446682}}, "errors": []}
{"timestamp": "2026-01-31T07:44:21.189975Z", "telemetry": {"lat": 13.3546796, "lon": 74.8649694, "satellites": 12, "altitude_gps_m": 42.459999084472656, "groundspeed_mps": 0.07171978801488876}, "flight": {"mode": "LOITER", "armed": true}, "ekf": {"attitude": {"roll": -0.01975182071328163, "pitch": -0.02396412193775177, "yaw": -3.1229305267333984}, "local_position": {"x": -0.29153603315353394, "y": 1.20529043674469, "z": 0.5993894934654236}, "status": {"flags": 831, "velocity_variance": 0.02732493169605732, "pos_horiz_variance": 0.00698075583204627, "pos_vert_variance": 0.03616771101951599}}, "errors": []}
{"timestamp": "2026-01-31T07:44:22.193203Z", "telemetry": {"lat": 13.3546794, "lon": 74.8649699, "satellites": 12, "altitude_gps_m": 42.30999755859375, "groundspeed_mps": 0.07902255654335022}, "flight": {"mode": "LOITER", "armed": true}, "ekf": {"attitude": {"roll": -0.015621718019247055, "pitch": -0.03291076421737671, "yaw": -3.0186352729797363}, "local_position": {"x": -0.29531246423721313, "y": 1.2525359392166138, "z": 0.7085018157958984}, "status": {"flags": 831, "velocity_variance": 0.01633225381374359, "pos_horiz_variance": 0.005889194086194038, "pos_vert_variance": 0.028797419741749763}}, "errors": []}
{"timestamp": "2026-01-31T07:44:23.193670Z", "telemetry": {"lat": 13.3546791, "lon": 74.8649703, "satellites": 13, "altitude_gps_m": 42.21999740600586, "groundspeed_mps": 0.053063854575157166}, "flight": {"mode": "LOITER", "armed": true}, "ekf": {"attitude": {"roll": -0.014060708694159985, "pitch": -0.03205358609557152, "yaw": -2.946275234222412}, "local_position": {"x": -0.32297417521476746, "y": 1.292191505432129, "z": 0.82752925157547}, "status": {"flags": 831, "velocity_variance": 0.03333673253655434, "pos_horiz_variance": 0.005143262445926666, "pos_vert_variance": 0.03379262611269951}}, "errors": []}
{"timestamp": "2026-01-31T07:44:24.194641Z", "telemetry": {"lat": 13.354679, "lon": 74.864971, "satellites": 13, "altitude_gps_m": 42.18000030517578, "groundspeed_mps": 0.0511634461581707}, "flight": {"mode": "LOITER", "armed": true}, "ekf": {"attitude": {"roll": -0.0055237822234630585, "pitch": -0.02008873037993908, "yaw": -2.836623191833496}, "local_position": {"x": -0.3453773856163025, "y": 1.328526258468628, "z": 0.8804709315299988}, "status": {"flags": 831, "velocity_variance": 0.016709335148334503, "pos_horiz_variance": 0.007665729615837336, "pos_vert_variance": 0.027479201555252075}}, "errors": []}
{"timestamp": "2026-01-31T07:44:25.194151Z", "telemetry": {"lat": 13.3546798, "lon": 74.8649709, "satellites": 13, "altitude_gps_m": 42.119998931884766, "groundspeed_mps": 0.035206928849220276}, "flight": {"mode": "LOITER", "armed": true}, "ekf": {"attitude": {"roll": -0.012213906273245811, "pitch": -0.043115805834531784, "yaw": -2.7066545486450195}, "local_position": {"x": -0.301481693983078, "y": 1.3181204795837402, "z": 0.9171934127807617}, "status": {"flags": 831, "velocity_variance": 0.04222312569618225, "pos_horiz_variance": 0.011419742368161678, "pos_vert_variance": 0.014665191993117332}}, "errors": []}
{"timestamp": "2026-01-31T07:44:26.194967Z", "telemetry": {"lat": 13.3546798, "lon": 74.86497, "satellites": 13, "altitude_gps_m": 42.040000915527344, "groundspeed_mps": 0.06575842201709747}, "flight": {"mode": "LOITER", "armed": true}, "ekf": {"attitude": {"roll": -0.029543554410338402, "pitch": -0.037149008363485336, "yaw": -2.5269832611083984}, "local_position": {"x": -0.28477606177330017, "y": 1.2447396516799927, "z": 1.0102852582931519}, "status": {"flags": 831, "velocity_variance": 0.03921689838171005, "pos_horiz_variance": 0.008896971121430397, "pos_vert_variance": 0.01359010860323906}}, "errors": []}
{"timestamp": "2026-01-31T07:44:27.186226Z", "telemetry": {"lat": 13.3546793, "lon": 74.8649703, "satellites": 13, "altitude_gps_m": 42.06999969482422, "groundspeed_mps": 0.054158907383680344}, "flight": {"mode": "LOITER", "armed": true}, "ekf": {"attitude": {"roll": -0.016878513619303703, "pitch": -0.03518145531415939, "yaw": -2.4045610427856445}, "local_position": {"x": -0.29625606536865234, "y": 1.2865344285964966, "z": 0.9870302081108093}, "status": {"flags": 831, "velocity_variance": 0.06439054757356644, "pos_horiz_variance": 0.004311347845941782, "pos_vert_variance": 0.02789946086704731}}, "errors": []}
{"timestamp": "2026-01-31T07:44:28.192314Z", "telemetry": {"lat": 13.3546788, "lon": 74.864971, "satellites": 13, "altitude_gps_m": 41.95000076293945, "groundspeed_mps": 0.13585011661052704}, "flight": {"mode": "LOITER", "armed": true}, "ekf": {"attitude": {"roll": -0.0003919582813978195, "pitch": -0.05455411225557327, "yaw": -2.2379281520843506}, "local_position": {"x": -0.36631280183792114, "y": 1.3591759204864502, "z": 1.1498526334762573}, "status": {"flags": 831, "velocity_variance": 0.07536245137453079, "pos_horiz_variance": 0.004413051530718803, "pos_vert_variance": 0.025925321504473686}}, "errors": []}
{"timestamp": "2026-01-31T07:44:29.193321Z", "telemetry": {"lat": 13.3546776, "lon": 74.8649711, "satellites": 13, "altitude_gps_m": 41.93000030517578, "groundspeed_mps": 0.019495325163006783}, "flight": {"mode": "LOITER", "armed": true}, "ekf": {"attitude": {"roll": 0.019841289147734642, "pitch": -0.01459462009370327, "yaw": -1.98060941696167}, "local_position": {"x": -0.4851144552230835, "y": 1.3741661310195923, "z": 1.1449787616729736}, "status": {"flags": 831, "velocity_variance": 0.0395483635365963, "pos_horiz_variance": 0.003742778906598687, "pos_vert_variance": 0.031215069815516472}}, "errors": []}
{"timestamp": "2026-01-31T07:44:30.197785Z", "telemetry": {"lat": 13.3546779, "lon": 74.8649708, "satellites": 13, "altitude_gps_m": 41.91999816894531, "groundspeed_mps": 0.11479035764932632}, "flight": {"mode": "LOITER", "armed": true}, "ekf": {"attitude": {"roll": -0.0004845602670684457, "pitch": -0.04535955563187599, "yaw": -1.856112003326416}, "local_position": {"x": -0.39761683344841003, "y": 1.351479411125183, "z": 1.1378952264785767}, "status": {"flags": 831, "velocity_variance": 0.05509720370173454, "pos_horiz_variance": 0.002224602270871401, "pos_vert_variance": 0.027617987245321274}}, "errors": []}
{"timestamp": "2026-01-31T07:44:31.193084Z", "telemetry": {"lat": 13.3546783, "lon": 74.8649708, "satellites": 13, "altitude_gps_m": 41.98999786376953, "groundspeed_mps": 0.04245797544717789}, "flight": {"mode": "LOITER", "armed": true}, "ekf": {"attitude": {"roll": -0.024604281410574913, "pitch": -0.05372438207268715, "yaw": -1.832592248916626}, "local_position": {"x": -0.3830615282058716, "y": 1.3306832313537598, "z": 1.1265325546264648}, "status": {"flags": 831, "velocity_variance": 0.0647163838148117, "pos_horiz_variance": 0.0034873601980507374, "pos_vert_variance": 0.029778484255075455}}, "errors": []}
{"timestamp": "2026-01-31T07:44:32.188241Z", "telemetry": {"lat": 13.354678, "lon": 74.864971, "satellites": 12, "altitude_gps_m": 42.07999801635742, "groundspeed_mps": 0.03369426727294922}, "flight": {"mode": "LOITER", "armed": true}, "ekf": {"attitude": {"roll": -0.02667812816798687, "pitch": -0.05791859328746796, "yaw": -1.828662633895874}, "local_position": {"x": -0.4037042260169983, "y": 1.3331495523452759, "z": 0.975121259689331}, "status": {"flags": 831, "velocity_variance": 0.007241376210004091, "pos_horiz_variance": 0.003593267872929573, "pos_vert_variance": 0.033826131373643875}}, "errors": []}
{"timestamp": "2026-01-31T07:44:33.188114Z", "telemetry": {"lat": 13.3546774, "lon": 74.8649711, "satellites": 12, "altitude_gps_m": 42.15999984741211, "groundspeed_mps": 0.024207519367337227}, "flight": {"mode": "LOITER", "armed": true}, "ekf": {"attitude": {"roll": -0.026045506820082664, "pitch": -0.05968053266406059, "yaw": -1.8282028436660767}, "local_position": {"x": -0.4235212504863739, "y": 1.3305386304855347, "z": 0.8991262316703796}, "status": {"flags": 831, "velocity_variance": 0.043588556349277496, "pos_horiz_variance": 0.005658537615090609, "pos_vert_variance": 0.027839787304401398}}, "errors": []}
{"timestamp": "2026-01-31T07:44:34.189059Z", "telemetry": {"lat": 13.3546766, "lon": 74.864971, "satellites": 12, "altitude_gps_m": 42.21999740600586, "groundspeed_mps": 0.02250700257718563}, "flight": {"mode": "LOITER", "armed": true}, "ekf": {"attitude": {"roll": -0.004234623163938522, "pitch": -0.05397050827741623, "yaw": -1.819401741027832}, "local_position": {"x": -0.4459351897239685, "y": 1.3468928337097168, "z": 0.8625838160514832}, "status": {"flags": 831, "velocity_variance": 0.14818157255649567, "pos_horiz_variance": 0.007481021340936422, "pos_vert_variance": 0.017629770562052727}}, "errors": []}
{"timestamp": "2026-01-31T07:44:35.188942Z", "telemetry": {"lat": 13.3546773, "lon": 74.8649703, "satellites": 12, "altitude_gps_m": 42.369998931884766, "groundspeed_mps": 0.49749019742012024}, "flight": {"mode": "LOITER", "armed": true}, "ekf": {"attitude": {"roll": -0.02444961853325367, "pitch": 0.0016118362545967102, "yaw": -1.260123610496521}, "local_position": {"x": -0.26610028743743896, "y": 1.3125628232955933, "z": 0.6800557971000671}, "status": {"flags": 831, "velocity_variance": 0.08148997277021408, "pos_horiz_variance": 0.009496739134192467, "pos_vert_variance": 0.00013916184252593666}}, "errors": []}
{"timestamp": "2026-01-31T07:44:36.194410Z", "telemetry": {"lat": 13.3546803, "lon": 74.8649707, "satellites": 12, "altitude_gps_m": 42.82999801635742, "groundspeed_mps": 0.146060973405838}, "flight": {"mode": "LOITER", "armed": true}, "ekf": {"attitude": {"roll": -0.06848156452178955, "pitch": 0.025590848177671432, "yaw": -0.37406888604164124}, "local_position": {"x": -0.026219427585601807, "y": 1.3619184494018555, "z": 0.2238207310438156}, "status": {"flags": 831, "velocity_variance": 0.025157837197184563, "pos_horiz_variance": 0.011069172993302345, "pos_vert_variance": 0.0015169376274570823}}, "errors": []}
{"timestamp": "2026-01-31T07:44:37.189275Z", "telemetry": {"lat": 13.3546788, "lon": 74.8649709, "satellites": 12, "altitude_gps_m": 43.029998779296875, "groundspeed_mps": 0.27323418855667114}, "flight": {"mode": "LOITER", "armed": true}, "ekf": {"attitude": {"roll": -0.04742800444364548, "pitch": -0.02889229729771614, "yaw": -0.3735470473766327}, "local_position": {"x": -0.2504179775714874, "y": 1.3587851524353027, "z": 0.021282026544213295}, "status": {"flags": 831, "velocity_variance": 0.03093014843761921, "pos_horiz_variance": 0.009447567164897919, "pos_vert_variance": 0.012342299334704876}}, "errors": []}
{"timestamp": "2026-01-31T07:44:38.193629Z", "telemetry": {"lat": 13.3546766, "lon": 74.8649697, "satellites": 12, "altitude_gps_m": 43.22999954223633, "groundspeed_mps": 0.19280880689620972}, "flight": {"mode": "LOITER", "armed": true}, "ekf": {"attitude": {"roll": -0.028421221300959587, "pitch": -0.033597465604543686, "yaw": -0.13131792843341827}, "local_position": {"x": -0.4515535831451416, "y": 1.2325890064239502, "z": -0.18086130917072296}, "status": {"flags": 831, "velocity_variance": 0.03705139085650444, "pos_horiz_variance": 0.011290579102933407, "pos_vert_variance": 0.020128441974520683}}, "errors": []}
{"timestamp": "2026-01-31T07:44:39.193605Z", "telemetry": {"lat": 13.3546758, "lon": 74.864968, "satellites": 12, "altitude_gps_m": 43.31999969482422, "groundspeed_mps": 0.04639095067977905}, "flight": {"mode": "LOITER", "armed": true}, "ekf": {"attitude": {"roll": -0.015076112933456898, "pitch": -0.029774419963359833, "yaw": 0.1040111854672432}, "local_position": {"x": -0.5342894792556763, "y": 1.1091806888580322, "z": -0.26413586735725403}, "status": {"flags": 831, "velocity_variance": 0.05929563194513321, "pos_horiz_variance": 0.01019992120563984, "pos_vert_variance": 0.023318367078900337}}, "errors": []}
{"timestamp": "2026-01-31T07:44:40.190246Z", "telemetry": {"lat": 13.3546764, "lon": 74.8649675, "satellites": 12, "altitude_gps_m": 43.279998779296875, "groundspeed_mps": 0.07152711600065231}, "flight": {"mode": "LOITER", "armed": true}, "ekf": {"attitude": {"roll": -0.016335979104042053, "pitch": -0.01312955841422081, "yaw": 0.3730543255805969}, "local_position": {"x": -0.49060046672821045, "y": 1.0841703414916992, "z": -0.23133006691932678}, "status": {"flags": 831, "velocity_variance": 0.04803168773651123, "pos_horiz_variance": 0.0099668949842453, "pos_vert_variance": 0.024648606777191162}}, "errors": []}
{"timestamp": "2026-01-31T07:44:41.190447Z", "telemetry": {"lat": 13.354677, "lon": 74.8649681, "satellites": 12, "altitude_gps_m": 43.279998779296875, "groundspeed_mps": 0.07307864725589752}, "flight": {"mode": "LOITER", "armed": true}, "ekf": {"attitude": {"roll": -0.028667699545621872, "pitch": -0.014283822849392891, "yaw": 0.6828254461288452}, "local_position": {"x": -0.4327973425388336, "y": 1.1315698623657227, "z": -0.22632014751434326}, "status": {"flags": 831, "velocity_variance": 0.02634272351861, "pos_horiz_variance": 0.006964965723454952, "pos_vert_variance": 0.021760182455182076}}, "errors": []}
{"timestamp": "2026-01-31T07:44:42.190777Z", "telemetry": {"lat": 13.3546772, "lon": 74.8649683, "satellites": 12, "altitude_gps_m": 43.29999923706055, "groundspeed_mps": 0.08305257558822632}, "flight": {"mode": "LOITER", "armed": true}, "ekf": {"attitude": {"roll": -0.01681349240243435, "pitch": -0.0210698414593935, "yaw": 0.9644024968147278}, "local_position": {"x": -0.3981955945491791, "y": 1.1514192819595337, "z": -0.2344113439321518}, "status": {"flags": 831, "velocity_variance": 0.047962840646505356, "pos_horiz_variance": 0.008677802048623562, "pos_vert_variance": 0.01699903979897499}}, "errors": []}
{"timestamp": "2026-01-31T07:44:43.191488Z", "telemetry": {"lat": 13.354678, "lon": 74.8649681, "satellites": 13, "altitude_gps_m": 43.21999740600586, "groundspeed_mps": 0.10081642866134644}, "flight": {"mode": "LOITER", "armed": true}, "ekf": {"attitude": {"roll": -0.009507058188319206, "pitch": -0.009876994416117668, "yaw": 1.3805150985717773}, "local_position": {"x": -0.35006964206695557, "y": 1.139786958694458, "z": -0.16331759095191956}, "status": {"flags": 831, "velocity_variance": 0.033536799252033234, "pos_horiz_variance": 0.007362102624028921, "pos_vert_variance": 0.009961255826056004}}, "errors": []}
{"timestamp": "2026-01-31T07:44:44.191025Z", "telemetry": {"lat": 13.3546778, "lon": 74.8649684, "satellites": 13, "altitude_gps_m": 43.13999938964844, "groundspeed_mps": 0.07110606878995895}, "flight": {"mode": "LOITER", "armed": true}, "ekf": {"attitude": {"roll": -0.029802687466144562, "pitch": 0.003700628876686096, "yaw": 1.6488317251205444}, "local_position": {"x": -0.4043355882167816, "y": 1.2021247148513794, "z": -0.08287791162729263}, "status": {"flags": 831, "velocity_variance": 0.041489068418741226, "pos_horiz_variance": 0.009462293237447739, "pos_vert_variance": 0.0001929051213664934}}, "errors": []}
{"timestamp": "2026-01-31T07:44:45.191452Z", "telemetry": {"lat": 13.354678, "lon": 74.8649685, "satellites": 13, "altitude_gps_m": 43.15999984741211, "groundspeed_mps": 0.069400355219841}, "flight": {"mode": "LOITER", "armed": true}, "ekf": {"attitude": {"roll": -0.016243113204836845, "pitch": -0.005137387663125992, "yaw": 2.0036911964416504}, "local_position": {"x": -0.3802521824836731, "y": 1.2167339324951172, "z": -0.11143253743648529}, "status": {"flags": 831, "velocity_variance": 0.021242212504148483, "pos_horiz_variance": 0.010688203386962414, "pos_vert_variance": 0.005869473796337843}}, "errors": []}
{"timestamp": "2026-01-31T07:44:46.191582Z", "telemetry": {"lat": 13.3546787, "lon": 74.8649687, "satellites": 13, "altitude_gps_m": 43.15999984741211, "groundspeed_mps": 0.047451891005039215}, "flight": {"mode": "LOITER", "armed": true}, "ekf": {"attitude": {"roll": -0.002790779108181596, "pitch": -0.007176220417022705, "yaw": 2.322068452835083}, "local_position": {"x": -0.293902724981308, "y": 1.2469384670257568, "z": -0.10828051716089249}, "status": {"flags": 831, "velocity_variance": 0.034121908247470856, "pos_horiz_variance": 0.010829474776983261, "pos_vert_variance": 0.009681697934865952}}, "errors": []}
{"timestamp": "2026-01-31T07:44:47.191928Z", "telemetry": {"lat": 13.3546793, "lon": 74.8649685, "satellites": 13, "altitude_gps_m": 43.15999984741211, "groundspeed_mps": 0.04668031260371208}, "flight": {"mode": "LOITER", "armed": true}, "ekf": {"attitude": {"roll": -0.004553399048745632, "pitch": -0.022294193506240845, "yaw": 2.4660937786102295}, "local_position": {"x": -0.22882625460624695, "y": 1.2252057790756226, "z": -0.10273031145334244}, "status": {"flags": 831, "velocity_variance": 0.02229759655892849, "pos_horiz_variance": 0.011747220531105995, "pos_vert_variance": 0.004163598641753197}}, "errors": []}
{"timestamp": "2026-01-31T07:44:48.192159Z", "telemetry": {"lat": 13.3546802, "lon": 74.8649681, "satellites": 13, "altitude_gps_m": 43.13999938964844, "groundspeed_mps": 0.0664859190583229}, "flight": {"mode": "LOITER", "armed": true}, "ekf": {"attitude": {"roll": -0.01210031844675541, "pitch": -0.019420990720391273, "yaw": 2.6447033882141113}, "local_position": {"x": -0.20413218438625336, "y": 1.174941062927246, "z": -0.08899374306201935}, "status": {"flags": 831, "velocity_variance": 0.04363729804754257, "pos_horiz_variance": 0.011354747228324413, "pos_vert_variance": 0.003224798245355487}}, "errors": []}
{"timestamp": "2026-01-31T07:44:49.192286Z", "telemetry": {"lat": 13.3546802, "lon": 74.8649687, "satellites": 13, "altitude_gps_m": 43.12999725341797, "groundspeed_mps": 0.0977562665939331}, "flight": {"mode": "LOITER", "armed": true}, "ekf": {"attitude": {"roll": -0.001077820430509746, "pitch": -0.029423294588923454, "yaw": 2.6031312942504883}, "local_position": {"x": -0.23172101378440857, "y": 1.2195019721984863, "z": -0.0761810839176178}, "status": {"flags": 831, "velocity_variance": 0.03614373505115509, "pos_horiz_variance": 0.010817984119057655, "pos_vert_variance": 0.007328314706683159}}, "errors": []}
{"timestamp": "2026-01-31T07:44:50.192742Z", "telemetry": {"lat": 13.3546802, "lon": 74.8649695, "satellites": 13, "altitude_gps_m": 43.119998931884766, "groundspeed_mps": 0.08319136500358582}, "flight": {"mode": "LOITER", "armed": true}, "ekf": {"attitude": {"roll": 0.005529019981622696, "pitch": -0.01678885705769062, "yaw": 2.7903828620910645}, "local_position": {"x": -0.262376070022583, "y": 1.291562557220459, "z": -0.061560481786727905}, "status": {"flags": 831, "velocity_variance": 0.027157001197338104, "pos_horiz_variance": 0.01213321927934885, "pos_vert_variance": 0.010741028934717178}}, "errors": []}
{"timestamp": "2026-01-31T07:44:51.193279Z", "telemetry": {"lat": 13.3546801, "lon": 74.8649699, "satellites": 13, "altitude_gps_m": 43.07999801635742, "groundspeed_mps": 0.05922059714794159}, "flight": {"mode": "LOITER", "armed": true}, "ekf": {"attitude": {"roll": -0.004091447219252586, "pitch": -0.026324626058340073, "yaw": 2.9495441913604736}, "local_position": {"x": -0.2955564260482788, "y": 1.2900933027267456, "z": -0.04585905000567436}, "status": {"flags": 831, "velocity_variance": 0.025639576837420464, "pos_horiz_variance": 0.013075157068669796, "pos_vert_variance": 0.020444011315703392}}, "errors": []}
{"timestamp": "2026-01-31T07:44:52.192920Z", "telemetry": {"lat": 13.3546801, "lon": 74.8649704, "satellites": 13, "altitude_gps_m": 42.95000076293945, "groundspeed_mps": 0.04229646176099777}, "flight": {"mode": "LOITER", "armed": true}, "ekf": {"attitude": {"roll": 0.008541964925825596, "pitch": -0.01971752755343914, "yaw": -3.1339468955993652}, "local_position": {"x": -0.31361469626426697, "y": 1.3259536027908325, "z": 0.11004092544317245}, "status": {"flags": 831, "velocity_variance": 0.02097788266837597, "pos_horiz_variance": 0.015174285508692265, "pos_vert_variance": 0.023497354239225388}}, "errors": []}
{"timestamp": "2026-01-31T07:44:53.193469Z", "telemetry": {"lat": 13.3546801, "lon": 74.8649708, "satellites": 13, "altitude_gps_m": 42.79999923706055, "groundspeed_mps": 0.0211033895611763}, "flight": {"mode": "LOITER", "armed": true}, "ekf": {"attitude": {"roll": 0.008581873029470444, "pitch": -0.0383976511657238, "yaw": -2.9326553344726562}, "local_position": {"x": -0.3057931959629059, "y": 1.3511751890182495, "z": 0.25657376646995544}, "status": {"flags": 831, "velocity_variance": 0.04646062105894089, "pos_horiz_variance": 0.015001321211457253, "pos_vert_variance": 0.021850503981113434}}, "errors": []}
{"timestamp": "2026-01-31T07:44:54.193878Z", "telemetry": {"lat": 13.3546803, "lon": 74.8649706, "satellites": 13, "altitude_gps_m": 42.71999740600586, "groundspeed_mps": 0.048786722123622894}, "flight": {"mode": "LOITER", "armed": true}, "ekf": {"attitude": {"roll": 0.001416034996509552, "pitch": -0.040817197412252426, "yaw": -2.7286415100097656}, "local_position": {"x": -0.2891612648963928, "y": 1.3334943056106567, "z": 0.31022900342941284}, "status": {"flags": 831, "velocity_variance": 0.04378802701830864, "pos_horiz_variance": 0.01443444099277258, "pos_vert_variance": 0.012086636386811733}}, "errors": []}
{"timestamp": "2026-01-31T07:44:55.193750Z", "telemetry": {"lat": 13.3546799, "lon": 74.8649704, "satellites": 13, "altitude_gps_m": 42.66999816894531, "groundspeed_mps": 0.04963281750679016}, "flight": {"mode": "LOITER", "armed": true}, "ekf": {"attitude": {"roll": -0.001014674548059702, "pitch": -0.03665360435843468, "yaw": -2.512730360031128}, "local_position": {"x": -0.3216288983821869, "y": 1.3277891874313354, "z": 0.38773801922798157}, "status": {"flags": 831, "velocity_variance": 0.03302634879946709, "pos_horiz_variance": 0.013961107470095158, "pos_vert_variance": 0.013751145452260971}}, "errors": []}
{"timestamp": "2026-01-31T07:44:56.194193Z", "telemetry": {"lat": 13.3546796, "lon": 74.8649713, "satellites": 13, "altitude_gps_m": 42.619998931884766, "groundspeed_mps": 0.020966093987226486}, "flight": {"mode": "LOITER", "armed": true}, "ekf": {"attitude": {"roll": 0.006291241385042667, "pitch": -0.059870243072509766, "yaw": -2.3696579933166504}, "local_position": {"x": -0.3113878667354584, "y": 1.3794962167739868, "z": 0.4311724305152893}, "status": {"flags": 831, "velocity_variance": 0.036613937467336655, "pos_horiz_variance": 0.010255523957312107, "pos_vert_variance": 0.019477779045701027}}, "errors": []}
{"timestamp": "2026-01-31T07:44:57.194286Z", "telemetry": {"lat": 13.3546793, "lon": 74.8649712, "satellites": 13, "altitude_gps_m": 42.65999984741211, "groundspeed_mps": 0.0869695246219635}, "flight": {"mode": "LOITER", "armed": true}, "ekf": {"attitude": {"roll": -0.0047309380024671555, "pitch": -0.0478513166308403, "yaw": -2.4185872077941895}, "local_position": {"x": -0.32366064190864563, "y": 1.3475359678268433, "z": 0.39716804027557373}, "status": {"flags": 831, "velocity_variance": 0.04172627627849579, "pos_horiz_variance": 0.007038942538201809, "pos_vert_variance": 0.013027645647525787}}, "errors": []}
{"timestamp": "2026-01-31T07:44:58.194986Z", "telemetry": {"lat": 13.3546785, "lon": 74.8649713, "satellites": 13, "altitude_gps_m": 42.63999938964844, "groundspeed_mps": 0.06976838409900665}, "flight": {"mode": "LOITER", "armed": true}, "ekf": {"attitude": {"roll": 0.017830440774559975, "pitch": -0.03656016290187836, "yaw": -2.4226431846618652}, "local_position": {"x": -0.393484890460968, "y": 1.325741171836853, "z": 0.4134579300880432}, "status": {"flags": 831, "velocity_variance": 0.035097017884254456, "pos_horiz_variance": 0.008890372700989246, "pos_vert_variance": 0.0167536661028862}}, "errors": []}
{"timestamp": "2026-01-31T07:44:59.194912Z", "telemetry": {"lat": 13.3546782, "lon": 74.8649711, "satellites": 13, "altitude_gps_m": 42.619998931884766, "groundspeed_mps": 0.06942173838615417}, "flight": {"mode": "LOITER", "armed": true}, "ekf": {"attitude": {"roll": 0.016431787982583046, "pitch": -0.03779279813170433, "yaw": -2.4880924224853516}, "local_position": {"x": -0.4023413360118866, "y": 1.2908837795257568, "z": 0.4314929246902466}, "status": {"flags": 831, "velocity_variance": 0.01858367770910263, "pos_horiz_variance": 0.008830150589346886, "pos_vert_variance": 0.02326241135597229}}, "errors": []}
{"timestamp": "2026-01-31T07:45:00.195059Z", "telemetry": {"lat": 13.3546785, "lon": 74.8649709, "satellites": 13, "altitude_gps_m": 42.63999938964844, "groundspeed_mps": 0.09103281050920486}, "flight": {"mode": "LOITER", "armed": true}, "ekf": {"attitude": {"roll": -0.001867258339188993, "pitch": -0.038172684609889984, "yaw": -2.6661391258239746}, "local_position": {"x": -0.3747798800468445, "y": 1.2609806060791016, "z": 0.4156807065010071}, "status": {"flags": 831, "velocity_variance": 0.021846365183591843, "pos_horiz_variance": 0.008745894767343998, "pos_vert_variance": 0.016124987974762917}}, "errors": []}
{"timestamp": "2026-01-31T07:45:01.195113Z", "telemetry": {"lat": 13.3546785, "lon": 74.8649702, "satellites": 13, "altitude_gps_m": 42.599998474121094, "groundspeed_mps": 0.016075976192951202}, "flight": {"mode": "LOITER", "armed": true}, "ekf": {"attitude": {"roll": -0.004265373572707176, "pitch": -0.02588742971420288, "yaw": -2.7891790866851807}, "local_position": {"x": -0.3794941008090973, "y": 1.2427066564559937, "z": 0.44935575127601624}, "status": {"flags": 831, "velocity_variance": 0.03804340586066246, "pos_horiz_variance": 0.0071756900288164616, "pos_vert_variance": 0.014427094720304012}}, "errors": []}
{"timestamp": "2026-01-31T07:45:02.195962Z", "telemetry": {"lat": 13.3546781, "lon": 74.8649706, "satellites": 13, "altitude_gps_m": 42.619998931884766, "groundspeed_mps": 0.02440771274268627}, "flight": {"mode": "LOITER", "armed": true}, "ekf": {"attitude": {"roll": 0.007621203549206257, "pitch": -0.021174611523747444, "yaw": -3.0146374702453613}, "local_position": {"x": -0.3859207034111023, "y": 1.2853479385375977, "z": 0.4312247037887573}, "status": {"flags": 831, "velocity_variance": 0.051100097596645355, "pos_horiz_variance": 0.005067797843366861, "pos_vert_variance": 0.009573210030794144}}, "errors": []}
{"timestamp": "2026-01-31T07:45:03.196230Z", "telemetry": {"lat": 13.3546771, "lon": 74.8649701, "satellites": 13, "altitude_gps_m": 42.62999725341797, "groundspeed_mps": 0.07350850105285645}, "flight": {"mode": "LOITER", "armed": true}, "ekf": {"attitude": {"roll": -0.006094593554735184, "pitch": -0.008873635903000832, "yaw": 2.9436964988708496}, "local_position": {"x": -0.43591612577438354, "y": 1.2577992677688599, "z": 0.4212004542350769}, "status": {"flags": 831, "velocity_variance": 0.02555515058338642, "pos_horiz_variance": 0.005346271675080061, "pos_vert_variance": 0.010607690550386906}}, "errors": []}
{"timestamp": "2026-01-31T07:45:04.196328Z", "telemetry": {"lat": 13.3546764, "lon": 74.8649686, "satellites": 13, "altitude_gps_m": 42.62999725341797, "groundspeed_mps": 0.028173018246889114}, "flight": {"mode": "LOITER", "armed": true}, "ekf": {"attitude": {"roll": -0.028748610988259315, "pitch": -0.012177539989352226, "yaw": 2.5355191230773926}, "local_position": {"x": -0.45786261558532715, "y": 1.1614254713058472, "z": 0.42117875814437866}, "status": {"flags": 831, "velocity_variance": 0.06913435459136963, "pos_horiz_variance": 0.010991678573191166, "pos_vert_variance": 0.004076095763593912}}, "errors": []}
{"timestamp": "2026-01-31T07:45:05.196599Z", "telemetry": {"lat": 13.354676, "lon": 74.8649688, "satellites": 13, "altitude_gps_m": 42.66999816894531, "groundspeed_mps": 0.14007073640823364}, "flight": {"mode": "LOITER", "armed": true}, "ekf": {"attitude": {"roll": -0.014198673889040947, "pitch": -0.02088182605803013, "yaw": 2.47141170501709}, "local_position": {"x": -0.4368281066417694, "y": 1.1812020540237427, "z": 0.38807934522628784}, "status": {"flags": 831, "velocity_variance": 0.038818828761577606, "pos_horiz_variance": 0.014185785315930843, "pos_vert_variance": 0.0095031363889575}}, "errors": []}
{"timestamp": "2026-01-31T07:45:06.197133Z", "telemetry": {"lat": 13.354677, "lon": 74.8649691, "satellites": 13, "altitude_gps_m": 42.64999771118164, "groundspeed_mps": 0.0369134247303009}, "flight": {"mode": "LOITER", "armed": true}, "ekf": {"attitude": {"roll": 0.009341634809970856, "pitch": -0.02544645220041275, "yaw": 1.9957513809204102}, "local_position": {"x": -0.33340156078338623, "y": 1.211822271347046, "z": 0.4100196361541748}, "status": {"flags": 831, "velocity_variance": 0.040449000895023346, "pos_horiz_variance": 0.016518009826540947, "pos_vert_variance": 0.005361634306609631}}, "errors": []}
{"timestamp": "2026-01-31T07:45:07.197257Z", "telemetry": {"lat": 13.3546768, "lon": 74.8649688, "satellites": 13, "altitude_gps_m": 42.599998474121094, "groundspeed_mps": 0.013792320154607296}, "flight": {"mode": "LOITER", "armed": true}, "ekf": {"attitude": {"roll": -0.01725960709154606, "pitch": -0.030520696192979813, "yaw": 1.9380358457565308}, "local_position": {"x": -0.3626396656036377, "y": 1.1771355867385864, "z": 0.4584585428237915}, "status": {"flags": 831, "velocity_variance": 0.037536319345235825, "pos_horiz_variance": 0.016110192984342575, "pos_vert_variance": 0.010889043100178242}}, "errors": []}
{"timestamp": "2026-01-31T07:45:08.197594Z", "telemetry": {"lat": 13.3546764, "lon": 74.8649686, "satellites": 12, "altitude_gps_m": 42.599998474121094, "groundspeed_mps": 0.06384888291358948}, "flight": {"mode": "LOITER", "armed": true}, "ekf": {"attitude": {"roll": -0.009371412917971611, "pitch": -0.022682128474116325, "yaw": 1.7907997369766235}, "local_position": {"x": -0.373139351606369, "y": 1.2135701179504395, "z": 0.4523116946220398}, "status": {"flags": 831, "velocity_variance": 0.08540612459182739, "pos_horiz_variance": 0.020346559584140778, "pos_vert_variance": 0.0028195660561323166}}, "errors": []}
{"timestamp": "2026-01-31T07:45:09.197950Z", "telemetry": {"lat": 13.3546772, "lon": 74.8649696, "satellites": 13, "altitude_gps_m": 42.66999816894531, "groundspeed_mps": 0.03313370421528816}, "flight": {"mode": "LOITER", "armed": true}, "ekf": {"attitude": {"roll": -0.009193372912704945, "pitch": -0.016744820401072502, "yaw": 1.7345919609069824}, "local_position": {"x": -0.3830223083496094, "y": 1.2776538133621216, "z": 0.3880629241466522}, "status": {"flags": 831, "velocity_variance": 0.024067312479019165, "pos_horiz_variance": 0.009503970853984356, "pos_vert_variance": 0.0004391813708934933}}, "errors": []}
{"timestamp": "2026-01-31T07:45:10.198431Z", "telemetry": {"lat": 13.3546779, "lon": 74.8649699, "satellites": 13, "altitude_gps_m": 42.87999725341797, "groundspeed_mps": 0.02366507612168789}, "flight": {"mode": "LOITER", "armed": true}, "ekf": {"attitude": {"roll": 0.007286095060408115, "pitch": -0.018184855580329895, "yaw": 1.6997199058532715}, "local_position": {"x": -0.3370669186115265, "y": 1.2784558534622192, "z": 0.22190368175506592}, "status": {"flags": 831, "velocity_variance": 0.0639757364988327, "pos_horiz_variance": 0.005959106609225273, "pos_vert_variance": 0.008542105555534363}}, "errors": []}
{"timestamp": "2026-01-31T07:45:11.198536Z", "telemetry": {"lat": 13.3546788, "lon": 74.8649709, "satellites": 13, "altitude_gps_m": 43.11000061035156, "groundspeed_mps": 0.08030764758586884}, "flight": {"mode": "LOITER", "armed": true}, "ekf": {"attitude": {"roll": 0.004409893415868282, "pitch": -0.011927073821425438, "yaw": 1.6690951585769653}, "local_position": {"x": -0.33111700415611267, "y": 1.336229681968689, "z": -0.05368742346763611}, "status": {"flags": 831, "velocity_variance": 0.0301434937864542, "pos_horiz_variance": 0.0030272575095295906, "pos_vert_variance": 0.010577167384326458}}, "errors": []}
{"timestamp": "2026-01-31T07:45:12.198446Z", "telemetry": {"lat": 13.3546788, "lon": 74.8649713, "satellites": 13, "altitude_gps_m": 43.290000915527344, "groundspeed_mps": 0.060709498822689056}, "flight": {"mode": "LOITER", "armed": true}, "ekf": {"attitude": {"roll": -0.0010105329565703869, "pitch": -0.01303943432867527, "yaw": 1.7119239568710327}, "local_position": {"x": -0.3389749825000763, "y": 1.3316912651062012, "z": -0.17942462861537933}, "status": {"flags": 831, "velocity_variance": 0.0738643929362297, "pos_horiz_variance": 0.006325351074337959, "pos_vert_variance": 0.009566840715706348}}, "errors": []}
{"timestamp": "2026-01-31T07:45:13.198778Z", "telemetry": {"lat": 13.3546784, "lon": 74.8649711, "satellites": 13, "altitude_gps_m": 43.45000076293945, "groundspeed_mps": 0.08885762095451355}, "flight": {"mode": "LOITER", "armed": true}, "ekf": {"attitude": {"roll": -0.004748297855257988, "pitch": -0.01683041639626026, "yaw": 1.7490159273147583}, "local_position": {"x": -0.35950031876564026, "y": 1.3242720365524292, "z": -0.39766725897789}, "status": {"flags": 831, "velocity_variance": 0.01970723271369934, "pos_horiz_variance": 0.004866995848715305, "pos_vert_variance": 0.012226242572069168}}, "errors": []}
{"timestamp": "2026-01-31T07:45:14.198992Z", "telemetry": {"lat": 13.3546784, "lon": 74.8649714, "satellites": 13, "altitude_gps_m": 43.55999755859375, "groundspeed_mps": 0.060845158994197845}, "flight": {"mode": "LOITER", "armed": true}, "ekf": {"attitude": {"roll": 0.0018883317243307829, "pitch": -0.021136252209544182, "yaw": 1.7246041297912598}, "local_position": {"x": -0.3506605923175812, "y": 1.3098872900009155, "z": -0.5081764459609985}, "status": {"flags": 831, "velocity_variance": 0.02371603064239025, "pos_horiz_variance": 0.008715463802218437, "pos_vert_variance": 8.441422687610611e-05}}, "errors": []}
{"timestamp": "2026-01-31T07:45:15.199334Z", "telemetry": {"lat": 13.3546779, "lon": 74.8649717, "satellites": 13, "altitude_gps_m": 43.689998626708984, "groundspeed_mps": 0.05695901811122894}, "flight": {"mode": "LOITER", "armed": true}, "ekf": {"attitude": {"roll": -0.01712222211062908, "pitch": -0.024327993392944336, "yaw": 1.6503934860229492}, "local_position": {"x": -0.3725878596305847, "y": 1.3272042274475098, "z": -0.6169734001159668}, "status": {"flags": 831, "velocity_variance": 0.06320194154977798, "pos_horiz_variance": 0.010733251459896564, "pos_vert_variance": 0.003406095551326871}}, "errors": []}
{"timestamp": "2026-01-31T07:45:16.199670Z", "telemetry": {"lat": 13.3546777, "lon": 74.8649716, "satellites": 13, "altitude_gps_m": 43.73999786376953, "groundspeed_mps": 0.0585763044655323}, "flight": {"mode": "LOITER", "armed": true}, "ekf": {"attitude": {"roll": -0.005030123516917229, "pitch": -0.016962051391601562, "yaw": 1.6913994550704956}, "local_position": {"x": -0.40425392985343933, "y": 1.3420523405075073, "z": -0.6807304620742798}, "status": {"flags": 831, "velocity_variance": 0.029162941500544548, "pos_horiz_variance": 0.009881787933409214, "pos_vert_variance": 0.004716242663562298}}, "errors": []}
{"timestamp": "2026-01-31T07:45:17.199909Z", "telemetry": {"lat": 13.3546781, "lon": 74.8649709, "satellites": 13, "altitude_gps_m": 43.71999740600586, "groundspeed_mps": 0.10574255138635635}, "flight": {"mode": "LOITER", "armed": true}, "ekf": {"attitude": {"roll": -0.008181245997548103, "pitch": -0.025763290002942085, "yaw": 1.6951133012771606}, "local_position": {"x": -0.36470741033554077, "y": 1.29865300655365, "z": -0.6652237176895142}, "status": {"flags": 831, "velocity_variance": 0.041533783078193665, "pos_horiz_variance": 0.004667534958571196, "pos_vert_variance": 0.00044800437171943486}}, "errors": []}
{"timestamp": "2026-01-31T07:45:18.200962Z", "telemetry": {"lat": 13.3546783, "lon": 74.8649707, "satellites": 13, "altitude_gps_m": 43.779998779296875, "groundspeed_mps": 0.04997830092906952}, "flight": {"mode": "LOITER", "armed": true}, "ekf": {"attitude": {"roll": -0.005668852478265762, "pitch": -0.02668863721191883, "yaw": 1.7071601152420044}, "local_position": {"x": -0.35656067728996277, "y": 1.2622885704040527, "z": -0.7157254815101624}, "status": {"flags": 831, "velocity_variance": 0.044200435280799866, "pos_horiz_variance": 0.0068518128246068954, "pos_vert_variance": 0.005565621890127659}}, "errors": []}
{"timestamp": "2026-01-31T07:45:19.201322Z", "telemetry": {"lat": 13.3546785, "lon": 74.8649707, "satellites": 13, "altitude_gps_m": 43.790000915527344, "groundspeed_mps": 0.047623161226511}, "flight": {"mode": "LOITER", "armed": true}, "ekf": {"attitude": {"roll": -0.0024187760427594185, "pitch": -0.03858582675457001, "yaw": 1.669919490814209}, "local_position": {"x": -0.3455359637737274, "y": 1.2561521530151367, "z": -0.7381220459938049}, "status": {"flags": 831, "velocity_variance": 0.03687231242656708, "pos_horiz_variance": 0.008319862186908722, "pos_vert_variance": 0.014443062245845795}}, "errors": []}
{"timestamp": "2026-01-31T07:45:20.201436Z", "telemetry": {"lat": 13.3546781, "lon": 74.8649707, "satellites": 13, "altitude_gps_m": 43.79999923706055, "groundspeed_mps": 0.03597182035446167}, "flight": {"mode": "LOITER", "armed": true}, "ekf": {"attitude": {"roll": -0.018627163022756577, "pitch": -0.027838248759508133, "yaw": 1.6457219123840332}, "local_position": {"x": -0.40109044313430786, "y": 1.274784803390503, "z": -0.7400364875793457}, "status": {"flags": 831, "velocity_variance": 0.05615828558802605, "pos_horiz_variance": 0.0075904689729213715, "pos_vert_variance": 0.017533427104353905}}, "errors": []}
{"timestamp": "2026-01-31T07:45:21.201502Z", "telemetry": {"lat": 13.3546779, "lon": 74.8649709, "satellites": 13, "altitude_gps_m": 43.779998779296875, "groundspeed_mps": 0.04439789056777954}, "flight": {"mode": "LOITER", "armed": true}, "ekf": {"attitude": {"roll": -0.029433544725179672, "pitch": -0.02516811527311802, "yaw": 1.6970854997634888}, "local_position": {"x": -0.4331866204738617, "y": 1.3166226148605347, "z": -0.7131865620613098}, "status": {"flags": 831, "velocity_variance": 0.02056189253926277, "pos_horiz_variance": 0.005208201240748167, "pos_vert_variance": 0.011482307687401772}}, "errors": []}
{"timestamp": "2026-01-31T07:45:22.202584Z", "telemetry": {"lat": 13.354678, "lon": 74.8649703, "satellites": 13, "altitude_gps_m": 43.869998931884766, "groundspeed_mps": 0.06339005380868912}, "flight": {"mode": "LOITER", "armed": true}, "ekf": {"attitude": {"roll": -0.01991715095937252, "pitch": -0.03789073973894119, "yaw": 1.6633739471435547}, "local_position": {"x": -0.4048183560371399, "y": 1.2855433225631714, "z": -0.7970879673957825}, "status": {"flags": 831, "velocity_variance": 0.04301834478974342, "pos_horiz_variance": 0.0029344018548727036, "pos_vert_variance": 0.004874145612120628}}, "errors": ["EKF3 IMU1 MAG0 in-flight yaw alignment complete"]}
{"timestamp": "2026-01-31T07:45:23.201517Z", "telemetry": {"lat": 13.3546789, "lon": 74.8649702, "satellites": 13, "altitude_gps_m": 43.869998931884766, "groundspeed_mps": 0.08463384211063385}, "flight": {"mode": "LOITER", "armed": true}, "ekf": {"attitude": {"roll": -0.0015229654964059591, "pitch": -0.024574171751737595, "yaw": 1.6495583057403564}, "local_position": {"x": -0.31007763743400574, "y": 1.287312626838684, "z": -0.8125215768814087}, "status": {"flags": 831, "velocity_variance": 0.05173814669251442, "pos_horiz_variance": 0.003706615651026368, "pos_vert_variance": 0.003188110888004303}}, "errors": ["EKF3 IMU1 MAG0 in-flight yaw alignment complete"]}
{"timestamp": "2026-01-31T07:45:24.201933Z", "telemetry": {"lat": 13.354679, "lon": 74.8649705, "satellites": 13, "altitude_gps_m": 43.89999771118164, "groundspeed_mps": 0.05964912101626396}, "flight": {"mode": "LOITER", "armed": true}, "ekf": {"attitude": {"roll": -0.012827129103243351, "pitch": -0.02591879852116108, "yaw": 1.6949825286865234}, "local_position": {"x": -0.30486300587654114, "y": 1.297750473022461, "z": -0.8290334343910217}, "status": {"flags": 831, "velocity_variance": 0.024901896715164185, "pos_horiz_variance": 0.0031524072401225567, "pos_vert_variance": 0.009174077771604061}}, "errors": ["EKF3 IMU1 MAG0 in-flight yaw alignment complete"]}
{"timestamp": "2026-01-31T07:45:25.202898Z", "telemetry": {"lat": 13.3546785, "lon": 74.8649701, "satellites": 13, "altitude_gps_m": 43.95000076293945, "groundspeed_mps": 0.060626816004514694}, "flight": {"mode": "LOITER", "armed": true}, "ekf": {"attitude": {"roll": -0.01892051100730896, "pitch": -0.03374345600605011, "yaw": 1.710850715637207}, "local_position": {"x": -0.35912442207336426, "y": 1.2794618606567383, "z": -0.8839377164840698}, "status": {"flags": 831, "velocity_variance": 0.02587585151195526, "pos_horiz_variance": 0.0017673479160293937, "pos_vert_variance": 0.006500303745269775}}, "errors": ["EKF3 IMU1 MAG0 in-flight yaw alignment complete"]}
{"timestamp": "2026-01-31T07:45:26.202437Z", "telemetry": {"lat": 13.354678, "lon": 74.8649699, "satellites": 13, "altitude_gps_m": 44.040000915527344, "groundspeed_mps": 0.01949179358780384}, "flight": {"mode": "LOITER", "armed": true}, "ekf": {"attitude": {"roll": -0.023741262033581734, "pitch": -0.032999638468027115, "yaw": 1.6783421039581299}, "local_position": {"x": -0.41220661997795105, "y": 1.2691706418991089, "z": -0.9843155145645142}, "status": {"flags": 831, "velocity_variance": 0.04698827490210533, "pos_horiz_variance": 0.00253184768371284, "pos_vert_variance": 0.00011856982746394351}}, "errors": ["EKF3 IMU1 MAG0 in-flight yaw alignment complete", "EKF3 IMU0 MAG0 in-flight yaw alignment complete"]}
{"timestamp": "2026-01-31T07:45:27.202798Z", "telemetry": {"lat": 13.3546784, "lon": 74.8649702, "satellites": 13, "altitude_gps_m": 44.119998931884766, "groundspeed_mps": 0.04096914455294609}, "flight": {"mode": "LOITER", "armed": true}, "ekf": {"attitude": {"roll": -0.010431389324367046, "pitch": -0.0263398177921772, "yaw": 1.6964861154556274}, "local_position": {"x": -0.3856799006462097, "y": 1.267221212387085, "z": -1.0527468919754028}, "status": {"flags": 831, "velocity_variance": 0.025127841159701347, "pos_horiz_variance": 0.004770055413246155, "pos_vert_variance": 0.008147867396473885}}, "errors": ["EKF3 IMU1 MAG0 in-flight yaw alignment complete", "EKF3 IMU0 MAG0 in-flight yaw alignment complete"]}
{"timestamp": "2026-01-31T07:45:28.203048Z", "telemetry": {"lat": 13.3546797, "lon": 74.8649711, "satellites": 13, "altitude_gps_m": 44.119998931884766, "groundspeed_mps": 0.042910099029541016}, "flight": {"mode": "LOITER", "armed": true}, "ekf": {"attitude": {"roll": -0.00675707682967186, "pitch": -0.030028870329260826, "yaw": 1.6766120195388794}, "local_position": {"x": -0.2931893467903137, "y": 1.3250278234481812, "z": -1.042496919631958}, "status": {"flags": 831, "velocity_variance": 0.012316682375967503, "pos_horiz_variance": 0.00938580185174942, "pos_vert_variance": 0.022027157247066498}}, "errors": ["EKF3 IMU1 MAG0 in-flight yaw alignment complete", "EKF3 IMU0 MAG0 in-flight yaw alignment complete"]}
{"timestamp": "2026-01-31T07:45:29.203413Z", "telemetry": {"lat": 13.3546798, "lon": 74.864971, "satellites": 13, "altitude_gps_m": 44.18000030517578, "groundspeed_mps": 0.06698570400476456}, "flight": {"mode": "LOITER", "armed": true}, "ekf": {"attitude": {"roll": -0.015202871523797512, "pitch": -0.036659739911556244, "yaw": 1.6711150407791138}, "local_position": {"x": -0.2899104952812195, "y": 1.2928493022918701, "z": -1.1231706142425537}, "status": {"flags": 831, "velocity_variance": 0.04210660606622696, "pos_horiz_variance": 0.011713356710970402, "pos_vert_variance": 0.02751769870519638}}, "errors": ["EKF3 IMU1 MAG0 in-flight yaw alignment complete", "EKF3 IMU0 MAG0 in-flight yaw alignment complete"]}
{"timestamp": "2026-01-31T07:45:30.203466Z", "telemetry": {"lat": 13.3546796, "lon": 74.864971, "satellites": 13, "altitude_gps_m": 44.16999816894531, "groundspeed_mps": 0.08591679483652115}, "flight": {"mode": "LOITER", "armed": true}, "ekf": {"attitude": {"roll": -0.01695631630718708, "pitch": -0.02152692712843418, "yaw": 1.66105055809021}, "local_position": {"x": -0.3192031979560852, "y": 1.2772457599639893, "z": -1.1138211488723755}, "status": {"flags": 831, "velocity_variance": 0.044472381472587585, "pos_horiz_variance": 0.014020808972418308, "pos_vert_variance": 0.029457371681928635}}, "errors": ["EKF3 IMU1 MAG0 in-flight yaw alignment complete", "EKF3 IMU0 MAG0 in-flight yaw alignment complete"]}
{"timestamp": "2026-01-31T07:45:31.203586Z", "telemetry": {"lat": 13.3546789, "lon": 74.8649711, "satellites": 12, "altitude_gps_m": 44.14999771118164, "groundspeed_mps": 0.03600434213876724}, "flight": {"mode": "LOITER", "armed": true}, "ekf": {"attitude": {"roll": -0.02512463368475437, "pitch": -0.02799813449382782, "yaw": 1.706870198249817}, "local_position": {"x": -0.3657442629337311, "y": 1.308685302734375, "z": -1.1076149940490723}, "status": {"flags": 831, "velocity_variance": 0.058549441397190094, "pos_horiz_variance": 0.010994895361363888, "pos_vert_variance": 0.035717662423849106}}, "errors": ["EKF3 IMU1 MAG0 in-flight yaw alignment complete", "EKF3 IMU0 MAG0 in-flight yaw alignment complete"]}
{"timestamp": "2026-01-31T07:45:32.203579Z", "telemetry": {"lat": 13.354679, "lon": 74.8649702, "satellites": 11, "altitude_gps_m": 44.16999816894531, "groundspeed_mps": 0.03734024986624718}, "flight": {"mode": "LOITER", "armed": true}, "ekf": {"attitude": {"roll": -0.01065122615545988, "pitch": -0.03598380833864212, "yaw": 1.6789242029190063}, "local_position": {"x": -0.3408735692501068, "y": 1.262626051902771, "z": -1.1141728162765503}, "status": {"flags": 831, "velocity_variance": 0.0653998926281929, "pos_horiz_variance": 0.007046977058053017, "pos_vert_variance": 0.028562866151332855}}, "errors": ["EKF3 IMU1 MAG0 in-flight yaw alignment complete", "EKF3 IMU0 MAG0 in-flight yaw alignment complete"]}
{"timestamp": "2026-01-31T07:45:33.204172Z", "telemetry": {"lat": 13.3546787, "lon": 74.8649697, "satellites": 12, "altitude_gps_m": 44.189998626708984, "groundspeed_mps": 0.04253655672073364}, "flight": {"mode": "LOITER", "armed": true}, "ekf": {"attitude": {"roll": -0.03212686628103256, "pitch": -0.03592764958739281, "yaw": 1.6868891716003418}, "local_position": {"x": -0.3565492033958435, "y": 1.2302078008651733, "z": -1.147114872932434}, "status": {"flags": 831, "velocity_variance": 0.03206145763397217, "pos_horiz_variance": 0.003947366960346699, "pos_vert_variance": 0.03122418187558651}}, "errors": ["EKF3 IMU1 MAG0 in-flight yaw alignment complete", "EKF3 IMU0 MAG0 in-flight yaw alignment complete"]}
{"timestamp": "2026-01-31T07:45:34.204342Z", "telemetry": {"lat": 13.3546783, "lon": 74.8649694, "satellites": 12, "altitude_gps_m": 44.18000030517578, "groundspeed_mps": 0.07150199264287949}, "flight": {"mode": "LOITER", "armed": true}, "ekf": {"attitude": {"roll": -0.027176957577466965, "pitch": -0.03329026699066162, "yaw": 1.7023124694824219}, "local_position": {"x": -0.39387863874435425, "y": 1.224265694618225, "z": -1.12257719039917}, "status": {"flags": 831, "velocity_variance": 0.01798338070511818, "pos_horiz_variance": 0.004454484675079584, "pos_vert_variance": 0.025076469406485558}}, "errors": ["EKF3 IMU1 MAG0 in-flight yaw alignment complete", "EKF3 IMU0 MAG0 in-flight yaw alignment complete"]}
{"timestamp": "2026-01-31T07:45:35.204560Z", "telemetry": {"lat": 13.354679, "lon": 74.8649688, "satellites": 13, "altitude_gps_m": 44.189998626708984, "groundspeed_mps": 0.07581846415996552}, "flight": {"mode": "LOITER", "armed": true}, "ekf": {"attitude": {"roll": -0.014625055715441704, "pitch": -0.03606317937374115, "yaw": 1.7467551231384277}, "local_position": {"x": -0.3294636607170105, "y": 1.2190889120101929, "z": -1.1292088031768799}, "status": {"flags": 831, "velocity_variance": 0.08556123077869415, "pos_horiz_variance": 0.008418116718530655, "pos_vert_variance": 0.022154293954372406}}, "errors": ["EKF3 IMU1 MAG0 in-flight yaw alignment complete", "EKF3 IMU0 MAG0 in-flight yaw alignment complete"]}
{"timestamp": "2026-01-31T07:45:36.204809Z", "telemetry": {"lat": 13.3546791, "lon": 74.864969, "satellites": 13, "altitude_gps_m": 43.89999771118164, "groundspeed_mps": 0.005567751359194517}, "flight": {"mode": "LOITER", "armed": true}, "ekf": {"attitude": {"roll": -0.01654811017215252, "pitch": -0.031445544213056564, "yaw": 1.7780464887619019}, "local_position": {"x": -0.3134131133556366, "y": 1.241200566291809, "z": -0.9109364748001099}, "status": {"flags": 831, "velocity_variance": 0.05968131870031357, "pos_horiz_variance": 0.00895434245467186, "pos_vert_variance": 0.02749086543917656}}, "errors": ["EKF3 IMU1 MAG0 in-flight yaw alignment complete", "EKF3 IMU0 MAG0 in-flight yaw alignment complete"]}
{"timestamp": "2026-01-31T07:45:37.204957Z", "telemetry": {"lat": 13.3546792, "lon": 74.8649688, "satellites": 13, "altitude_gps_m": 43.79999923706055, "groundspeed_mps": 0.07335641980171204}, "flight": {"mode": "LOITER", "armed": true}, "ekf": {"attitude": {"roll": -0.007896855473518372, "pitch": -0.03775669261813164, "yaw": 1.3380818367004395}, "local_position": {"x": -0.31796231865882874, "y": 1.209804892539978, "z": -0.7542010545730591}, "status": {"flags": 831, "velocity_variance": 0.058889344334602356, "pos_horiz_variance": 0.008587900549173355, "pos_vert_variance": 0.04312831908464432}}, "errors": ["EKF3 IMU1 MAG0 in-flight yaw alignment complete", "EKF3 IMU0 MAG0 in-flight yaw alignment complete"]}
{"timestamp": "2026-01-31T07:45:38.206038Z", "telemetry": {"lat": 13.3546791, "lon": 74.8649694, "satellites": 13, "altitude_gps_m": 43.75, "groundspeed_mps": 0.07209791988134384}, "flight": {"mode": "LOITER", "armed": true}, "ekf": {"attitude": {"roll": -0.015151514671742916, "pitch": -0.029688291251659393, "yaw": 1.2304601669311523}, "local_position": {"x": -0.31831613183021545, "y": 1.24732506275177, "z": -0.7010425329208374}, "status": {"flags": 831, "velocity_variance": 0.02083936519920826, "pos_horiz_variance": 0.005773346871137619, "pos_vert_variance": 0.03825094923377037}}, "errors": ["EKF3 IMU1 MAG0 in-flight yaw alignment complete", "EKF3 IMU0 MAG0 in-flight yaw alignment complete"]}
{"timestamp": "2026-01-31T07:45:39.205832Z", "telemetry": {"lat": 13.3546784, "lon": 74.8649706, "satellites": 13, "altitude_gps_m": 43.70000076293945, "groundspeed_mps": 0.06490595638751984}, "flight": {"mode": "LOITER", "armed": true}, "ekf": {"attitude": {"roll": -0.017877476289868355, "pitch": -0.0520501583814621, "yaw": 0.5692603588104248}, "local_position": {"x": -0.38804057240486145, "y": 1.287582278251648, "z": -0.6911245584487915}, "status": {"flags": 831, "velocity_variance": 0.08898033946752548, "pos_horiz_variance": 0.004233366344124079, "pos_vert_variance": 0.03674934431910515}}, "errors": ["EKF3 IMU1 MAG0 in-flight yaw alignment complete", "EKF3 IMU0 MAG0 in-flight yaw alignment complete"]}
{"timestamp": "2026-01-31T07:45:40.205925Z", "telemetry": {"lat": 13.3546778, "lon": 74.8649709, "satellites": 13, "altitude_gps_m": 43.619998931884766, "groundspeed_mps": 0.04687358811497688}, "flight": {"mode": "LOITER", "armed": true}, "ekf": {"attitude": {"roll": -0.012162371538579464, "pitch": -0.03291022405028343, "yaw": 0.1711663156747818}, "local_position": {"x": -0.43473580479621887, "y": 1.340887188911438, "z": -0.562813937664032}, "status": {"flags": 831, "velocity_variance": 0.04658921808004379, "pos_horiz_variance": 0.004139047581702471, "pos_vert_variance": 0.02978060580790043}}, "errors": ["EKF3 IMU1 MAG0 in-flight yaw alignment complete", "EKF3 IMU0 MAG0 in-flight yaw alignment complete"]}
{"timestamp": "2026-01-31T07:45:41.206187Z", "telemetry": {"lat": 13.354678, "lon": 74.8649712, "satellites": 13, "altitude_gps_m": 43.64999771118164, "groundspeed_mps": 0.06337675452232361}, "flight": {"mode": "LOITER", "armed": true}, "ekf": {"attitude": {"roll": -0.016967838630080223, "pitch": -0.04364759102463722, "yaw": 0.06727617979049683}, "local_position": {"x": -0.4163843095302582, "y": 1.3767821788787842, "z": -0.5932244062423706}, "status": {"flags": 831, "velocity_variance": 0.04191653057932854, "pos_horiz_variance": 0.0033951452933251858, "pos_vert_variance": 0.030271515250205994}}, "errors": ["EKF3 IMU1 MAG0 in-flight yaw alignment complete", "EKF3 IMU0 MAG0 in-flight yaw alignment complete"]}
{"timestamp": "2026-01-31T07:45:42.205660Z", "telemetry": {"lat": 13.3546782, "lon": 74.8649705, "satellites": 13, "altitude_gps_m": 43.599998474121094, "groundspeed_mps": 0.07621103525161743}, "flight": {"mode": "LOITER", "armed": true}, "ekf": {"attitude": {"roll": -0.009483182802796364, "pitch": -0.01919938065111637, "yaw": 0.08042311668395996}, "local_position": {"x": -0.3712446093559265, "y": 1.3446271419525146, "z": -0.5864326357841492}, "status": {"flags": 831, "velocity_variance": 0.05143177881836891, "pos_horiz_variance": 0.0018133748089894652, "pos_vert_variance": 0.021122269332408905}}, "errors": ["EKF3 IMU1 MAG0 in-flight yaw alignment complete", "EKF3 IMU0 MAG0 in-flight yaw alignment complete"]}
{"timestamp": "2026-01-31T07:45:43.206329Z", "telemetry": {"lat": 13.3546784, "lon": 74.86497, "satellites": 13, "altitude_gps_m": 43.369998931884766, "groundspeed_mps": 0.03616408631205559}, "flight": {"mode": "LOITER", "armed": true}, "ekf": {"attitude": {"roll": -0.012001448310911655, "pitch": -0.022761734202504158, "yaw": 0.149072527885437}, "local_position": {"x": -0.3494774401187897, "y": 1.2998627424240112, "z": -0.40005648136138916}, "status": {"flags": 831, "velocity_variance": 0.15810303390026093, "pos_horiz_variance": 0.002603597939014435, "pos_vert_variance": 0.02577384002506733}}, "errors": ["EKF3 IMU1 MAG0 in-flight yaw alignment complete", "EKF3 IMU0 MAG0 in-flight yaw alignment complete"]}
