{"timestamp": "2026-01-25T13:37:59.270611Z", "telemetry": {"lat": 0.0, "lon": 0.0, "satellites": 0, "altitude_gps_m": 0.3999999761581421, "groundspeed_mps": 0.07185106724500656}, "flight": {"mode": null, "armed": null}, "ekf": {"attitude": {"roll": -0.009369720704853535, "pitch": -0.014315800741314888, "yaw": -0.5468161702156067}, "local_position": {"x": null, "y": null, "z": null}, "status": {"flags": 135, "velocity_variance": 0.0, "pos_horiz_variance": 0.017337912693619728, "pos_vert_variance": 0.06432722508907318}}, "errors": []}
{"timestamp": "2026-01-25T13:38:00.219886Z", "telemetry": {"lat": 0.0, "lon": 0.0, "satellites": 0, "altitude_gps_m": 0.3999999761581421, "groundspeed_mps": 0.07161810249090195}, "flight": {"mode": "STABILIZE", "armed": false}, "ekf": {"attitude": {"roll": -0.009337200783193111, "pitch": -0.014194505289196968, "yaw": -0.5468114614486694}, "local_position": {"x": null, "y": null, "z": null}, "status": {"flags": 135, "velocity_variance": 0.0, "pos_horiz_variance": 0.017195776104927063, "pos_vert_variance": 0.09653929620981216}}, "errors": []}
{"timestamp": "2026-01-25T13:38:01.220188Z", "telemetry": {"lat": 0.0, "lon": 0.0, "satellites": 0, "altitude_gps_m": 0.3999999761581421, "groundspeed_mps": 0.0759708508849144}, "flight": {"mode": "STABILIZE", "armed": false}, "ekf": {"attitude": {"roll": -0.009410610422492027, "pitch": -0.01441599428653717, "yaw": -0.5469123125076294}, "local_position": {"x": null, "y": null, "z": null}, "status": {"flags": 135, "velocity_variance": 0.0, "pos_horiz_variance": 0.017735613510012627, "pos_vert_variance": 0.008353768847882748}}, "errors": []}
{"timestamp": "2026-01-25T13:38:02.220112Z", "telemetry": {"lat": 0.0, "lon": 0.0, "satellites": 0, "altitude_gps_m": 0.3999999761581421, "groundspeed_mps": 0.07618297636508942}, "flight": {"mode": "STABILIZE", "armed": false}, "ekf": {"attitude": {"roll": -0.009482131339609623, "pitch": -0.0143051128834486, "yaw": -0.5468119382858276}, "local_position": {"x": null, "y": null, "z": null}, "status": {"flags": 135, "velocity_variance": 0.0, "pos_horiz_variance": 0.018291106447577477, "pos_vert_variance": 0.032841406762599945}}, "errors": []}
{"timestamp": "2026-01-25T13:38:03.220012Z", "telemetry": {"lat": 0.0, "lon": 0.0, "satellites": 0, "altitude_gps_m": 0.3999999761581421, "groundspeed_mps": 0.07282771915197372}, "flight": {"mode": "STABILIZE", "armed": false}, "ekf": {"attitude": {"roll": -0.00925068836659193, "pitch": -0.014329399913549423, "yaw": -0.5467143058776855}, "local_position": {"x": null, "y": null, "z": null}, "status": {"flags": 135, "velocity_variance": 0.0, "pos_horiz_variance": 0.01805836334824562, "pos_vert_variance": 0.0758749321103096}}, "errors": []}
{"timestamp": "2026-01-25T13:38:04.220727Z", "telemetry": {"lat": 0.0, "lon": 0.0, "satellites": 0, "altitude_gps_m": 0.3999999761581421, "groundspeed_mps": 0.07321945577859879}, "flight": {"mode": "STABILIZE", "armed": false}, "ekf": {"attitude": {"roll": -0.008967581205070019, "pitch": -0.014517636969685555, "yaw": -0.5466786026954651}, "local_position": {"x": null, "y": null, "z": null}, "status": {"flags": 135, "velocity_variance": 0.0, "pos_horiz_variance": 0.0178225040435791, "pos_vert_variance": 0.06088818982243538}}, "errors": []}
{"timestamp": "2026-01-25T13:38:05.219851Z", "telemetry": {"lat": 0.0, "lon": 0.0, "satellites": 0, "altitude_gps_m": 0.3999999761581421, "groundspeed_mps": 0.07335800677537918}, "flight": {"mode": "STABILIZE", "armed": false}, "ekf": {"attitude": {"roll": -0.008743907324969769, "pitch": -0.0146440789103508, "yaw": -0.5465995073318481}, "local_position": {"x": null, "y": null, "z": null}, "status": {"flags": 135, "velocity_variance": 0.0, "pos_horiz_variance": 0.017785590142011642, "pos_vert_variance": 0.003551270579919219}}, "errors": []}
{"timestamp": "2026-01-25T13:38:06.220392Z", "telemetry": {"lat": 0.0, "lon": 0.0, "satellites": 0, "altitude_gps_m": 0.3999999761581421, "groundspeed_mps": 0.07652954757213593}, "flight": {"mode": "STABILIZE", "armed": false}, "ekf": {"attitude": {"roll": -0.008745106868445873, "pitch": -0.01455720141530037, "yaw": -0.546578586101532}, "local_position": {"x": null, "y": null, "z": null}, "status": {"flags": 135, "velocity_variance": 0.0, "pos_horiz_variance": 0.018171679228544235, "pos_vert_variance": 0.04583301395177841}}, "errors": []}
{"timestamp": "2026-01-25T13:38:07.220064Z", "telemetry": {"lat": 0.0, "lon": 0.0, "satellites": 0, "altitude_gps_m": 0.3999999761581421, "groundspeed_mps": 0.07756740599870682}, "flight": {"mode": "STABILIZE", "armed": false}, "ekf": {"attitude": {"roll": -0.008694637566804886, "pitch": -0.014523491263389587, "yaw": -0.5462586879730225}, "local_position": {"x": null, "y": null, "z": null}, "status": {"flags": 135, "velocity_variance": 0.0, "pos_horiz_variance": 0.01851792447268963, "pos_vert_variance": 0.007757891900837421}}, "errors": []}
{"timestamp": "2026-01-25T13:38:08.220594Z", "telemetry": {"lat": 0.0, "lon": 0.0, "satellites": 0, "altitude_gps_m": 0.3999999761581421, "groundspeed_mps": 0.07964039593935013}, "flight": {"mode": "STABILIZE", "armed": false}, "ekf": {"attitude": {"roll": -0.008527260273694992, "pitch": -0.014739496633410454, "yaw": -0.5460565686225891}, "local_position": {"x": null, "y": null, "z": null}, "status": {"flags": 135, "velocity_variance": 0.0, "pos_horiz_variance": 0.018865089863538742, "pos_vert_variance": 0.03251975029706955}}, "errors": []}
{"timestamp": "2026-01-25T13:38:09.220089Z", "telemetry": {"lat": 0.0, "lon": 0.0, "satellites": 0, "altitude_gps_m": 0.3999999761581421, "groundspeed_mps": 0.08010123670101166}, "flight": {"mode": "STABILIZE", "armed": false}, "ekf": {"attitude": {"roll": -0.008557540364563465, "pitch": -0.014750799164175987, "yaw": -0.5458496809005737}, "local_position": {"x": null, "y": null, "z": null}, "status": {"flags": 135, "velocity_variance": 0.0, "pos_horiz_variance": 0.019329359754920006, "pos_vert_variance": 0.041367508471012115}}, "errors": []}
{"timestamp": "2026-01-25T13:38:10.219857Z", "telemetry": {"lat": 0.0, "lon": 0.0, "satellites": 0, "altitude_gps_m": 0.3999999761581421, "groundspeed_mps": 0.07742912322282791}, "flight": {"mode": "STABILIZE", "armed": false}, "ekf": {"attitude": {"roll": -0.008613120764493942, "pitch": -0.014281617477536201, "yaw": -0.5458232164382935}, "local_position": {"x": null, "y": null, "z": null}, "status": {"flags": 135, "velocity_variance": 0.0, "pos_horiz_variance": 0.019408078864216805, "pos_vert_variance": 0.015493016690015793}}, "errors": []}
{"timestamp": "2026-01-25T13:38:11.219904Z", "telemetry": {"lat": 0.0, "lon": 0.0, "satellites": 0, "altitude_gps_m": 0.3999999761581421, "groundspeed_mps": 0.07800544053316116}, "flight": {"mode": "STABILIZE", "armed": false}, "ekf": {"attitude": {"roll": -0.008563816547393799, "pitch": -0.01492084376513958, "yaw": -0.5455560684204102}, "local_position": {"x": null, "y": null, "z": null}, "status": {"flags": 135, "velocity_variance": 0.0, "pos_horiz_variance": 0.019177542999386787, "pos_vert_variance": 0.010806158185005188}}, "errors": []}
{"timestamp": "2026-01-25T13:38:12.220413Z", "telemetry": {"lat": 0.0, "lon": 0.0, "satellites": 0, "altitude_gps_m": 0.3999999761581421, "groundspeed_mps": 0.08113405108451843}, "flight": {"mode": "STABILIZE", "armed": false}, "ekf": {"attitude": {"roll": -0.008261341601610184, "pitch": -0.015752043575048447, "yaw": -0.5457024574279785}, "local_position": {"x": null, "y": null, "z": null}, "status": {"flags": 135, "velocity_variance": 0.0, "pos_horiz_variance": 0.019329678267240524, "pos_vert_variance": 0.07035640627145767}}, "errors": []}
{"timestamp": "2026-01-25T13:38:13.220464Z", "telemetry": {"lat": 0.0, "lon": 0.0, "satellites": 0, "altitude_gps_m": 0.3999999761581421, "groundspeed_mps": 0.08280379325151443}, "flight": {"mode": "STABILIZE", "armed": false}, "ekf": {"attitude": {"roll": -0.008613192476332188, "pitch": -0.014631275087594986, "yaw": -0.5452255606651306}, "local_position": {"x": null, "y": null, "z": null}, "status": {"flags": 135, "velocity_variance": 0.0, "pos_horiz_variance": 0.019564960151910782, "pos_vert_variance": 0.0010942850494757295}}, "errors": ["PreArm: RC not found", "PreArm: Hardware safety switch", "PreArm: Compasses inconsistent"]}
{"timestamp": "2026-01-25T13:38:14.219902Z", "telemetry": {"lat": 0.0, "lon": 0.0, "satellites": 0, "altitude_gps_m": 0.3999999761581421, "groundspeed_mps": 0.08233562856912613}, "flight": {"mode": "STABILIZE", "armed": false}, "ekf": {"attitude": {"roll": -0.008533062413334846, "pitch": -0.01507502794265747, "yaw": -0.5451647043228149}, "local_position": {"x": null, "y": null, "z": null}, "status": {"flags": 135, "velocity_variance": 0.0, "pos_horiz_variance": 0.019850734621286392, "pos_vert_variance": 0.001797894132323563}}, "errors": ["PreArm: RC not found", "PreArm: Hardware safety switch", "PreArm: Compasses inconsistent"]}
{"timestamp": "2026-01-25T13:38:15.220408Z", "telemetry": {"lat": 0.0, "lon": 0.0, "satellites": 0, "altitude_gps_m": 0.3999999761581421, "groundspeed_mps": 0.0813630223274231}, "flight": {"mode": "STABILIZE", "armed": false}, "ekf": {"attitude": {"roll": -0.008341437205672264, "pitch": -0.014605039730668068, "yaw": -0.5448964834213257}, "local_position": {"x": null, "y": null, "z": null}, "status": {"flags": 135, "velocity_variance": 0.0, "pos_horiz_variance": 0.01977686397731304, "pos_vert_variance": 0.0592169426381588}}, "errors": ["PreArm: RC not found", "PreArm: Hardware safety switch", "PreArm: Compasses inconsistent"]}
{"timestamp": "2026-01-25T13:38:16.219843Z", "telemetry": {"lat": 0.0, "lon": 0.0, "satellites": 0, "altitude_gps_m": 0.3999999761581421, "groundspeed_mps": 0.08027952909469604}, "flight": {"mode": "STABILIZE", "armed": false}, "ekf": {"attitude": {"roll": -0.008204903453588486, "pitch": -0.014707883819937706, "yaw": -0.5448520183563232}, "local_position": {"x": null, "y": null, "z": null}, "status": {"flags": 135, "velocity_variance": 0.0, "pos_horiz_variance": 0.019637104123830795, "pos_vert_variance": 0.01987130008637905}}, "errors": ["PreArm: RC not found", "PreArm: Hardware safety switch", "PreArm: Compasses inconsistent"]}
{"timestamp": "2026-01-25T13:38:17.220659Z", "telemetry": {"lat": 0.0, "lon": 0.0, "satellites": 0, "altitude_gps_m": 0.3999999761581421, "groundspeed_mps": 0.08137458562850952}, "flight": {"mode": "STABILIZE", "armed": false}, "ekf": {"attitude": {"roll": -0.008150434121489525, "pitch": -0.014647645875811577, "yaw": -0.5447548031806946}, "local_position": {"x": null, "y": null, "z": null}, "status": {"flags": 135, "velocity_variance": 0.0, "pos_horiz_variance": 0.01956016756594181, "pos_vert_variance": 0.012277376838028431}}, "errors": ["PreArm: RC not found", "PreArm: Hardware safety switch", "PreArm: Compasses inconsistent"]}
{"timestamp": "2026-01-25T13:38:18.220305Z", "telemetry": {"lat": 0.0, "lon": 0.0, "satellites": 0, "altitude_gps_m": 0.3999999761581421, "groundspeed_mps": 0.07973871380090714}, "flight": {"mode": "STABILIZE", "armed": false}, "ekf": {"attitude": {"roll": -0.008277741260826588, "pitch": -0.014496540650725365, "yaw": -0.5445393323898315}, "local_position": {"x": null, "y": null, "z": null}, "status": {"flags": 135, "velocity_variance": 0.0, "pos_horiz_variance": 0.01969883032143116, "pos_vert_variance": 0.06630261987447739}}, "errors": ["PreArm: RC not found", "PreArm: Hardware safety switch", "PreArm: Compasses inconsistent"]}
