{"timestamp": "2026-01-31T13:02:52.080258Z", "telemetry": {"lat": null, "lon": null, "satellites": null, "altitude_gps_m": 58.59000015258789, "groundspeed_mps": 1.128688931465149}, "flight": {"mode": null, "armed": null}, "ekf": {"attitude": {"roll": -0.043343205004930496, "pitch": -0.032674163579940796, "yaw": 1.4944709539413452}, "local_position": {"x": null, "y": null, "z": null}, "status": {"flags": null, "velocity_variance": null, "pos_horiz_variance": null, "pos_vert_variance": null}}, "errors": []}
{"timestamp": "2026-01-31T13:02:53.029920Z", "telemetry": {"lat": 13.3527105, "lon": 74.8648531, "satellites": 5, "altitude_gps_m": 58.59000015258789, "groundspeed_mps": 0.765125036239624}, "flight": {"mode": "STABILIZE", "armed": false}, "ekf": {"attitude": {"roll": -0.04284990206360817, "pitch": -0.03510582819581032, "yaw": 1.4943726062774658}, "local_position": {"x": -2.197299003601074, "y": 14.565011978149414, "z": -11.880575180053711}, "status": {"flags": 33599, "velocity_variance": 0.2956014573574066, "pos_horiz_variance": 0.0690665915608406, "pos_vert_variance": 0.04787174612283707}}, "errors": []}
{"timestamp": "2026-01-31T13:02:53.979966Z", "telemetry": {"lat": 13.35273, "lon": 74.8648748, "satellites": 5, "altitude_gps_m": 58.5, "groundspeed_mps": 0.3873262107372284}, "flight": {"mode": "STABILIZE", "armed": false}, "ekf": {"attitude": {"roll": -0.04263995587825775, "pitch": -0.03823104128241539, "yaw": 1.49443781375885}, "local_position": {"x": -1.8435335159301758, "y": 16.689334869384766, "z": -11.793700218200684}, "status": {"flags": 33599, "velocity_variance": 0.3544497787952423, "pos_horiz_variance": 0.08214763551950455, "pos_vert_variance": 0.003537521930411458}}, "errors": []}
{"timestamp": "2026-01-31T13:02:54.946323Z", "telemetry": {"lat": 13.3527387, "lon": 74.8648901, "satellites": 5, "altitude_gps_m": 58.47999954223633, "groundspeed_mps": 0.2510344684123993}, "flight": {"mode": "STABILIZE", "armed": false}, "ekf": {"attitude": {"roll": -0.04216388240456581, "pitch": -0.04042713716626167, "yaw": 1.494505524635315}, "local_position": {"x": -1.0043376684188843, "y": 18.732563018798828, "z": -11.776398658752441}, "status": {"flags": 33599, "velocity_variance": 0.32730716466903687, "pos_horiz_variance": 0.08388268202543259, "pos_vert_variance": 0.0421900600194931}}, "errors": []}
{"timestamp": "2026-01-31T13:02:55.946799Z", "telemetry": {"lat": 13.3527385, "lon": 74.8649021, "satellites": 5, "altitude_gps_m": 58.43000030517578, "groundspeed_mps": 0.4657118618488312}, "flight": {"mode": "STABILIZE", "armed": false}, "ekf": {"attitude": {"roll": -0.041048649698495865, "pitch": -0.042700380086898804, "yaw": 1.4947913885116577}, "local_position": {"x": -0.41281676292419434, "y": 20.816946029663086, "z": -11.721187591552734}, "status": {"flags": 33599, "velocity_variance": 0.30136439204216003, "pos_horiz_variance": 0.07879035919904709, "pos_vert_variance": 0.027531368657946587}}, "errors": []}
{"timestamp": "2026-01-31T13:02:56.946089Z", "telemetry": {"lat": 13.3527646, "lon": 74.8649121, "satellites": 5, "altitude_gps_m": 58.34000015258789, "groundspeed_mps": 0.9591207504272461}, "flight": {"mode": "STABILIZE", "armed": false}, "ekf": {"attitude": {"roll": -0.04251759499311447, "pitch": -0.043680340051651, "yaw": 1.4940868616104126}, "local_position": {"x": 1.9011343717575073, "y": 23.584672927856445, "z": -11.634076118469238}, "status": {"flags": 33599, "velocity_variance": 0.3565491735935211, "pos_horiz_variance": 0.07269024103879929, "pos_vert_variance": 0.0008266007644124329}}, "errors": []}
{"timestamp": "2026-01-31T13:02:57.946205Z", "telemetry": {"lat": 13.352788, "lon": 74.8649149, "satellites": 4, "altitude_gps_m": 58.40999984741211, "groundspeed_mps": 1.277704119682312}, "flight": {"mode": "STABILIZE", "armed": false}, "ekf": {"attitude": {"roll": -0.04475349560379982, "pitch": -0.04419085010886192, "yaw": 1.4933412075042725}, "local_position": {"x": 3.9765477180480957, "y": 24.682575225830078, "z": -11.709877967834473}, "status": {"flags": 33599, "velocity_variance": 0.2622629702091217, "pos_horiz_variance": 0.07197488844394684, "pos_vert_variance": 0.06454019248485565}}, "errors": []}
{"timestamp": "2026-01-31T13:02:58.946607Z", "telemetry": {"lat": 13.3527965, "lon": 74.8649145, "satellites": 4, "altitude_gps_m": 58.5099983215332, "groundspeed_mps": 1.5512574911117554}, "flight": {"mode": "STABILIZE", "armed": false}, "ekf": {"attitude": {"roll": -0.04553836211562157, "pitch": -0.04508724808692932, "yaw": 1.4931583404541016}, "local_position": {"x": 5.403519630432129, "y": 25.674962997436523, "z": -11.799070358276367}, "status": {"flags": 33599, "velocity_variance": 0.3155719041824341, "pos_horiz_variance": 0.06323115527629852, "pos_vert_variance": 0.028320852667093277}}, "errors": []}
{"timestamp": "2026-01-31T13:02:59.945832Z", "telemetry": {"lat": 13.352799, "lon": 74.8649094, "satellites": 4, "altitude_gps_m": 58.459999084472656, "groundspeed_mps": 1.9482899904251099}, "flight": {"mode": "STABILIZE", "armed": false}, "ekf": {"attitude": {"roll": -0.046142514795064926, "pitch": -0.04580150917172432, "yaw": 1.49288010597229}, "local_position": {"x": 7.277290344238281, "y": 27.272705078125, "z": -11.76429271697998}, "status": {"flags": 33599, "velocity_variance": 0.15177305042743683, "pos_horiz_variance": 0.03915700316429138, "pos_vert_variance": 0.06255567073822021}}, "errors": []}
{"timestamp": "2026-01-31T13:03:00.946876Z", "telemetry": {"lat": 13.35281, "lon": 74.8649101, "satellites": 4, "altitude_gps_m": 58.56999969482422, "groundspeed_mps": 2.1678199768066406}, "flight": {"mode": "STABILIZE", "armed": false}, "ekf": {"attitude": {"roll": -0.04677627608180046, "pitch": -0.04587193951010704, "yaw": 1.4926652908325195}, "local_position": {"x": 9.114523887634277, "y": 28.38420867919922, "z": -11.867730140686035}, "status": {"flags": 33599, "velocity_variance": 0.35402557253837585, "pos_horiz_variance": 0.030640631914138794, "pos_vert_variance": 0.04478466510772705}}, "errors": []}
{"timestamp": "2026-01-31T13:03:01.946126Z", "telemetry": {"lat": 13.3528087, "lon": 74.86491, "satellites": 5, "altitude_gps_m": 58.5099983215332, "groundspeed_mps": 2.2934014797210693}, "flight": {"mode": "STABILIZE", "armed": false}, "ekf": {"attitude": {"roll": -0.046010568737983704, "pitch": -0.04497480019927025, "yaw": 1.4924938678741455}, "local_position": {"x": 10.239554405212402, "y": 29.335966110229492, "z": -11.783584594726562}, "status": {"flags": 33599, "velocity_variance": 0.2769385874271393, "pos_horiz_variance": 0.02048846147954464, "pos_vert_variance": 0.06481411308050156}}, "errors": []}
{"timestamp": "2026-01-31T13:03:02.946181Z", "telemetry": {"lat": 13.3528501, "lon": 74.8649253, "satellites": 6, "altitude_gps_m": 58.55999755859375, "groundspeed_mps": 2.439948558807373}, "flight": {"mode": "STABILIZE", "armed": false}, "ekf": {"attitude": {"roll": -0.04736519232392311, "pitch": -0.04340497404336929, "yaw": 1.4918632507324219}, "local_position": {"x": 12.294344902038574, "y": 29.785390853881836, "z": -11.842394828796387}, "status": {"flags": 33599, "velocity_variance": 0.2626873254776001, "pos_horiz_variance": 0.04083654284477234, "pos_vert_variance": 0.0023266414646059275}}, "errors": ["PreArm: RC not found", "PreArm: Hardware safety switch"]}
{"timestamp": "2026-01-31T13:03:03.945955Z", "telemetry": {"lat": 13.3527756, "lon": 74.8649072, "satellites": 8, "altitude_gps_m": 58.53999710083008, "groundspeed_mps": 2.4979500770568848}, "flight": {"mode": "STABILIZE", "armed": false}, "ekf": {"attitude": {"roll": -0.046827442944049835, "pitch": -0.042865414172410965, "yaw": 1.4918038845062256}, "local_position": {"x": 13.951944351196289, "y": 30.456039428710938, "z": -11.834320068359375}, "status": {"flags": 33599, "velocity_variance": 1.1171813011169434, "pos_horiz_variance": 0.05136123299598694, "pos_vert_variance": 0.002816969994455576}}, "errors": ["PreArm: RC not found", "PreArm: Hardware safety switch"]}
{"timestamp": "2026-01-31T13:03:04.946255Z", "telemetry": {"lat": 13.3524344, "lon": 74.8648263, "satellites": 7, "altitude_gps_m": 58.54999923706055, "groundspeed_mps": 2.070073366165161}, "flight": {"mode": "STABILIZE", "armed": false}, "ekf": {"attitude": {"roll": -0.040893297642469406, "pitch": -0.0409378856420517, "yaw": 1.492317795753479}, "local_position": {"x": 9.46131706237793, "y": 30.35226058959961, "z": -11.839569091796875}, "status": {"flags": 33599, "velocity_variance": 1.6974372863769531, "pos_horiz_variance": 0.24367938935756683, "pos_vert_variance": 0.026676606386899948}}, "errors": ["PreArm: RC not found", "PreArm: Hardware safety switch"]}
{"timestamp": "2026-01-31T13:03:05.946152Z", "telemetry": {"lat": 13.3521886, "lon": 74.8647676, "satellites": 8, "altitude_gps_m": 58.59000015258789, "groundspeed_mps": 1.5387086868286133}, "flight": {"mode": "STABILIZE", "armed": false}, "ekf": {"attitude": {"roll": -0.027898283675312996, "pitch": -0.036678947508335114, "yaw": 1.4940239191055298}, "local_position": {"x": 0.511572539806366, "y": 29.291709899902344, "z": -11.852556228637695}, "status": {"flags": 33599, "velocity_variance": 1.5153857469558716, "pos_horiz_variance": 0.3426739573478699, "pos_vert_variance": 0.05651715025305748}}, "errors": ["PreArm: RC not found", "PreArm: Hardware safety switch"]}
{"timestamp": "2026-01-31T13:03:06.946909Z", "telemetry": {"lat": 13.3520527, "lon": 74.8647295, "satellites": 6, "altitude_gps_m": 58.62999725341797, "groundspeed_mps": 2.30954909324646}, "flight": {"mode": "STABILIZE", "armed": false}, "ekf": {"attitude": {"roll": -0.016083242371678352, "pitch": -0.03267115354537964, "yaw": 1.495440125465393}, "local_position": {"x": -13.936861038208008, "y": 26.78313636779785, "z": -11.92444896697998}, "status": {"flags": 33599, "velocity_variance": 1.0113030672073364, "pos_horiz_variance": 0.3813457190990448, "pos_vert_variance": 0.06417407095432281}}, "errors": ["PreArm: RC not found", "PreArm: Hardware safety switch"]}
{"timestamp": "2026-01-31T13:03:07.945908Z", "telemetry": {"lat": 13.3520735, "lon": 74.8647215, "satellites": 7, "altitude_gps_m": 58.64999771118164, "groundspeed_mps": 4.592461585998535}, "flight": {"mode": "STABILIZE", "armed": false}, "ekf": {"attitude": {"roll": 0.0017977890092879534, "pitch": -0.019001554697752, "yaw": 1.4972341060638428}, "local_position": {"x": -33.203243255615234, "y": 19.562618255615234, "z": -11.94333553314209}, "status": {"flags": 33599, "velocity_variance": 0.7304126620292664, "pos_horiz_variance": 0.30609455704689026, "pos_vert_variance": 0.04533546417951584}}, "errors": ["PreArm: RC not found", "PreArm: Hardware safety switch"]}
{"timestamp": "2026-01-31T13:03:08.946089Z", "telemetry": {"lat": 13.3521452, "lon": 74.8647328, "satellites": 7, "altitude_gps_m": 58.849998474121094, "groundspeed_mps": 5.830472469329834}, "flight": {"mode": "STABILIZE", "armed": false}, "ekf": {"attitude": {"roll": 0.004155021160840988, "pitch": -0.012345202267169952, "yaw": 1.4966012239456177}, "local_position": {"x": -46.05426788330078, "y": 14.350042343139648, "z": -12.130268096923828}, "status": {"flags": 33599, "velocity_variance": 0.720906138420105, "pos_horiz_variance": 0.18274880945682526, "pos_vert_variance": 0.06040014699101448}}, "errors": ["PreArm: RC not found", "PreArm: Hardware safety switch"]}
{"timestamp": "2026-01-31T13:03:09.946932Z", "telemetry": {"lat": 13.3521931, "lon": 74.864741, "satellites": 7, "altitude_gps_m": 58.80999755859375, "groundspeed_mps": 6.088910102844238}, "flight": {"mode": "STABILIZE", "armed": false}, "ekf": {"attitude": {"roll": 0.003500585211440921, "pitch": -0.010797623544931412, "yaw": 1.4960532188415527}, "local_position": {"x": -53.99983215332031, "y": 11.228158950805664, "z": -12.103157997131348}, "status": {"flags": 33599, "velocity_variance": 0.6380667090415955, "pos_horiz_variance": 0.06426921486854553, "pos_vert_variance": 0.049701008945703506}}, "errors": ["PreArm: RC not found", "PreArm: Hardware safety switch"]}
{"timestamp": "2026-01-31T13:03:10.945861Z", "telemetry": {"lat": 13.3522327, "lon": 74.8647465, "satellites": 7, "altitude_gps_m": 58.80999755859375, "groundspeed_mps": 5.630361080169678}, "flight": {"mode": "STABILIZE", "armed": false}, "ekf": {"attitude": {"roll": -0.004398443270474672, "pitch": -0.010974330827593803, "yaw": 1.4946016073226929}, "local_position": {"x": -57.26500701904297, "y": 9.701931953430176, "z": -12.093846321105957}, "status": {"flags": 33599, "velocity_variance": 0.5374716520309448, "pos_horiz_variance": 0.030639773234725, "pos_vert_variance": 0.06539762765169144}}, "errors": ["PreArm: RC not found", "PreArm: Hardware safety switch"]}
{"timestamp": "2026-01-31T13:03:11.945912Z", "telemetry": {"lat": 13.3522603, "lon": 74.8647539, "satellites": 7, "altitude_gps_m": 58.72999954223633, "groundspeed_mps": 5.0046586990356445}, "flight": {"mode": "STABILIZE", "armed": false}, "ekf": {"attitude": {"roll": -0.011905328370630741, "pitch": -0.013276925310492516, "yaw": 1.493467092514038}, "local_position": {"x": -58.64801788330078, "y": 9.239167213439941, "z": -12.0247163772583}, "status": {"flags": 33599, "velocity_variance": 0.8097691535949707, "pos_horiz_variance": 0.0891498550772667, "pos_vert_variance": 0.00619578268378973}}, "errors": ["PreArm: RC not found", "PreArm: Hardware safety switch"]}
{"timestamp": "2026-01-31T13:03:12.945839Z", "telemetry": {"lat": 13.3522783, "lon": 74.8647547, "satellites": 7, "altitude_gps_m": 58.69999694824219, "groundspeed_mps": 4.5743632316589355}, "flight": {"mode": "STABILIZE", "armed": false}, "ekf": {"attitude": {"roll": -0.01588289998471737, "pitch": -0.013675348833203316, "yaw": 1.4928511381149292}, "local_position": {"x": -58.782958984375, "y": 8.868029594421387, "z": -11.992413520812988}, "status": {"flags": 33599, "velocity_variance": 0.6728071570396423, "pos_horiz_variance": 0.12321276217699051, "pos_vert_variance": 0.006807649973779917}}, "errors": ["PreArm: RC not found", "PreArm: Hardware safety switch"]}
{"timestamp": "2026-01-31T13:03:13.945985Z", "telemetry": {"lat": 13.3523008, "lon": 74.8647548, "satellites": 7, "altitude_gps_m": 58.80999755859375, "groundspeed_mps": 3.708435535430908}, "flight": {"mode": "STABILIZE", "armed": false}, "ekf": {"attitude": {"roll": -0.025923604145646095, "pitch": -0.015011904761195183, "yaw": 1.4920846223831177}, "local_position": {"x": -58.40480422973633, "y": 8.463010787963867, "z": -12.07289981842041}, "status": {"flags": 33599, "velocity_variance": 0.7183540463447571, "pos_horiz_variance": 0.15259329974651337, "pos_vert_variance": 0.055288754403591156}}, "errors": ["PreArm: RC not found", "PreArm: Hardware safety switch"]}
{"timestamp": "2026-01-31T13:03:14.946096Z", "telemetry": {"lat": 13.3523306, "lon": 74.8647548, "satellites": 8, "altitude_gps_m": 58.93000030517578, "groundspeed_mps": 2.71567702293396}, "flight": {"mode": "STABILIZE", "armed": false}, "ekf": {"attitude": {"roll": -0.036163005977869034, "pitch": -0.016221601516008377, "yaw": 1.4917373657226562}, "local_position": {"x": -56.23466873168945, "y": 8.204480171203613, "z": -12.249446868896484}, "status": {"flags": 33599, "velocity_variance": 0.47613227367401123, "pos_horiz_variance": 0.17308908700942993, "pos_vert_variance": 0.11023693531751633}}, "errors": ["PreArm: RC not found", "PreArm: Hardware safety switch"]}
{"timestamp": "2026-01-31T13:03:15.946323Z", "telemetry": {"lat": 13.3523552, "lon": 74.8647599, "satellites": 8, "altitude_gps_m": 58.88999938964844, "groundspeed_mps": 2.1625216007232666}, "flight": {"mode": "STABILIZE", "armed": false}, "ekf": {"attitude": {"roll": -0.04103337973356247, "pitch": -0.017084568738937378, "yaw": 1.4912372827529907}, "local_position": {"x": -54.0889892578125, "y": 7.99988317489624, "z": -12.184922218322754}, "status": {"flags": 33599, "velocity_variance": 0.46644049882888794, "pos_horiz_variance": 0.18820707499980927, "pos_vert_variance": 0.06349709630012512}}, "errors": ["PreArm: RC not found", "PreArm: Hardware safety switch"]}
{"timestamp": "2026-01-31T13:03:16.946970Z", "telemetry": {"lat": 13.3523846, "lon": 74.8647689, "satellites": 8, "altitude_gps_m": 58.87999725341797, "groundspeed_mps": 1.4013992547988892}, "flight": {"mode": "STABILIZE", "armed": false}, "ekf": {"attitude": {"roll": -0.04763214290142059, "pitch": -0.019012030214071274, "yaw": 1.490701675415039}, "local_position": {"x": -51.41856384277344, "y": 8.278295516967773, "z": -12.173590660095215}, "status": {"flags": 33599, "velocity_variance": 0.2802946865558624, "pos_horiz_variance": 0.20637555420398712, "pos_vert_variance": 0.041707299649715424}}, "errors": ["PreArm: RC not found", "PreArm: Hardware safety switch"]}
{"timestamp": "2026-01-31T13:03:17.946051Z", "telemetry": {"lat": 13.3524122, "lon": 74.8647746, "satellites": 7, "altitude_gps_m": 58.89999771118164, "groundspeed_mps": 0.51190185546875}, "flight": {"mode": "STABILIZE", "armed": false}, "ekf": {"attitude": {"roll": -0.05551253259181976, "pitch": -0.021803611889481544, "yaw": 1.4902418851852417}, "local_position": {"x": -47.757137298583984, "y": 8.850799560546875, "z": -12.18237018585205}, "status": {"flags": 33599, "velocity_variance": 0.35690537095069885, "pos_horiz_variance": 0.2089654952287674, "pos_vert_variance": 0.058698076754808426}}, "errors": ["PreArm: RC not found", "PreArm: Hardware safety switch"]}
{"timestamp": "2026-01-31T13:03:18.946639Z", "telemetry": {"lat": 13.3524309, "lon": 74.8647795, "satellites": 7, "altitude_gps_m": 58.89999771118164, "groundspeed_mps": 0.5253884196281433}, "flight": {"mode": "STABILIZE", "armed": false}, "ekf": {"attitude": {"roll": -0.059406641870737076, "pitch": -0.023431671783328056, "yaw": 1.4899797439575195}, "local_position": {"x": -44.19748306274414, "y": 9.642809867858887, "z": -12.19700813293457}, "status": {"flags": 33599, "velocity_variance": 0.636845588684082, "pos_horiz_variance": 0.19593028724193573, "pos_vert_variance": 0.03428048640489578}}, "errors": ["PreArm: RC not found", "PreArm: Hardware safety switch"]}
{"timestamp": "2026-01-31T13:03:19.946174Z", "telemetry": {"lat": 13.3524316, "lon": 74.8647805, "satellites": 7, "altitude_gps_m": 58.90999984741211, "groundspeed_mps": 0.8793342709541321}, "flight": {"mode": "STABILIZE", "armed": false}, "ekf": {"attitude": {"roll": -0.060354482382535934, "pitch": -0.025323882699012756, "yaw": 1.489326000213623}, "local_position": {"x": -41.25343322753906, "y": 10.526261329650879, "z": -12.208568572998047}, "status": {"flags": 33599, "velocity_variance": 0.6157751679420471, "pos_horiz_variance": 0.16336128115653992, "pos_vert_variance": 0.006956086028367281}}, "errors": ["PreArm: RC not found", "PreArm: Hardware safety switch"]}
{"timestamp": "2026-01-31T13:03:20.946696Z", "telemetry": {"lat": 13.3524353, "lon": 74.8647861, "satellites": 8, "altitude_gps_m": 58.82999801635742, "groundspeed_mps": 1.2174689769744873}, "flight": {"mode": "STABILIZE", "armed": false}, "ekf": {"attitude": {"roll": -0.05966535210609436, "pitch": -0.026737568899989128, "yaw": 1.4884321689605713}, "local_position": {"x": -38.97917938232422, "y": 11.331182479858398, "z": -12.139020919799805}, "status": {"flags": 33599, "velocity_variance": 0.6703592538833618, "pos_horiz_variance": 0.14143244922161102, "pos_vert_variance": 0.0006088021909818053}}, "errors": ["PreArm: RC not found", "PreArm: Hardware safety switch"]}
{"timestamp": "2026-01-31T13:03:21.946630Z", "telemetry": {"lat": 13.3524425, "lon": 74.8647888, "satellites": 6, "altitude_gps_m": 58.84000015258789, "groundspeed_mps": 1.3435847759246826}, "flight": {"mode": "STABILIZE", "armed": false}, "ekf": {"attitude": {"roll": -0.05825648829340935, "pitch": -0.0265185683965683, "yaw": 1.4878205060958862}, "local_position": {"x": -36.90855407714844, "y": 12.039566040039062, "z": -12.133407592773438}, "status": {"flags": 33599, "velocity_variance": 0.37371236085891724, "pos_horiz_variance": 0.12483179569244385, "pos_vert_variance": 0.007219287566840649}}, "errors": ["PreArm: RC not found", "PreArm: Hardware safety switch"]}
{"timestamp": "2026-01-31T13:03:22.946798Z", "telemetry": {"lat": 13.3524464, "lon": 74.8647831, "satellites": 6, "altitude_gps_m": 58.84000015258789, "groundspeed_mps": 1.669511079788208}, "flight": {"mode": "STABILIZE", "armed": false}, "ekf": {"attitude": {"roll": -0.05903962627053261, "pitch": -0.026279758661985397, "yaw": 1.4873300790786743}, "local_position": {"x": -34.30167007446289, "y": 12.459983825683594, "z": -12.138031005859375}, "status": {"flags": 33599, "velocity_variance": 1.0153729915618896, "pos_horiz_variance": 0.09346809983253479, "pos_vert_variance": 0.029478687793016434}}, "errors": ["PreArm: RC not found", "PreArm: Hardware safety switch"]}
{"timestamp": "2026-01-31T13:03:23.946586Z", "telemetry": {"lat": 13.3524493, "lon": 74.8647833, "satellites": 6, "altitude_gps_m": 58.71999740600586, "groundspeed_mps": 1.91000235080719}, "flight": {"mode": "STABILIZE", "armed": false}, "ekf": {"attitude": {"roll": -0.05748661607503891, "pitch": -0.026226285845041275, "yaw": 1.486653447151184}, "local_position": {"x": -32.15424346923828, "y": 12.942474365234375, "z": -12.019067764282227}, "status": {"flags": 33599, "velocity_variance": 0.7003147602081299, "pos_horiz_variance": 0.06737009435892105, "pos_vert_variance": 0.06760527938604355}}, "errors": ["PreArm: RC not found", "PreArm: Hardware safety switch"]}
{"timestamp": "2026-01-31T13:03:24.946651Z", "telemetry": {"lat": 13.3524517, "lon": 74.8647836, "satellites": 6, "altitude_gps_m": 58.82999801635742, "groundspeed_mps": 2.0047333240509033}, "flight": {"mode": "STABILIZE", "armed": false}, "ekf": {"attitude": {"roll": -0.05554244667291641, "pitch": -0.02596931904554367, "yaw": 1.4859763383865356}, "local_position": {"x": -30.36918067932129, "y": 13.35861587524414, "z": -12.122318267822266}, "status": {"flags": 33599, "velocity_variance": 0.7141353487968445, "pos_horiz_variance": 0.04513375088572502, "pos_vert_variance": 0.047091130167245865}}, "errors": ["PreArm: RC not found", "PreArm: Hardware safety switch"]}
{"timestamp": "2026-01-31T13:03:25.946431Z", "telemetry": {"lat": 13.3524578, "lon": 74.8647895, "satellites": 6, "altitude_gps_m": 58.779998779296875, "groundspeed_mps": 2.040844202041626}, "flight": {"mode": "STABILIZE", "armed": false}, "ekf": {"attitude": {"roll": -0.05376575514674187, "pitch": -0.025894399732351303, "yaw": 1.4856054782867432}, "local_position": {"x": -28.78824806213379, "y": 13.851217269897461, "z": -12.07713794708252}, "status": {"flags": 33599, "velocity_variance": 0.7034148573875427, "pos_horiz_variance": 0.03358134999871254, "pos_vert_variance": 0.03501211851835251}}, "errors": ["PreArm: RC not found", "PreArm: Hardware safety switch"]}
{"timestamp": "2026-01-31T13:03:26.946427Z", "telemetry": {"lat": 13.3524768, "lon": 74.8647937, "satellites": 6, "altitude_gps_m": 58.689998626708984, "groundspeed_mps": 2.206293821334839}, "flight": {"mode": "STABILIZE", "armed": false}, "ekf": {"attitude": {"roll": -0.052857253700494766, "pitch": -0.0257963165640831, "yaw": 1.485107421875}, "local_position": {"x": -26.925752639770508, "y": 14.216364860534668, "z": -12.018548011779785}, "status": {"flags": 33599, "velocity_variance": 0.30620819330215454, "pos_horiz_variance": 0.03658042848110199, "pos_vert_variance": 0.005019739735871553}}, "errors": ["PreArm: RC not found", "PreArm: Hardware safety switch"]}
{"timestamp": "2026-01-31T13:03:27.946660Z", "telemetry": {"lat": 13.3524667, "lon": 74.864786, "satellites": 9, "altitude_gps_m": 58.75, "groundspeed_mps": 2.074221134185791}, "flight": {"mode": "STABILIZE", "armed": false}, "ekf": {"attitude": {"roll": -0.048143330961465836, "pitch": -0.02442106604576111, "yaw": 1.4846199750900269}, "local_position": {"x": -25.455839157104492, "y": 14.792234420776367, "z": -12.030477523803711}, "status": {"flags": 33599, "velocity_variance": 0.637912929058075, "pos_horiz_variance": 0.004317625425755978, "pos_vert_variance": 0.012854390777647495}}, "errors": ["PreArm: RC not found", "PreArm: Hardware safety switch"]}
{"timestamp": "2026-01-31T13:03:28.946359Z", "telemetry": {"lat": 13.3524514, "lon": 74.8647775, "satellites": 9, "altitude_gps_m": 58.75, "groundspeed_mps": 1.7023402452468872}, "flight": {"mode": "STABILIZE", "armed": false}, "ekf": {"attitude": {"roll": -0.042372364550828934, "pitch": -0.022684799507260323, "yaw": 1.4841845035552979}, "local_position": {"x": -25.736116409301758, "y": 14.645149230957031, "z": -12.047745704650879}, "status": {"flags": 33599, "velocity_variance": 0.6291623115539551, "pos_horiz_variance": 0.03054269775748253, "pos_vert_variance": 0.039431940764188766}}, "errors": ["PreArm: RC not found", "PreArm: Hardware safety switch"]}
{"timestamp": "2026-01-31T13:03:29.946535Z", "telemetry": {"lat": 13.3524438, "lon": 74.8647709, "satellites": 9, "altitude_gps_m": 58.78999710083008, "groundspeed_mps": 1.2020341157913208}, "flight": {"mode": "STABILIZE", "armed": false}, "ekf": {"attitude": {"roll": -0.035189542919397354, "pitch": -0.019501300528645515, "yaw": 1.4834312200546265}, "local_position": {"x": -26.54647445678711, "y": 14.13503360748291, "z": -12.088132858276367}, "status": {"flags": 33599, "velocity_variance": 0.3262859284877777, "pos_horiz_variance": 0.036949414759874344, "pos_vert_variance": 0.02325727976858616}}, "errors": ["PreArm: RC not found", "PreArm: Hardware safety switch"]}
{"timestamp": "2026-01-31T13:03:30.946438Z", "telemetry": {"lat": 13.3524369, "lon": 74.8647644, "satellites": 8, "altitude_gps_m": 58.79999923706055, "groundspeed_mps": 0.7273206114768982}, "flight": {"mode": "STABILIZE", "armed": false}, "ekf": {"attitude": {"roll": -0.03009023331105709, "pitch": -0.016708074137568474, "yaw": 1.4827800989151}, "local_position": {"x": -27.194435119628906, "y": 13.569284439086914, "z": -12.080729484558105}, "status": {"flags": 33599, "velocity_variance": 0.30570706725120544, "pos_horiz_variance": 0.04212859645485878, "pos_vert_variance": 0.04581328481435776}}, "errors": ["PreArm: RC not found", "PreArm: Hardware safety switch"]}
{"timestamp": "2026-01-31T13:03:31.946121Z", "telemetry": {"lat": 13.3524328, "lon": 74.8647562, "satellites": 8, "altitude_gps_m": 58.73999786376953, "groundspeed_mps": 0.5007911324501038}, "flight": {"mode": "STABILIZE", "armed": false}, "ekf": {"attitude": {"roll": -0.026989461854100227, "pitch": -0.014765951782464981, "yaw": 1.4822434186935425}, "local_position": {"x": -27.875158309936523, "y": 12.676409721374512, "z": -12.034756660461426}, "status": {"flags": 33599, "velocity_variance": 0.28711268305778503, "pos_horiz_variance": 0.041951488703489304, "pos_vert_variance": 0.06598416715860367}}, "errors": ["PreArm: RC not found", "PreArm: Hardware safety switch"]}
{"timestamp": "2026-01-31T13:03:32.946754Z", "telemetry": {"lat": 13.3524272, "lon": 74.8647506, "satellites": 8, "altitude_gps_m": 58.599998474121094, "groundspeed_mps": 0.32344019412994385}, "flight": {"mode": "STABILIZE", "armed": false}, "ekf": {"attitude": {"roll": -0.02322598546743393, "pitch": -0.013212088495492935, "yaw": 1.4817014932632446}, "local_position": {"x": -28.692096710205078, "y": 11.942341804504395, "z": -11.895956039428711}, "status": {"flags": 33599, "velocity_variance": 0.3228667378425598, "pos_horiz_variance": 0.039640676230192184, "pos_vert_variance": 0.06498027592897415}}, "errors": ["PreArm: RC not found", "PreArm: Hardware safety switch", "PreArm: RC not found", "PreArm: Hardware safety switch"]}
{"timestamp": "2026-01-31T13:03:33.946135Z", "telemetry": {"lat": 13.3524296, "lon": 74.8647424, "satellites": 7, "altitude_gps_m": 58.46999740600586, "groundspeed_mps": 0.44744357466697693}, "flight": {"mode": "STABILIZE", "armed": false}, "ekf": {"attitude": {"roll": -0.021748900413513184, "pitch": -0.01144053228199482, "yaw": 1.481106162071228}, "local_position": {"x": -29.08841323852539, "y": 11.172135353088379, "z": -11.815893173217773}, "status": {"flags": 33599, "velocity_variance": 0.30405697226524353, "pos_horiz_variance": 0.03404916822910309, "pos_vert_variance": 0.06270189583301544}}, "errors": ["PreArm: RC not found", "PreArm: Hardware safety switch", "PreArm: RC not found", "PreArm: Hardware safety switch"]}
{"timestamp": "2026-01-31T13:03:34.946180Z", "telemetry": {"lat": 13.3524269, "lon": 74.8647323, "satellites": 7, "altitude_gps_m": 58.41999816894531, "groundspeed_mps": 0.5686814188957214}, "flight": {"mode": "STABILIZE", "armed": false}, "ekf": {"attitude": {"roll": -0.02095680497586727, "pitch": -0.010412678122520447, "yaw": 1.4809376001358032}, "local_position": {"x": -29.35080909729004, "y": 10.255355834960938, "z": -11.709084510803223}, "status": {"flags": 33599, "velocity_variance": 0.26728829741477966, "pos_horiz_variance": 0.036171380430459976, "pos_vert_variance": 0.03565395623445511}}, "errors": ["PreArm: RC not found", "PreArm: Hardware safety switch", "PreArm: RC not found", "PreArm: Hardware safety switch"]}
{"timestamp": "2026-01-31T13:03:35.946558Z", "telemetry": {"lat": 13.3524196, "lon": 74.864721, "satellites": 7, "altitude_gps_m": 58.29999923706055, "groundspeed_mps": 0.8376457691192627}, "flight": {"mode": "STABILIZE", "armed": false}, "ekf": {"attitude": {"roll": -0.018389329314231873, "pitch": -0.008629882708191872, "yaw": 1.480513572692871}, "local_position": {"x": -30.261899948120117, "y": 9.067787170410156, "z": -11.589365005493164}, "status": {"flags": 33599, "velocity_variance": 0.0560680590569973, "pos_horiz_variance": 0.035247426480054855, "pos_vert_variance": 0.021651597693562508}}, "errors": ["PreArm: RC not found", "PreArm: Hardware safety switch", "PreArm: RC not found", "PreArm: Hardware safety switch"]}
{"timestamp": "2026-01-31T13:03:36.946743Z", "telemetry": {"lat": 13.3524115, "lon": 74.8647135, "satellites": 7, "altitude_gps_m": 58.22999954223633, "groundspeed_mps": 1.137270450592041}, "flight": {"mode": "STABILIZE", "armed": false}, "ekf": {"attitude": {"roll": -0.015246952883899212, "pitch": -0.007904980331659317, "yaw": 1.4798535108566284}, "local_position": {"x": -31.250064849853516, "y": 7.968425750732422, "z": -11.525045394897461}, "status": {"flags": 33599, "velocity_variance": 0.4285343885421753, "pos_horiz_variance": 0.03133966773748398, "pos_vert_variance": 0.03965085372328758}}, "errors": ["PreArm: RC not found", "PreArm: Hardware safety switch", "PreArm: RC not found", "PreArm: Hardware safety switch"]}
{"timestamp": "2026-01-31T13:03:37.946720Z", "telemetry": {"lat": 13.3524099, "lon": 74.8647117, "satellites": 7, "altitude_gps_m": 58.209999084472656, "groundspeed_mps": 1.2661298513412476}, "flight": {"mode": "STABILIZE", "armed": false}, "ekf": {"attitude": {"roll": -0.014369785785675049, "pitch": -0.008189599961042404, "yaw": 1.4793459177017212}, "local_position": {"x": -32.44051742553711, "y": 7.170737266540527, "z": -11.51125717163086}, "status": {"flags": 33599, "velocity_variance": 0.5453512072563171, "pos_horiz_variance": 0.016468271613121033, "pos_vert_variance": 0.06005791947245598}}, "errors": ["PreArm: RC not found", "PreArm: Hardware safety switch", "PreArm: RC not found", "PreArm: Hardware safety switch"]}
{"timestamp": "2026-01-31T13:03:38.946622Z", "telemetry": {"lat": 13.3524237, "lon": 74.8647083, "satellites": 7, "altitude_gps_m": 58.2599983215332, "groundspeed_mps": 1.214648723602295}, "flight": {"mode": "STABILIZE", "armed": false}, "ekf": {"attitude": {"roll": -0.017205728217959404, "pitch": -0.00889565423130989, "yaw": 1.4788143634796143}, "local_position": {"x": -32.3507194519043, "y": 6.392040729522705, "z": -11.55813217163086}, "status": {"flags": 33599, "velocity_variance": 0.48836633563041687, "pos_horiz_variance": 0.01959250308573246, "pos_vert_variance": 0.06421220302581787}}, "errors": ["PreArm: RC not found", "PreArm: Hardware safety switch", "PreArm: RC not found", "PreArm: Hardware safety switch"]}
{"timestamp": "2026-01-31T13:03:39.946775Z", "telemetry": {"lat": 13.352429, "lon": 74.8647051, "satellites": 6, "altitude_gps_m": 58.28999710083008, "groundspeed_mps": 1.1275923252105713}, "flight": {"mode": "STABILIZE", "armed": false}, "ekf": {"attitude": {"roll": -0.018803352490067482, "pitch": -0.009929219260811806, "yaw": 1.4780069589614868}, "local_position": {"x": -32.12449264526367, "y": 5.857486724853516, "z": -11.597579956054688}, "status": {"flags": 33599, "velocity_variance": 0.34681016206741333, "pos_horiz_variance": 0.025209808722138405, "pos_vert_variance": 0.0020702506881207228}}, "errors": ["PreArm: RC not found", "PreArm: Hardware safety switch", "PreArm: RC not found", "PreArm: Hardware safety switch"]}
{"timestamp": "2026-01-31T13:03:40.946352Z", "telemetry": {"lat": 13.3524283, "lon": 74.8647035, "satellites": 6, "altitude_gps_m": 58.38999938964844, "groundspeed_mps": 1.1854488849639893}, "flight": {"mode": "STABILIZE", "armed": false}, "ekf": {"attitude": {"roll": -0.01848411187529564, "pitch": -0.01009049266576767, "yaw": 1.4776031970977783}, "local_position": {"x": -32.505088806152344, "y": 5.127439975738525, "z": -11.686481475830078}, "status": {"flags": 33599, "velocity_variance": 0.3986557424068451, "pos_horiz_variance": 0.02917388454079628, "pos_vert_variance": 0.03805556520819664}}, "errors": ["PreArm: RC not found", "PreArm: Hardware safety switch", "PreArm: RC not found", "PreArm: Hardware safety switch"]}
{"timestamp": "2026-01-31T13:03:41.946545Z", "telemetry": {"lat": 13.3524347, "lon": 74.8647079, "satellites": 6, "altitude_gps_m": 58.44999694824219, "groundspeed_mps": 1.0553252696990967}, "flight": {"mode": "STABILIZE", "armed": false}, "ekf": {"attitude": {"roll": -0.019940758123993874, "pitch": -0.012540508061647415, "yaw": 1.476717233657837}, "local_position": {"x": -32.653526306152344, "y": 4.954032897949219, "z": -11.735827445983887}, "status": {"flags": 33599, "velocity_variance": 0.668261706829071, "pos_horiz_variance": 0.042740415781736374, "pos_vert_variance": 0.028048193082213402}}, "errors": ["PreArm: RC not found", "PreArm: Hardware safety switch", "PreArm: RC not found", "PreArm: Hardware safety switch"]}
{"timestamp": "2026-01-31T13:03:42.946548Z", "telemetry": {"lat": 13.3524452, "lon": 74.8647082, "satellites": 6, "altitude_gps_m": 58.59000015258789, "groundspeed_mps": 0.9048516750335693}, "flight": {"mode": "STABILIZE", "armed": false}, "ekf": {"attitude": {"roll": -0.022096870467066765, "pitch": -0.013505643233656883, "yaw": 1.4762673377990723}, "local_position": {"x": -32.11310958862305, "y": 4.814699172973633, "z": -11.857707977294922}, "status": {"flags": 33599, "velocity_variance": 0.2320084273815155, "pos_horiz_variance": 0.051240261644124985, "pos_vert_variance": 0.030636336654424667}}, "errors": ["PreArm: RC not found", "PreArm: Hardware safety switch", "PreArm: RC not found", "PreArm: Hardware safety switch"]}
{"timestamp": "2026-01-31T13:03:43.945964Z", "telemetry": {"lat": 13.3524643, "lon": 74.8647118, "satellites": 5, "altitude_gps_m": 58.64999771118164, "groundspeed_mps": 0.7153325080871582}, "flight": {"mode": "STABILIZE", "armed": false}, "ekf": {"attitude": {"roll": -0.02461874485015869, "pitch": -0.014916110783815384, "yaw": 1.4758622646331787}, "local_position": {"x": -31.18100929260254, "y": 4.786791801452637, "z": -11.942041397094727}, "status": {"flags": 33599, "velocity_variance": 0.7226541638374329, "pos_horiz_variance": 0.0675833448767662, "pos_vert_variance": 0.057069581001996994}}, "errors": ["PreArm: RC not found", "PreArm: Hardware safety switch", "PreArm: RC not found", "PreArm: Hardware safety switch"]}
{"timestamp": "2026-01-31T13:03:44.946013Z", "telemetry": {"lat": 13.3524636, "lon": 74.8647071, "satellites": 5, "altitude_gps_m": 58.709999084472656, "groundspeed_mps": 0.6152841448783875}, "flight": {"mode": "STABILIZE", "armed": false}, "ekf": {"attitude": {"roll": -0.025707853958010674, "pitch": -0.015499750152230263, "yaw": 1.4753497838974}, "local_position": {"x": -30.63697052001953, "y": 4.521707534790039, "z": -11.975992202758789}, "status": {"flags": 33599, "velocity_variance": 0.40130946040153503, "pos_horiz_variance": 0.05589346960186958, "pos_vert_variance": 0.03147577866911888}}, "errors": ["PreArm: RC not found", "PreArm: Hardware safety switch", "PreArm: RC not found", "PreArm: Hardware safety switch"]}
{"timestamp": "2026-01-31T13:03:45.946591Z", "telemetry": {"lat": 13.3524607, "lon": 74.8647023, "satellites": 5, "altitude_gps_m": 58.71999740600586, "groundspeed_mps": 0.5988585948944092}, "flight": {"mode": "STABILIZE", "armed": false}, "ekf": {"attitude": {"roll": -0.02625342458486557, "pitch": -0.015659382566809654, "yaw": 1.4748247861862183}, "local_position": {"x": -30.568391799926758, "y": 4.168071269989014, "z": -12.022189140319824}, "status": {"flags": 33599, "velocity_variance": 0.25891852378845215, "pos_horiz_variance": 0.0472441129386425, "pos_vert_variance": 0.021565323695540428}}, "errors": ["PreArm: RC not found", "PreArm: Hardware safety switch", "PreArm: RC not found", "PreArm: Hardware safety switch"]}
{"timestamp": "2026-01-31T13:03:46.946909Z", "telemetry": {"lat": 13.3524704, "lon": 74.8647029, "satellites": 5, "altitude_gps_m": 58.71999740600586, "groundspeed_mps": 0.5324287414550781}, "flight": {"mode": "STABILIZE", "armed": false}, "ekf": {"attitude": {"roll": -0.02745499648153782, "pitch": -0.016110844910144806, "yaw": 1.4745912551879883}, "local_position": {"x": -30.062397003173828, "y": 3.9423670768737793, "z": -12.015108108520508}, "status": {"flags": 33599, "velocity_variance": 0.26069602370262146, "pos_horiz_variance": 0.05093483626842499, "pos_vert_variance": 0.02315165102481842}}, "errors": ["PreArm: RC not found", "PreArm: Hardware safety switch", "PreArm: RC not found", "PreArm: Hardware safety switch"]}
{"timestamp": "2026-01-31T13:03:47.946210Z", "telemetry": {"lat": 13.3524857, "lon": 74.8647077, "satellites": 5, "altitude_gps_m": 58.68000030517578, "groundspeed_mps": 0.43360692262649536}, "flight": {"mode": "STABILIZE", "armed": false}, "ekf": {"attitude": {"roll": -0.029331907629966736, "pitch": -0.01700240559875965, "yaw": 1.4744223356246948}, "local_position": {"x": -29.11260223388672, "y": 3.8973398208618164, "z": -11.976235389709473}, "status": {"flags": 33599, "velocity_variance": 0.34281426668167114, "pos_horiz_variance": 0.05732354521751404, "pos_vert_variance": 0.04668208584189415}}, "errors": ["PreArm: RC not found", "PreArm: Hardware safety switch", "PreArm: RC not found", "PreArm: Hardware safety switch"]}
{"timestamp": "2026-01-31T13:03:48.946310Z", "telemetry": {"lat": 13.3524939, "lon": 74.8647097, "satellites": 5, "altitude_gps_m": 58.65999984741211, "groundspeed_mps": 0.3825175166130066}, "flight": {"mode": "STABILIZE", "armed": false}, "ekf": {"attitude": {"roll": -0.031301166862249374, "pitch": -0.018150754272937775, "yaw": 1.4741190671920776}, "local_position": {"x": -28.18608283996582, "y": 3.9982552528381348, "z": -11.944158554077148}, "status": {"flags": 33599, "velocity_variance": 0.2908712327480316, "pos_horiz_variance": 0.05475199595093727, "pos_vert_variance": 0.01769929751753807}}, "errors": ["PreArm: RC not found", "PreArm: Hardware safety switch", "PreArm: RC not found", "PreArm: Hardware safety switch"]}
{"timestamp": "2026-01-31T13:03:49.946006Z", "telemetry": {"lat": 13.3525123, "lon": 74.8647125, "satellites": 5, "altitude_gps_m": 58.64999771118164, "groundspeed_mps": 0.4578980803489685}, "flight": {"mode": "STABILIZE", "armed": false}, "ekf": {"attitude": {"roll": -0.03351178392767906, "pitch": -0.019014820456504822, "yaw": 1.4740554094314575}, "local_position": {"x": -26.70454978942871, "y": 4.103400230407715, "z": -11.94212818145752}, "status": {"flags": 33599, "velocity_variance": 0.26157069206237793, "pos_horiz_variance": 0.05712064728140831, "pos_vert_variance": 0.03145480155944824}}, "errors": ["PreArm: RC not found", "PreArm: Hardware safety switch", "PreArm: RC not found", "PreArm: Hardware safety switch"]}
{"timestamp": "2026-01-31T13:03:50.946725Z", "telemetry": {"lat": 13.3525252, "lon": 74.8647114, "satellites": 6, "altitude_gps_m": 58.62999725341797, "groundspeed_mps": 0.7346577644348145}, "flight": {"mode": "STABILIZE", "armed": false}, "ekf": {"attitude": {"roll": -0.036500073969364166, "pitch": -0.01986013911664486, "yaw": 1.4739344120025635}, "local_position": {"x": -24.352689743041992, "y": 4.474820613861084, "z": -11.919913291931152}, "status": {"flags": 33599, "velocity_variance": 0.313652902841568, "pos_horiz_variance": 0.05037989839911461, "pos_vert_variance": 0.026207782328128815}}, "errors": ["PreArm: RC not found", "PreArm: Hardware safety switch", "PreArm: RC not found", "PreArm: Hardware safety switch"]}
{"timestamp": "2026-01-31T13:03:51.946313Z", "telemetry": {"lat": 13.3525669, "lon": 74.8647308, "satellites": 7, "altitude_gps_m": 58.63999938964844, "groundspeed_mps": 1.1411961317062378}, "flight": {"mode": "STABILIZE", "armed": false}, "ekf": {"attitude": {"roll": -0.03972186520695686, "pitch": -0.02250577136874199, "yaw": 1.4737799167633057}, "local_position": {"x": -21.99521827697754, "y": 5.106452941894531, "z": -11.937336921691895}, "status": {"flags": 33599, "velocity_variance": 0.5661637783050537, "pos_horiz_variance": 0.08213647454977036, "pos_vert_variance": 0.0377420149743557}}, "errors": ["PreArm: RC not found", "PreArm: Hardware safety switch", "PreArm: RC not found", "PreArm: Hardware safety switch"]}
{"timestamp": "2026-01-31T13:03:52.946819Z", "telemetry": {"lat": 13.3526583, "lon": 74.864778, "satellites": 7, "altitude_gps_m": 58.62999725341797, "groundspeed_mps": 1.8519326448440552}, "flight": {"mode": "STABILIZE", "armed": false}, "ekf": {"attitude": {"roll": -0.04740246757864952, "pitch": -0.028336621820926666, "yaw": 1.4737154245376587}, "local_position": {"x": -16.508146286010742, "y": 7.804920196533203, "z": -11.92933464050293}, "status": {"flags": 33599, "velocity_variance": 0.4751048982143402, "pos_horiz_variance": 0.1422998458147049, "pos_vert_variance": 0.019522784277796745}}, "errors": ["PreArm: RC not found", "PreArm: Hardware safety switch", "PreArm: RC not found", "PreArm: Hardware safety switch"]}
{"timestamp": "2026-01-31T13:03:53.946123Z", "telemetry": {"lat": 13.3527152, "lon": 74.8648158, "satellites": 7, "altitude_gps_m": 58.6099967956543, "groundspeed_mps": 2.8083436489105225}, "flight": {"mode": "STABILIZE", "armed": false}, "ekf": {"attitude": {"roll": -0.05011485889554024, "pitch": -0.03302173316478729, "yaw": 1.4738953113555908}, "local_position": {"x": -10.127609252929688, "y": 11.644258499145508, "z": -11.906153678894043}, "status": {"flags": 33599, "velocity_variance": 0.30532369017601013, "pos_horiz_variance": 0.1547064334154129, "pos_vert_variance": 0.020018097013235092}}, "errors": ["PreArm: RC not found", "PreArm: Hardware safety switch", "PreArm: RC not found", "PreArm: Hardware safety switch"]}
{"timestamp": "2026-01-31T13:03:54.946281Z", "telemetry": {"lat": 13.3527514, "lon": 74.8648434, "satellites": 7, "altitude_gps_m": 58.52000045776367, "groundspeed_mps": 3.628047466278076}, "flight": {"mode": "STABILIZE", "armed": false}, "ekf": {"attitude": {"roll": -0.05256274342536926, "pitch": -0.03710036352276802, "yaw": 1.4739993810653687}, "local_position": {"x": -4.546474933624268, "y": 15.425578117370605, "z": -11.846419334411621}, "status": {"flags": 33599, "velocity_variance": 0.4548846185207367, "pos_horiz_variance": 0.14379656314849854, "pos_vert_variance": 0.06313405930995941}}, "errors": ["PreArm: RC not found", "PreArm: Hardware safety switch", "PreArm: RC not found", "PreArm: Hardware safety switch"]}
{"timestamp": "2026-01-31T13:03:55.946040Z", "telemetry": {"lat": 13.3527877, "lon": 74.8648544, "satellites": 7, "altitude_gps_m": 58.53999710083008, "groundspeed_mps": 4.061647891998291}, "flight": {"mode": "STABILIZE", "armed": false}, "ekf": {"attitude": {"roll": -0.05583232268691063, "pitch": -0.037423595786094666, "yaw": 1.4736552238464355}, "local_position": {"x": 1.2354936599731445, "y": 18.070690155029297, "z": -11.836896896362305}, "status": {"flags": 33599, "velocity_variance": 0.6966105699539185, "pos_horiz_variance": 0.12379860877990723, "pos_vert_variance": 0.006213625427335501}}, "errors": ["PreArm: RC not found", "PreArm: Hardware safety switch", "PreArm: RC not found", "PreArm: Hardware safety switch"]}
{"timestamp": "2026-01-31T13:03:56.946514Z", "telemetry": {"lat": 13.3528388, "lon": 74.8648547, "satellites": 7, "altitude_gps_m": 58.439998626708984, "groundspeed_mps": 4.621655464172363}, "flight": {"mode": "STABILIZE", "armed": false}, "ekf": {"attitude": {"roll": -0.058904122561216354, "pitch": -0.036535151302814484, "yaw": 1.4733408689498901}, "local_position": {"x": 7.442162036895752, "y": 20.10361099243164, "z": -11.737068176269531}, "status": {"flags": 33599, "velocity_variance": 1.1702195405960083, "pos_horiz_variance": 0.11269392818212509, "pos_vert_variance": 0.010836810804903507}}, "errors": ["PreArm: RC not found", "PreArm: Hardware safety switch", "PreArm: RC not found", "PreArm: Hardware safety switch"]}
{"timestamp": "2026-01-31T13:03:57.946366Z", "telemetry": {"lat": 13.3528905, "lon": 74.8648679, "satellites": 6, "altitude_gps_m": 58.37999725341797, "groundspeed_mps": 5.137870788574219}, "flight": {"mode": "STABILIZE", "armed": false}, "ekf": {"attitude": {"roll": -0.06057875230908394, "pitch": -0.036312296986579895, "yaw": 1.4731664657592773}, "local_position": {"x": 13.883668899536133, "y": 22.036935806274414, "z": -11.677938461303711}, "status": {"flags": 33599, "velocity_variance": 0.8775813579559326, "pos_horiz_variance": 0.10577098280191422, "pos_vert_variance": 0.004569435957819223}}, "errors": ["PreArm: RC not found", "PreArm: Hardware safety switch", "PreArm: RC not found", "PreArm: Hardware safety switch"]}
{"timestamp": "2026-01-31T13:03:58.946227Z", "telemetry": {"lat": 13.352926, "lon": 74.864906, "satellites": 6, "altitude_gps_m": 58.39999771118164, "groundspeed_mps": 5.1898016929626465}, "flight": {"mode": "STABILIZE", "armed": false}, "ekf": {"attitude": {"roll": -0.05618153139948845, "pitch": -0.03725176304578781, "yaw": 1.473994493484497}, "local_position": {"x": 18.55799674987793, "y": 24.377273559570312, "z": -11.692100524902344}, "status": {"flags": 33599, "velocity_variance": 0.49073636531829834, "pos_horiz_variance": 0.10667228698730469, "pos_vert_variance": 0.04034033790230751}}, "errors": ["PreArm: RC not found", "PreArm: Hardware safety switch", "PreArm: RC not found", "PreArm: Hardware safety switch"]}
{"timestamp": "2026-01-31T13:03:59.946769Z", "telemetry": {"lat": 13.3529584, "lon": 74.8649541, "satellites": 6, "altitude_gps_m": 58.439998626708984, "groundspeed_mps": 5.519080638885498}, "flight": {"mode": "STABILIZE", "armed": false}, "ekf": {"attitude": {"roll": -0.05422753468155861, "pitch": -0.03985350951552391, "yaw": 1.4748401641845703}, "local_position": {"x": 23.7545108795166, "y": 28.344350814819336, "z": -11.736165046691895}, "status": {"flags": 33599, "velocity_variance": 0.89844810962677, "pos_horiz_variance": 0.09592662751674652, "pos_vert_variance": 0.03671152517199516}}, "errors": ["PreArm: RC not found", "PreArm: Hardware safety switch", "PreArm: RC not found", "PreArm: Hardware safety switch"]}
{"timestamp": "2026-01-31T13:04:00.945838Z", "telemetry": {"lat": 13.352997, "lon": 74.8650008, "satellites": 6, "altitude_gps_m": 58.44999694824219, "groundspeed_mps": 5.733951568603516}, "flight": {"mode": "STABILIZE", "armed": false}, "ekf": {"attitude": {"roll": -0.051474764943122864, "pitch": -0.04179292172193527, "yaw": 1.475536823272705}, "local_position": {"x": 28.457677841186523, "y": 32.55486297607422, "z": -11.740480422973633}, "status": {"flags": 33599, "velocity_variance": 0.4372881352901459, "pos_horiz_variance": 0.10099545866250992, "pos_vert_variance": 0.014606673270463943}}, "errors": ["PreArm: RC not found", "PreArm: Hardware safety switch", "PreArm: RC not found", "PreArm: Hardware safety switch"]}
{"timestamp": "2026-01-31T13:04:01.946345Z", "telemetry": {"lat": 13.3530226, "lon": 74.8650437, "satellites": 7, "altitude_gps_m": 58.46999740600586, "groundspeed_mps": 6.080427646636963}, "flight": {"mode": "STABILIZE", "armed": false}, "ekf": {"attitude": {"roll": -0.047405265271663666, "pitch": -0.04496920853853226, "yaw": 1.4764199256896973}, "local_position": {"x": 33.45677185058594, "y": 37.572181701660156, "z": -11.76618766784668}, "status": {"flags": 33599, "velocity_variance": 0.935119092464447, "pos_horiz_variance": 0.08124990016222, "pos_vert_variance": 6.392681098077446e-05}}, "errors": ["PreArm: RC not found", "PreArm: Hardware safety switch", "PreArm: RC not found", "PreArm: Hardware safety switch"]}
{"timestamp": "2026-01-31T13:04:02.946391Z", "telemetry": {"lat": 13.3530104, "lon": 74.8650551, "satellites": 7, "altitude_gps_m": 58.53999710083008, "groundspeed_mps": 6.056668758392334}, "flight": {"mode": "STABILIZE", "armed": false}, "ekf": {"attitude": {"roll": -0.042850591242313385, "pitch": -0.04460921883583069, "yaw": 1.476825475692749}, "local_position": {"x": 36.85341262817383, "y": 41.9912109375, "z": -11.833724975585938}, "status": {"flags": 33599, "velocity_variance": 0.7536613345146179, "pos_horiz_variance": 0.038062337785959244, "pos_vert_variance": 0.017584284767508507}}, "errors": ["PreArm: RC not found", "PreArm: Hardware safety switch", "PreArm: RC not found", "PreArm: Hardware safety switch", "PreArm: RC not found", "PreArm: Hardware safety switch"]}
{"timestamp": "2026-01-31T13:04:03.946356Z", "telemetry": {"lat": 13.3530001, "lon": 74.865065, "satellites": 7, "altitude_gps_m": 58.689998626708984, "groundspeed_mps": 5.4722819328308105}, "flight": {"mode": "STABILIZE", "armed": false}, "ekf": {"attitude": {"roll": -0.032876837998628616, "pitch": -0.04045867174863815, "yaw": 1.4774876832962036}, "local_position": {"x": 38.26601028442383, "y": 45.16670227050781, "z": -11.962312698364258}, "status": {"flags": 33599, "velocity_variance": 0.7256466746330261, "pos_horiz_variance": 0.05457920953631401, "pos_vert_variance": 0.014466485008597374}}, "errors": ["PreArm: RC not found", "PreArm: Hardware safety switch", "PreArm: RC not found", "PreArm: Hardware safety switch", "PreArm: RC not found", "PreArm: Hardware safety switch"]}
{"timestamp": "2026-01-31T13:04:04.946614Z", "telemetry": {"lat": 13.3529867, "lon": 74.8650746, "satellites": 7, "altitude_gps_m": 58.779998779296875, "groundspeed_mps": 5.152095794677734}, "flight": {"mode": "STABILIZE", "armed": false}, "ekf": {"attitude": {"roll": -0.02827087789773941, "pitch": -0.03817341849207878, "yaw": 1.47780442237854}, "local_position": {"x": 39.52670669555664, "y": 47.95681381225586, "z": -12.067696571350098}, "status": {"flags": 33599, "velocity_variance": 1.1533766984939575, "pos_horiz_variance": 0.09427611529827118, "pos_vert_variance": 0.018642937764525414}}, "errors": ["PreArm: RC not found", "PreArm: Hardware safety switch", "PreArm: RC not found", "PreArm: Hardware safety switch", "PreArm: RC not found", "PreArm: Hardware safety switch"]}
{"timestamp": "2026-01-31T13:04:05.946443Z", "telemetry": {"lat": 13.3529626, "lon": 74.8650942, "satellites": 7, "altitude_gps_m": 58.80999755859375, "groundspeed_mps": 5.027982234954834}, "flight": {"mode": "STABILIZE", "armed": false}, "ekf": {"attitude": {"roll": -0.025299763306975365, "pitch": -0.037658561021089554, "yaw": 1.4778844118118286}, "local_position": {"x": 40.73630142211914, "y": 51.24440002441406, "z": -12.101044654846191}, "status": {"flags": 33599, "velocity_variance": 1.1293549537658691, "pos_horiz_variance": 0.14249075949192047, "pos_vert_variance": 0.059955015778541565}}, "errors": ["PreArm: RC not found", "PreArm: Hardware safety switch", "PreArm: RC not found", "PreArm: Hardware safety switch", "PreArm: RC not found", "PreArm: Hardware safety switch"]}
{"timestamp": "2026-01-31T13:04:06.946309Z", "telemetry": {"lat": 13.3529474, "lon": 74.8650948, "satellites": 6, "altitude_gps_m": 58.81999969482422, "groundspeed_mps": 4.512564182281494}, "flight": {"mode": "STABILIZE", "armed": false}, "ekf": {"attitude": {"roll": -0.018227631226181984, "pitch": -0.03303047642111778, "yaw": 1.4785431623458862}, "local_position": {"x": 40.19594955444336, "y": 53.59371566772461, "z": -12.111879348754883}, "status": {"flags": 33599, "velocity_variance": 0.9642162322998047, "pos_horiz_variance": 0.17247618734836578, "pos_vert_variance": 0.02232326753437519}}, "errors": ["PreArm: RC not found", "PreArm: Hardware safety switch", "PreArm: RC not found", "PreArm: Hardware safety switch", "PreArm: RC not found", "PreArm: Hardware safety switch"]}
{"timestamp": "2026-01-31T13:04:07.946414Z", "telemetry": {"lat": 13.3529135, "lon": 74.8650661, "satellites": 7, "altitude_gps_m": 58.619998931884766, "groundspeed_mps": 3.244870901107788}, "flight": {"mode": "STABILIZE", "armed": false}, "ekf": {"attitude": {"roll": -0.007404152303934097, "pitch": -0.022788992151618004, "yaw": 1.4793217182159424}, "local_position": {"x": 37.465824127197266, "y": 53.384193420410156, "z": -11.922797203063965}, "status": {"flags": 33599, "velocity_variance": 1.0426080226898193, "pos_horiz_variance": 0.23802761733531952, "pos_vert_variance": 0.05596897751092911}}, "errors": ["PreArm: RC not found", "PreArm: Hardware safety switch", "PreArm: RC not found", "PreArm: Hardware safety switch", "PreArm: RC not found", "PreArm: Hardware safety switch"]}
{"timestamp": "2026-01-31T13:04:08.946218Z", "telemetry": {"lat": 13.3528797, "lon": 74.8650378, "satellites": 7, "altitude_gps_m": 58.6099967956543, "groundspeed_mps": 2.3836135864257812}, "flight": {"mode": "STABILIZE", "armed": false}, "ekf": {"attitude": {"roll": 0.00015481584705412388, "pitch": -0.014341019093990326, "yaw": 1.4801479578018188}, "local_position": {"x": 32.91483688354492, "y": 51.95234680175781, "z": -11.902419090270996}, "status": {"flags": 33599, "velocity_variance": 0.6160164475440979, "pos_horiz_variance": 0.2526366114616394, "pos_vert_variance": 0.13245727121829987}}, "errors": ["PreArm: RC not found", "PreArm: Hardware safety switch", "PreArm: RC not found", "PreArm: Hardware safety switch", "PreArm: RC not found", "PreArm: Hardware safety switch"]}
{"timestamp": "2026-01-31T13:04:09.946473Z", "telemetry": {"lat": 13.3528542, "lon": 74.8650138, "satellites": 8, "altitude_gps_m": 58.47999954223633, "groundspeed_mps": 1.5696284770965576}, "flight": {"mode": "STABILIZE", "armed": false}, "ekf": {"attitude": {"roll": 0.006941263563930988, "pitch": -0.0036197155714035034, "yaw": 1.4811336994171143}, "local_position": {"x": 28.411235809326172, "y": 49.09746551513672, "z": -11.772896766662598}, "status": {"flags": 33599, "velocity_variance": 0.41111281514167786, "pos_horiz_variance": 0.2431873083114624, "pos_vert_variance": 0.011696873232722282}}, "errors": ["PreArm: RC not found", "PreArm: Hardware safety switch", "PreArm: RC not found", "PreArm: Hardware safety switch", "PreArm: RC not found", "PreArm: Hardware safety switch"]}
{"timestamp": "2026-01-31T13:04:10.946248Z", "telemetry": {"lat": 13.3528298, "lon": 74.8649922, "satellites": 8, "altitude_gps_m": 58.65999984741211, "groundspeed_mps": 1.7906601428985596}, "flight": {"mode": "STABILIZE", "armed": false}, "ekf": {"attitude": {"roll": 0.011663549579679966, "pitch": 0.007850009948015213, "yaw": 1.4822579622268677}, "local_position": {"x": 23.974130630493164, "y": 45.92245101928711, "z": -11.925466537475586}, "status": {"flags": 33599, "velocity_variance": 0.6757278442382812, "pos_horiz_variance": 0.2232036143541336, "pos_vert_variance": 0.09341229498386383}}, "errors": ["PreArm: RC not found", "PreArm: Hardware safety switch", "PreArm: RC not found", "PreArm: Hardware safety switch", "PreArm: RC not found", "PreArm: Hardware safety switch"]}
{"timestamp": "2026-01-31T13:04:11.946370Z", "telemetry": {"lat": 13.3528154, "lon": 74.8649764, "satellites": 7, "altitude_gps_m": 58.66999816894531, "groundspeed_mps": 2.1500160694122314}, "flight": {"mode": "STABILIZE", "armed": false}, "ekf": {"attitude": {"roll": 0.012090369127690792, "pitch": 0.011922221630811691, "yaw": 1.4826171398162842}, "local_position": {"x": 20.651124954223633, "y": 42.94898986816406, "z": -11.964457511901855}, "status": {"flags": 33599, "velocity_variance": 0.5796751379966736, "pos_horiz_variance": 0.19425645470619202, "pos_vert_variance": 0.04432549327611923}}, "errors": ["PreArm: RC not found", "PreArm: Hardware safety switch", "PreArm: RC not found", "PreArm: Hardware safety switch", "PreArm: RC not found", "PreArm: Hardware safety switch"]}
{"timestamp": "2026-01-31T13:04:12.946159Z", "telemetry": {"lat": 13.3527887, "lon": 74.8649573, "satellites": 7, "altitude_gps_m": 58.6099967956543, "groundspeed_mps": 2.9064950942993164}, "flight": {"mode": "STABILIZE", "armed": false}, "ekf": {"attitude": {"roll": 0.014691249467432499, "pitch": 0.016498178243637085, "yaw": 1.482905387878418}, "local_position": {"x": 16.593467712402344, "y": 40.19228744506836, "z": -11.899197578430176}, "status": {"flags": 33599, "velocity_variance": 0.5335865020751953, "pos_horiz_variance": 0.1763465255498886, "pos_vert_variance": 0.09588755667209625}}, "errors": ["PreArm: RC not found", "PreArm: Hardware safety switch", "PreArm: RC not found", "PreArm: Hardware safety switch", "PreArm: RC not found", "PreArm: Hardware safety switch"]}
{"timestamp": "2026-01-31T13:04:13.946147Z", "telemetry": {"lat": 13.352765, "lon": 74.8649404, "satellites": 7, "altitude_gps_m": 58.59000015258789, "groundspeed_mps": 3.7631795406341553}, "flight": {"mode": "STABILIZE", "armed": false}, "ekf": {"attitude": {"roll": 0.015500486828386784, "pitch": 0.020397670567035675, "yaw": 1.4829072952270508}, "local_position": {"x": 12.540239334106445, "y": 37.21186065673828, "z": -11.892510414123535}, "status": {"flags": 33599, "velocity_variance": 0.870766282081604, "pos_horiz_variance": 0.1495223492383957, "pos_vert_variance": 0.03495350480079651}}, "errors": ["PreArm: RC not found", "PreArm: Hardware safety switch", "PreArm: RC not found", "PreArm: Hardware safety switch", "PreArm: RC not found", "PreArm: Hardware safety switch"]}
{"timestamp": "2026-01-31T13:04:14.946226Z", "telemetry": {"lat": 13.3527454, "lon": 74.86493, "satellites": 7, "altitude_gps_m": 58.47999954223633, "groundspeed_mps": 4.663991451263428}, "flight": {"mode": "STABILIZE", "armed": false}, "ekf": {"attitude": {"roll": 0.019352076575160027, "pitch": 0.02476618066430092, "yaw": 1.4828662872314453}, "local_position": {"x": 7.827700138092041, "y": 34.03459167480469, "z": -11.796321868896484}, "status": {"flags": 33599, "velocity_variance": 1.2143255472183228, "pos_horiz_variance": 0.10009613633155823, "pos_vert_variance": 0.004174006171524525}}, "errors": ["PreArm: RC not found", "PreArm: Hardware safety switch", "PreArm: RC not found", "PreArm: Hardware safety switch", "PreArm: RC not found", "PreArm: Hardware safety switch"]}
{"timestamp": "2026-01-31T13:04:15.946381Z", "telemetry": {"lat": 13.3527278, "lon": 74.864926, "satellites": 8, "altitude_gps_m": 58.37999725341797, "groundspeed_mps": 5.312017440795898}, "flight": {"mode": "STABILIZE", "armed": false}, "ekf": {"attitude": {"roll": 0.02131723053753376, "pitch": 0.027405913919210434, "yaw": 1.4828134775161743}, "local_position": {"x": 2.740565776824951, "y": 30.660888671875, "z": -11.672821998596191}, "status": {"flags": 33599, "velocity_variance": 1.1062049865722656, "pos_horiz_variance": 0.03487509489059448, "pos_vert_variance": 0.06917853653430939}}, "errors": ["PreArm: RC not found", "PreArm: Hardware safety switch", "PreArm: RC not found", "PreArm: Hardware safety switch", "PreArm: RC not found", "PreArm: Hardware safety switch"]}
