{"timestamp": "2026-01-31T09:49:24.970940Z", "telemetry": {"lat": 13.3452038, "lon": 74.7941352, "satellites": 6, "altitude_gps_m": 86.1500015258789, "groundspeed_mps": 0.03232135251164436}, "flight": {"mode": "STABILIZE", "armed": false}, "ekf": {"attitude": {"roll": -0.015329547226428986, "pitch": -0.02183554507791996, "yaw": 2.6462953090667725}, "local_position": {"x": null, "y": null, "z": null}, "status": {"flags": 135, "velocity_variance": 0.0, "pos_horiz_variance": 0.004582366440445185, "pos_vert_variance": 0.004576000384986401}}, "errors": []}
{"timestamp": "2026-01-31T09:49:25.945783Z", "telemetry": {"lat": 13.3452092, "lon": 74.7941427, "satellites": 6, "altitude_gps_m": 86.31999969482422, "groundspeed_mps": 0.04186619818210602}, "flight": {"mode": "STABILIZE", "armed": false}, "ekf": {"attitude": {"roll": -0.015233428217470646, "pitch": -0.022254766896367073, "yaw": 2.646244525909424}, "local_position": {"x": null, "y": null, "z": null}, "status": {"flags": 135, "velocity_variance": 0.0, "pos_horiz_variance": 0.006420739460736513, "pos_vert_variance": 0.05949833616614342}}, "errors": ["u-blox 1 HW: 00070000 SW: 1.00 (59842)"]}
{"timestamp": "2026-01-31T09:49:26.943472Z", "telemetry": {"lat": 13.3452149, "lon": 74.7941517, "satellites": 6, "altitude_gps_m": 86.94999694824219, "groundspeed_mps": 0.04513274133205414}, "flight": {"mode": "STABILIZE", "armed": false}, "ekf": {"attitude": {"roll": -0.015060385689139366, "pitch": -0.022653723135590553, "yaw": 2.645717144012451}, "local_position": {"x": null, "y": null, "z": null}, "status": {"flags": 135, "velocity_variance": 0.0, "pos_horiz_variance": 0.008046796545386314, "pos_vert_variance": 0.07524406164884567}}, "errors": ["u-blox 1 HW: 00070000 SW: 1.00 (59842)"]}
{"timestamp": "2026-01-31T09:49:27.943705Z", "telemetry": {"lat": 13.3452189, "lon": 74.7941578, "satellites": 6, "altitude_gps_m": 87.37999725341797, "groundspeed_mps": 0.05537746474146843}, "flight": {"mode": "STABILIZE", "armed": false}, "ekf": {"attitude": {"roll": -0.014742481522262096, "pitch": -0.022753771394491196, "yaw": 2.6445393562316895}, "local_position": {"x": null, "y": null, "z": null}, "status": {"flags": 135, "velocity_variance": 0.0, "pos_horiz_variance": 0.009861594997346401, "pos_vert_variance": 0.014787026681005955}}, "errors": ["u-blox 1 HW: 00070000 SW: 1.00 (59842)"]}
{"timestamp": "2026-01-31T09:49:28.944282Z", "telemetry": {"lat": 13.34522, "lon": 74.79416, "satellites": 6, "altitude_gps_m": 87.08999633789062, "groundspeed_mps": 0.06228550523519516}, "flight": {"mode": "STABILIZE", "armed": false}, "ekf": {"attitude": {"roll": -0.014496397227048874, "pitch": -0.023116739466786385, "yaw": 2.6442673206329346}, "local_position": {"x": null, "y": null, "z": null}, "status": {"flags": 135, "velocity_variance": 0.0, "pos_horiz_variance": 0.011800759471952915, "pos_vert_variance": 0.029879210516810417}}, "errors": ["u-blox 1 HW: 00070000 SW: 1.00 (59842)"]}
{"timestamp": "2026-01-31T09:49:29.943870Z", "telemetry": {"lat": 13.3452247, "lon": 74.7941671, "satellites": 6, "altitude_gps_m": 87.15999603271484, "groundspeed_mps": 0.06873460114002228}, "flight": {"mode": "STABILIZE", "armed": false}, "ekf": {"attitude": {"roll": -0.014445689506828785, "pitch": -0.023550737649202347, "yaw": 2.6443495750427246}, "local_position": {"x": null, "y": null, "z": null}, "status": {"flags": 135, "velocity_variance": 0.0, "pos_horiz_variance": 0.013874399475753307, "pos_vert_variance": 0.022723766043782234}}, "errors": ["u-blox 1 HW: 00070000 SW: 1.00 (59842)"]}
{"timestamp": "2026-01-31T09:49:30.944006Z", "telemetry": {"lat": 13.345226, "lon": 74.7941672, "satellites": 5, "altitude_gps_m": 86.77999877929688, "groundspeed_mps": 0.0801195427775383}, "flight": {"mode": "STABILIZE", "armed": false}, "ekf": {"attitude": {"roll": -0.014495326206088066, "pitch": -0.02393116056919098, "yaw": 2.64410662651062}, "local_position": {"x": null, "y": null, "z": null}, "status": {"flags": 135, "velocity_variance": 0.0, "pos_horiz_variance": 0.01637384295463562, "pos_vert_variance": 0.004076201003044844}}, "errors": ["u-blox 1 HW: 00070000 SW: 1.00 (59842)"]}
{"timestamp": "2026-01-31T09:49:31.943910Z", "telemetry": {"lat": 13.3452281, "lon": 74.7941706, "satellites": 6, "altitude_gps_m": 86.52999877929688, "groundspeed_mps": 0.0896599218249321}, "flight": {"mode": "STABILIZE", "armed": false}, "ekf": {"attitude": {"roll": -0.014634006656706333, "pitch": -0.02434607967734337, "yaw": 2.644479990005493}, "local_position": {"x": null, "y": null, "z": null}, "status": {"flags": 135, "velocity_variance": 0.0, "pos_horiz_variance": 0.018555834889411926, "pos_vert_variance": 0.035792719572782516}}, "errors": ["u-blox 1 HW: 00070000 SW: 1.00 (59842)"]}
{"timestamp": "2026-01-31T09:49:32.943657Z", "telemetry": {"lat": 13.3452264, "lon": 74.794168, "satellites": 5, "altitude_gps_m": 86.25, "groundspeed_mps": 0.1053822860121727}, "flight": {"mode": "STABILIZE", "armed": false}, "ekf": {"attitude": {"roll": -0.014737489633262157, "pitch": -0.024888169020414352, "yaw": 2.6449010372161865}, "local_position": {"x": null, "y": null, "z": null}, "status": {"flags": 135, "velocity_variance": 0.0, "pos_horiz_variance": 0.02236161194741726, "pos_vert_variance": 0.019829196855425835}}, "errors": ["u-blox 1 HW: 00070000 SW: 1.00 (59842)"]}
{"timestamp": "2026-01-31T09:49:33.943567Z", "telemetry": {"lat": 13.3452265, "lon": 74.7941672, "satellites": 5, "altitude_gps_m": 86.22000122070312, "groundspeed_mps": 0.11699420213699341}, "flight": {"mode": "STABILIZE", "armed": false}, "ekf": {"attitude": {"roll": -0.014874530956149101, "pitch": -0.025363676249980927, "yaw": 2.6451733112335205}, "local_position": {"x": null, "y": null, "z": null}, "status": {"flags": 135, "velocity_variance": 0.0, "pos_horiz_variance": 0.02590985596179962, "pos_vert_variance": 0.023002343252301216}}, "errors": ["u-blox 1 HW: 00070000 SW: 1.00 (59842)", "PreArm: RC not found", "PreArm: Hardware safety switch", "PreArm: Compasses inconsistent"]}
{"timestamp": "2026-01-31T09:49:34.943722Z", "telemetry": {"lat": 13.3452258, "lon": 74.7941655, "satellites": 5, "altitude_gps_m": 86.05999755859375, "groundspeed_mps": 0.1279604136943817}, "flight": {"mode": "STABILIZE", "armed": false}, "ekf": {"attitude": {"roll": -0.014826009050011635, "pitch": -0.02567852847278118, "yaw": 2.645296096801758}, "local_position": {"x": null, "y": null, "z": null}, "status": {"flags": 135, "velocity_variance": 0.0, "pos_horiz_variance": 0.02885092794895172, "pos_vert_variance": 0.031305912882089615}}, "errors": ["u-blox 1 HW: 00070000 SW: 1.00 (59842)", "PreArm: RC not found", "PreArm: Hardware safety switch", "PreArm: Compasses inconsistent"]}
{"timestamp": "2026-01-31T09:49:35.943646Z", "telemetry": {"lat": 13.3452278, "lon": 74.794166, "satellites": 5, "altitude_gps_m": 85.63999938964844, "groundspeed_mps": 0.14025363326072693}, "flight": {"mode": "STABILIZE", "armed": false}, "ekf": {"attitude": {"roll": -0.014650976285338402, "pitch": -0.026218794286251068, "yaw": 2.645639181137085}, "local_position": {"x": null, "y": null, "z": null}, "status": {"flags": 135, "velocity_variance": 0.0, "pos_horiz_variance": 0.03238505870103836, "pos_vert_variance": 0.00949692353606224}}, "errors": ["u-blox 1 HW: 00070000 SW: 1.00 (59842)", "PreArm: RC not found", "PreArm: Hardware safety switch", "PreArm: Compasses inconsistent"]}
{"timestamp": "2026-01-31T09:49:36.943981Z", "telemetry": {"lat": 13.3452286, "lon": 74.794166, "satellites": 5, "altitude_gps_m": 85.2699966430664, "groundspeed_mps": 0.15015755593776703}, "flight": {"mode": "STABILIZE", "armed": false}, "ekf": {"attitude": {"roll": -0.014392651617527008, "pitch": -0.026736900210380554, "yaw": 2.6456074714660645}, "local_position": {"x": null, "y": null, "z": null}, "status": {"flags": 135, "velocity_variance": 0.0, "pos_horiz_variance": 0.03610910475254059, "pos_vert_variance": 0.04466283693909645}}, "errors": ["u-blox 1 HW: 00070000 SW: 1.00 (59842)", "PreArm: RC not found", "PreArm: Hardware safety switch", "PreArm: Compasses inconsistent"]}
{"timestamp": "2026-01-31T09:49:37.943628Z", "telemetry": {"lat": 13.3452302, "lon": 74.7941671, "satellites": 6, "altitude_gps_m": 85.1500015258789, "groundspeed_mps": 0.16048170626163483}, "flight": {"mode": "STABILIZE", "armed": false}, "ekf": {"attitude": {"roll": -0.01438044011592865, "pitch": -0.027151579037308693, "yaw": 2.645359516143799}, "local_position": {"x": null, "y": null, "z": null}, "status": {"flags": 135, "velocity_variance": 0.0, "pos_horiz_variance": 0.0392693467438221, "pos_vert_variance": 0.01912027783691883}}, "errors": ["u-blox 1 HW: 00070000 SW: 1.00 (59842)", "PreArm: RC not found", "PreArm: Hardware safety switch", "PreArm: Compasses inconsistent"]}
{"timestamp": "2026-01-31T09:49:38.943954Z", "telemetry": {"lat": 13.3452331, "lon": 74.7941689, "satellites": 6, "altitude_gps_m": 85.06999969482422, "groundspeed_mps": 0.16801100969314575}, "flight": {"mode": "STABILIZE", "armed": false}, "ekf": {"attitude": {"roll": -0.014579775743186474, "pitch": -0.027495700865983963, "yaw": 2.6453804969787598}, "local_position": {"x": null, "y": null, "z": null}, "status": {"flags": 135, "velocity_variance": 0.0, "pos_horiz_variance": 0.04217589274048805, "pos_vert_variance": 0.04245505481958389}}, "errors": ["u-blox 1 HW: 00070000 SW: 1.00 (59842)", "PreArm: RC not found", "PreArm: Hardware safety switch", "PreArm: Compasses inconsistent"]}
{"timestamp": "2026-01-31T09:49:39.944290Z", "telemetry": {"lat": 13.3452344, "lon": 74.7941688, "satellites": 6, "altitude_gps_m": 84.75999450683594, "groundspeed_mps": 0.17740291357040405}, "flight": {"mode": "STABILIZE", "armed": false}, "ekf": {"attitude": {"roll": -0.01463866326957941, "pitch": -0.027790548279881477, "yaw": 2.645472526550293}, "local_position": {"x": null, "y": null, "z": null}, "status": {"flags": 135, "velocity_variance": 0.0, "pos_horiz_variance": 0.04479875788092613, "pos_vert_variance": 0.06737400591373444}}, "errors": ["u-blox 1 HW: 00070000 SW: 1.00 (59842)", "PreArm: RC not found", "PreArm: Hardware safety switch", "PreArm: Compasses inconsistent"]}
{"timestamp": "2026-01-31T09:49:40.943586Z", "telemetry": {"lat": 13.3452336, "lon": 74.7941681, "satellites": 6, "altitude_gps_m": 84.54000091552734, "groundspeed_mps": 0.18628111481666565}, "flight": {"mode": "STABILIZE", "armed": false}, "ekf": {"attitude": {"roll": -0.014645264483988285, "pitch": -0.028019823133945465, "yaw": 2.645702838897705}, "local_position": {"x": null, "y": null, "z": null}, "status": {"flags": 135, "velocity_variance": 0.0, "pos_horiz_variance": 0.047665584832429886, "pos_vert_variance": 0.07066448032855988}}, "errors": ["u-blox 1 HW: 00070000 SW: 1.00 (59842)", "PreArm: RC not found", "PreArm: Hardware safety switch", "PreArm: Compasses inconsistent"]}
{"timestamp": "2026-01-31T09:49:41.943617Z", "telemetry": {"lat": 13.3452336, "lon": 74.7941676, "satellites": 6, "altitude_gps_m": 84.44999694824219, "groundspeed_mps": 0.19468821585178375}, "flight": {"mode": "STABILIZE", "armed": false}, "ekf": {"attitude": {"roll": -0.014505580998957157, "pitch": -0.028384819626808167, "yaw": 2.6458380222320557}, "local_position": {"x": null, "y": null, "z": null}, "status": {"flags": 135, "velocity_variance": 0.0, "pos_horiz_variance": 0.05031344294548035, "pos_vert_variance": 0.08575709909200668}}, "errors": ["u-blox 1 HW: 00070000 SW: 1.00 (59842)", "PreArm: RC not found", "PreArm: Hardware safety switch", "PreArm: Compasses inconsistent"]}
{"timestamp": "2026-01-31T09:49:42.943872Z", "telemetry": {"lat": 13.3452324, "lon": 74.794165, "satellites": 5, "altitude_gps_m": 84.18999481201172, "groundspeed_mps": 0.20194022357463837}, "flight": {"mode": "STABILIZE", "armed": false}, "ekf": {"attitude": {"roll": -0.014576929621398449, "pitch": -0.02864164300262928, "yaw": 2.6458334922790527}, "local_position": {"x": null, "y": null, "z": null}, "status": {"flags": 135, "velocity_variance": 0.0, "pos_horiz_variance": 0.052762195467948914, "pos_vert_variance": 0.02242407202720642}}, "errors": ["u-blox 1 HW: 00070000 SW: 1.00 (59842)", "PreArm: RC not found", "PreArm: Hardware safety switch", "PreArm: Compasses inconsistent"]}
{"timestamp": "2026-01-31T09:49:43.943775Z", "telemetry": {"lat": 13.3452294, "lon": 74.7941601, "satellites": 5, "altitude_gps_m": 83.75, "groundspeed_mps": 0.20954059064388275}, "flight": {"mode": "STABILIZE", "armed": false}, "ekf": {"attitude": {"roll": -0.0146287577226758, "pitch": -0.028843875974416733, "yaw": 2.6459028720855713}, "local_position": {"x": null, "y": null, "z": null}, "status": {"flags": 135, "velocity_variance": 0.0, "pos_horiz_variance": 0.05492761731147766, "pos_vert_variance": 0.04194650799036026}}, "errors": ["u-blox 1 HW: 00070000 SW: 1.00 (59842)", "PreArm: RC not found", "PreArm: Hardware safety switch", "PreArm: Compasses inconsistent"]}
{"timestamp": "2026-01-31T09:49:44.943673Z", "telemetry": {"lat": 13.3452283, "lon": 74.7941591, "satellites": 5, "altitude_gps_m": 83.69999694824219, "groundspeed_mps": 0.2158445566892624}, "flight": {"mode": "STABILIZE", "armed": false}, "ekf": {"attitude": {"roll": -0.01462817844003439, "pitch": -0.029073145240545273, "yaw": 2.646181106567383}, "local_position": {"x": null, "y": null, "z": null}, "status": {"flags": 135, "velocity_variance": 0.0, "pos_horiz_variance": 0.05701395496726036, "pos_vert_variance": 0.052161697298288345}}, "errors": ["u-blox 1 HW: 00070000 SW: 1.00 (59842)", "PreArm: RC not found", "PreArm: Hardware safety switch", "PreArm: Compasses inconsistent"]}
{"timestamp": "2026-01-31T09:49:45.943773Z", "telemetry": {"lat": 13.3452306, "lon": 74.7941644, "satellites": 6, "altitude_gps_m": 84.3499984741211, "groundspeed_mps": 0.22149613499641418}, "flight": {"mode": "STABILIZE", "armed": false}, "ekf": {"attitude": {"roll": -0.014607439748942852, "pitch": -0.029237190261483192, "yaw": 2.6466782093048096}, "local_position": {"x": null, "y": null, "z": null}, "status": {"flags": 135, "velocity_variance": 0.0, "pos_horiz_variance": 0.05909405276179314, "pos_vert_variance": 0.08740904927253723}}, "errors": ["u-blox 1 HW: 00070000 SW: 1.00 (59842)", "PreArm: RC not found", "PreArm: Hardware safety switch", "PreArm: Compasses inconsistent"]}
{"timestamp": "2026-01-31T09:49:46.943864Z", "telemetry": {"lat": 13.3452365, "lon": 74.7941724, "satellites": 6, "altitude_gps_m": 85.19999694824219, "groundspeed_mps": 0.22490142285823822}, "flight": {"mode": "STABILIZE", "armed": false}, "ekf": {"attitude": {"roll": -0.014668900519609451, "pitch": -0.029428688809275627, "yaw": 2.6468939781188965}, "local_position": {"x": null, "y": null, "z": null}, "status": {"flags": 135, "velocity_variance": 0.0, "pos_horiz_variance": 0.06076942756772041, "pos_vert_variance": 0.032864004373550415}}, "errors": ["u-blox 1 HW: 00070000 SW: 1.00 (59842)", "PreArm: RC not found", "PreArm: Hardware safety switch", "PreArm: Compasses inconsistent"]}
