{"timestamp": "2026-01-31T07:41:16.853821Z", "telemetry": {"lat": 13.3546825, "lon": 74.8649627, "satellites": 13, "altitude_gps_m": 39.13999938964844, "groundspeed_mps": 0.4899502098560333}, "flight": {"mode": "LOITER", "armed": false}, "ekf": {"attitude": {"roll": 0.025706905871629715, "pitch": -0.014973068609833717, "yaw": 2.9084794521331787}, "local_position": {"x": 8.585355758666992, "y": -9.560275077819824, "z": -1.1779299974441528}, "status": {"flags": 831, "velocity_variance": 0.20402681827545166, "pos_horiz_variance": 0.045669764280319214, "pos_vert_variance": 0.07060809433460236}}, "errors": []}
{"timestamp": "2026-01-31T07:41:17.819039Z", "telemetry": {"lat": 13.3546823, "lon": 74.8649624, "satellites": 13, "altitude_gps_m": 39.20000076293945, "groundspeed_mps": 0.47874516248703003}, "flight": {"mode": "LOITER", "armed": false}, "ekf": {"attitude": {"roll": 0.02854914963245392, "pitch": -0.013954093679785728, "yaw": 2.909001350402832}, "local_position": {"x": 8.67092227935791, "y": -9.550960540771484, "z": -1.2416354417800903}, "status": {"flags": 831, "velocity_variance": 0.15714408457279205, "pos_horiz_variance": 0.037344612181186676, "pos_vert_variance": 0.07723888754844666}}, "errors": []}
{"timestamp": "2026-01-31T07:41:18.747428Z", "telemetry": {"lat": 13.3546821, "lon": 74.8649635, "satellites": 13, "altitude_gps_m": 39.30999755859375, "groundspeed_mps": 0.4884876012802124}, "flight": {"mode": "LOITER", "armed": false}, "ekf": {"attitude": {"roll": 0.029414042830467224, "pitch": -0.013208411633968353, "yaw": 2.909142017364502}, "local_position": {"x": 8.71041488647461, "y": -9.51091194152832, "z": -1.3560595512390137}, "status": {"flags": 831, "velocity_variance": 0.18931467831134796, "pos_horiz_variance": 0.03529220074415207, "pos_vert_variance": 0.06704504042863846}}, "errors": ["Arm: Gyros inconsistent", "Arm: Compasses inconsistent"]}
{"timestamp": "2026-01-31T07:41:19.700601Z", "telemetry": {"lat": 13.3546818, "lon": 74.8649637, "satellites": 13, "altitude_gps_m": 39.37999725341797, "groundspeed_mps": 0.5030108690261841}, "flight": {"mode": "LOITER", "armed": false}, "ekf": {"attitude": {"roll": 0.030724111944437027, "pitch": -0.012426836416125298, "yaw": 2.909029722213745}, "local_position": {"x": 8.715559005737305, "y": -9.467236518859863, "z": -1.424493670463562}, "status": {"flags": 831, "velocity_variance": 0.1687716543674469, "pos_horiz_variance": 0.03125332295894623, "pos_vert_variance": 0.06902162730693817}}, "errors": ["Arm: Gyros inconsistent", "Arm: Compasses inconsistent"]}
{"timestamp": "2026-01-31T07:41:20.698763Z", "telemetry": {"lat": 13.354682, "lon": 74.8649641, "satellites": 13, "altitude_gps_m": 39.47999954223633, "groundspeed_mps": 0.4944760501384735}, "flight": {"mode": "LOITER", "armed": false}, "ekf": {"attitude": {"roll": 0.030499625951051712, "pitch": -0.011165956035256386, "yaw": 2.908583164215088}, "local_position": {"x": 8.732259750366211, "y": -9.422001838684082, "z": -1.5310481786727905}, "status": {"flags": 831, "velocity_variance": 0.2822583317756653, "pos_horiz_variance": 0.032996296882629395, "pos_vert_variance": 0.05763823166489601}}, "errors": ["Arm: Gyros inconsistent", "Arm: Compasses inconsistent"]}
{"timestamp": "2026-01-31T07:41:21.698844Z", "telemetry": {"lat": 13.3546822, "lon": 74.8649635, "satellites": 13, "altitude_gps_m": 39.47999954223633, "groundspeed_mps": 0.519284188747406}, "flight": {"mode": "LOITER", "armed": false}, "ekf": {"attitude": {"roll": 0.031707003712654114, "pitch": -0.010600054636597633, "yaw": 2.908399820327759}, "local_position": {"x": 8.749547958374023, "y": -9.441060066223145, "z": -1.5384777784347534}, "status": {"flags": 831, "velocity_variance": 0.19954848289489746, "pos_horiz_variance": 0.030959410592913628, "pos_vert_variance": 0.04172883927822113}}, "errors": ["Arm: Gyros inconsistent", "Arm: Compasses inconsistent"]}
{"timestamp": "2026-01-31T07:41:22.699449Z", "telemetry": {"lat": 13.3546822, "lon": 74.8649635, "satellites": 13, "altitude_gps_m": 39.439998626708984, "groundspeed_mps": 0.5442136526107788}, "flight": {"mode": "LOITER", "armed": false}, "ekf": {"attitude": {"roll": 0.031957630068063736, "pitch": -0.01068020798265934, "yaw": 2.908160448074341}, "local_position": {"x": 8.731362342834473, "y": -9.497244834899902, "z": -1.507125973701477}, "status": {"flags": 831, "velocity_variance": 0.19954848289489746, "pos_horiz_variance": 0.030959410592913628, "pos_vert_variance": 0.04172883927822113}}, "errors": ["Arm: Gyros inconsistent", "Arm: Compasses inconsistent"]}
{"timestamp": "2026-01-31T07:41:23.698868Z", "telemetry": {"lat": 13.354682, "lon": 74.8649628, "satellites": 13, "altitude_gps_m": 39.75, "groundspeed_mps": 1.0491008758544922}, "flight": {"mode": "LOITER", "armed": false}, "ekf": {"attitude": {"roll": 0.1721116602420807, "pitch": -0.4451681673526764, "yaw": -3.0271382331848145}, "local_position": {"x": 8.60683822631836, "y": -9.768024444580078, "z": -1.6050409078598022}, "status": {"flags": 831, "velocity_variance": 0.1944095939397812, "pos_horiz_variance": 0.037400756031274796, "pos_vert_variance": 0.04140480235219002}}, "errors": ["Arm: Gyros inconsistent", "Arm: Compasses inconsistent"]}
{"timestamp": "2026-01-31T07:41:24.702468Z", "telemetry": {"lat": 13.35468, "lon": 74.8649625, "satellites": 13, "altitude_gps_m": 39.939998626708984, "groundspeed_mps": 0.5970752835273743}, "flight": {"mode": "LOITER", "armed": false}, "ekf": {"attitude": {"roll": 2.920975923538208, "pitch": -1.0323617458343506, "yaw": -0.4330788254737854}, "local_position": {"x": 8.393877983093262, "y": -9.692461967468262, "z": -2.1228926181793213}, "status": {"flags": 831, "velocity_variance": 0.2658374011516571, "pos_horiz_variance": 0.04499957710504532, "pos_vert_variance": 0.04339034482836723}}, "errors": ["Arm: Gyros inconsistent", "Arm: Compasses inconsistent"]}
{"timestamp": "2026-01-31T07:41:25.699798Z", "telemetry": {"lat": 13.3546803, "lon": 74.864967, "satellites": 13, "altitude_gps_m": 40.30999755859375, "groundspeed_mps": 1.8544306755065918}, "flight": {"mode": "LOITER", "armed": false}, "ekf": {"attitude": {"roll": 1.8335613012313843, "pitch": -0.3042786419391632, "yaw": 2.2370195388793945}, "local_position": {"x": 8.221506118774414, "y": -9.574629783630371, "z": -2.4917633533477783}, "status": {"flags": 831, "velocity_variance": 0.23615767061710358, "pos_horiz_variance": 0.04710875451564789, "pos_vert_variance": 0.042875345796346664}}, "errors": ["Arm: Gyros inconsistent", "Arm: Compasses inconsistent"]}
{"timestamp": "2026-01-31T07:41:26.698651Z", "telemetry": {"lat": 13.3546821, "lon": 74.8649581, "satellites": 13, "altitude_gps_m": 40.439998626708984, "groundspeed_mps": 1.572455883026123}, "flight": {"mode": "LOITER", "armed": false}, "ekf": {"attitude": {"roll": -1.1874127388000488, "pitch": -0.3952903151512146, "yaw": -1.4527201652526855}, "local_position": {"x": 8.227612495422363, "y": -10.563358306884766, "z": -2.542393445968628}, "status": {"flags": 831, "velocity_variance": 0.3692236542701721, "pos_horiz_variance": 0.06341277807950974, "pos_vert_variance": 0.028535882011055946}}, "errors": ["Arm: Gyros inconsistent", "Arm: Compasses inconsistent"]}
{"timestamp": "2026-01-31T07:41:27.699053Z", "telemetry": {"lat": 13.3546777, "lon": 74.8649636, "satellites": 13, "altitude_gps_m": 40.369998931884766, "groundspeed_mps": 1.4515258073806763}, "flight": {"mode": "LOITER", "armed": false}, "ekf": {"attitude": {"roll": 1.4081637859344482, "pitch": -0.6416349411010742, "yaw": 1.1801910400390625}, "local_position": {"x": 7.787567615509033, "y": -9.761713981628418, "z": -2.1652145385742188}, "status": {"flags": 831, "velocity_variance": 0.26621198654174805, "pos_horiz_variance": 0.06592046469449997, "pos_vert_variance": 0.05329877883195877}}, "errors": ["Arm: Gyros inconsistent", "Arm: Compasses inconsistent"]}
{"timestamp": "2026-01-31T07:41:28.699339Z", "telemetry": {"lat": 13.3546769, "lon": 74.8649636, "satellites": 13, "altitude_gps_m": 40.20000076293945, "groundspeed_mps": 0.8919600248336792}, "flight": {"mode": "LOITER", "armed": false}, "ekf": {"attitude": {"roll": -1.4319939613342285, "pitch": -1.1775527000427246, "yaw": -0.3610152304172516}, "local_position": {"x": 7.955684185028076, "y": -10.21255111694336, "z": -2.099149465560913}, "status": {"flags": 831, "velocity_variance": 0.2833036184310913, "pos_horiz_variance": 0.06652186810970306, "pos_vert_variance": 0.021763481199741364}}, "errors": ["Arm: Gyros inconsistent", "Arm: Compasses inconsistent"]}
{"timestamp": "2026-01-31T07:41:29.698413Z", "telemetry": {"lat": 13.3546782, "lon": 74.8649621, "satellites": 13, "altitude_gps_m": 40.439998626708984, "groundspeed_mps": 0.45390382409095764}, "flight": {"mode": "LOITER", "armed": false}, "ekf": {"attitude": {"roll": -0.29688385128974915, "pitch": 0.3103255331516266, "yaw": -2.637650966644287}, "local_position": {"x": 7.805452823638916, "y": -10.088615417480469, "z": -2.4679746627807617}, "status": {"flags": 831, "velocity_variance": 0.3639508783817291, "pos_horiz_variance": 0.07087654620409012, "pos_vert_variance": 0.021200845018029213}}, "errors": ["Arm: Gyros inconsistent", "Arm: Compasses inconsistent"]}
{"timestamp": "2026-01-31T07:41:30.698827Z", "telemetry": {"lat": 13.3546802, "lon": 74.8649643, "satellites": 13, "altitude_gps_m": 40.45000076293945, "groundspeed_mps": 0.7292594909667969}, "flight": {"mode": "LOITER", "armed": false}, "ekf": {"attitude": {"roll": 0.6485209465026855, "pitch": 0.018219105899333954, "yaw": 3.0243139266967773}, "local_position": {"x": 8.159690856933594, "y": -9.702186584472656, "z": -2.5551984310150146}, "status": {"flags": 831, "velocity_variance": 0.038598377257585526, "pos_horiz_variance": 0.060717809945344925, "pos_vert_variance": 0.021790649741888046}}, "errors": ["Arm: Gyros inconsistent", "Arm: Compasses inconsistent"]}
{"timestamp": "2026-01-31T07:41:31.698356Z", "telemetry": {"lat": 13.3546817, "lon": 74.8649619, "satellites": 12, "altitude_gps_m": 40.14999771118164, "groundspeed_mps": 0.316415399312973}, "flight": {"mode": "LOITER", "armed": false}, "ekf": {"attitude": {"roll": -0.4190935790538788, "pitch": 0.22080087661743164, "yaw": -3.1003615856170654}, "local_position": {"x": 8.408690452575684, "y": -9.416338920593262, "z": -2.1108055114746094}, "status": {"flags": 831, "velocity_variance": 0.13039009273052216, "pos_horiz_variance": 0.057526469230651855, "pos_vert_variance": 0.01897554099559784}}, "errors": ["Arm: Gyros inconsistent", "Arm: Compasses inconsistent", "Arm: Gyros inconsistent", "Arm: Compasses inconsistent", "Arm: AHRS: EKF3 Roll/Pitch inconsistent 12 deg. Wa", "it or reboot", "PreArm: Gyros inconsistent", "PreArm: Compasses inconsistent", "PreArm: AHRS: EKF3 Roll/Pitch inconsistent 12 deg.", " Wait or reboot"]}
{"timestamp": "2026-01-31T07:41:32.698808Z", "telemetry": {"lat": 13.3546846, "lon": 74.8649594, "satellites": 12, "altitude_gps_m": 40.07999801635742, "groundspeed_mps": 0.5204057097434998}, "flight": {"mode": "LOITER", "armed": false}, "ekf": {"attitude": {"roll": -1.3400390148162842, "pitch": 0.0980234295129776, "yaw": -2.4683139324188232}, "local_position": {"x": 8.747623443603516, "y": -9.718390464782715, "z": -2.2888290882110596}, "status": {"flags": 831, "velocity_variance": 0.1615179032087326, "pos_horiz_variance": 0.04634910821914673, "pos_vert_variance": 0.04171205312013626}}, "errors": ["Arm: Gyros inconsistent", "Arm: Compasses inconsistent", "Arm: Gyros inconsistent", "Arm: Compasses inconsistent", "Arm: AHRS: EKF3 Roll/Pitch inconsistent 12 deg. Wa", "it or reboot", "PreArm: Gyros inconsistent", "PreArm: Compasses inconsistent", "PreArm: AHRS: EKF3 Roll/Pitch inconsistent 12 deg.", " Wait or reboot"]}
{"timestamp": "2026-01-31T07:41:33.699405Z", "telemetry": {"lat": 13.3546834, "lon": 74.8649615, "satellites": 13, "altitude_gps_m": 39.89999771118164, "groundspeed_mps": 0.3160915672779083}, "flight": {"mode": "LOITER", "armed": false}, "ekf": {"attitude": {"roll": -0.27303364872932434, "pitch": -0.0586995929479599, "yaw": -1.4441481828689575}, "local_position": {"x": 8.77855110168457, "y": -9.588302612304688, "z": -1.9807729721069336}, "status": {"flags": 831, "velocity_variance": 0.14353808760643005, "pos_horiz_variance": 0.03825011104345322, "pos_vert_variance": 0.027123339474201202}}, "errors": ["Arm: Gyros inconsistent", "Arm: Compasses inconsistent", "Arm: Gyros inconsistent", "Arm: Compasses inconsistent", "Arm: AHRS: EKF3 Roll/Pitch inconsistent 12 deg. Wa", "it or reboot", "PreArm: Gyros inconsistent", "PreArm: Compasses inconsistent", "PreArm: AHRS: EKF3 Roll/Pitch inconsistent 12 deg.", " Wait or reboot"]}
{"timestamp": "2026-01-31T07:41:34.699091Z", "telemetry": {"lat": 13.354686, "lon": 74.8649598, "satellites": 13, "altitude_gps_m": 39.91999816894531, "groundspeed_mps": 0.1643705666065216}, "flight": {"mode": "LOITER", "armed": false}, "ekf": {"attitude": {"roll": 0.0006589866243302822, "pitch": 0.024525616317987442, "yaw": -1.3589962720870972}, "local_position": {"x": 9.081876754760742, "y": -9.767669677734375, "z": -1.9660638570785522}, "status": {"flags": 831, "velocity_variance": 0.05585133284330368, "pos_horiz_variance": 0.03578144311904907, "pos_vert_variance": 0.032278671860694885}}, "errors": ["Arm: Gyros inconsistent", "Arm: Compasses inconsistent", "Arm: Gyros inconsistent", "Arm: Compasses inconsistent", "Arm: AHRS: EKF3 Roll/Pitch inconsistent 12 deg. Wa", "it or reboot", "PreArm: Gyros inconsistent", "PreArm: Compasses inconsistent", "PreArm: AHRS: EKF3 Roll/Pitch inconsistent 12 deg.", " Wait or reboot"]}
{"timestamp": "2026-01-31T07:41:35.698630Z", "telemetry": {"lat": 13.3546874, "lon": 74.8649609, "satellites": 13, "altitude_gps_m": 39.82999801635742, "groundspeed_mps": 0.1636885553598404}, "flight": {"mode": "LOITER", "armed": false}, "ekf": {"attitude": {"roll": -0.16280212998390198, "pitch": 0.009993672370910645, "yaw": -1.6135765314102173}, "local_position": {"x": 9.18934154510498, "y": -9.834808349609375, "z": -1.8729350566864014}, "status": {"flags": 831, "velocity_variance": 0.05611873045563698, "pos_horiz_variance": 0.04254178702831268, "pos_vert_variance": 0.04407287389039993}}, "errors": ["Arm: Gyros inconsistent", "Arm: Compasses inconsistent", "Arm: Gyros inconsistent", "Arm: Compasses inconsistent", "Arm: AHRS: EKF3 Roll/Pitch inconsistent 12 deg. Wa", "it or reboot", "PreArm: Gyros inconsistent", "PreArm: Compasses inconsistent", "PreArm: AHRS: EKF3 Roll/Pitch inconsistent 12 deg.", " Wait or reboot"]}
{"timestamp": "2026-01-31T07:41:36.699285Z", "telemetry": {"lat": 13.3546872, "lon": 74.8649616, "satellites": 13, "altitude_gps_m": 39.790000915527344, "groundspeed_mps": 0.46979591250419617}, "flight": {"mode": "LOITER", "armed": false}, "ekf": {"attitude": {"roll": -0.3116295039653778, "pitch": -0.30150988698005676, "yaw": -2.5781571865081787}, "local_position": {"x": 9.261200904846191, "y": -9.756595611572266, "z": -1.8429973125457764}, "status": {"flags": 831, "velocity_variance": 0.08233898878097534, "pos_horiz_variance": 0.036927830427885056, "pos_vert_variance": 0.04028133302927017}}, "errors": ["Arm: Gyros inconsistent", "Arm: Compasses inconsistent", "Arm: Gyros inconsistent", "Arm: Compasses inconsistent", "Arm: AHRS: EKF3 Roll/Pitch inconsistent 12 deg. Wa", "it or reboot", "PreArm: Gyros inconsistent", "PreArm: Compasses inconsistent", "PreArm: AHRS: EKF3 Roll/Pitch inconsistent 12 deg.", " Wait or reboot"]}
{"timestamp": "2026-01-31T07:41:37.698871Z", "telemetry": {"lat": 13.3546871, "lon": 74.8649599, "satellites": 13, "altitude_gps_m": 39.80999755859375, "groundspeed_mps": 0.23525258898735046}, "flight": {"mode": "LOITER", "armed": false}, "ekf": {"attitude": {"roll": -0.1934286504983902, "pitch": -0.2407739758491516, "yaw": -2.514073133468628}, "local_position": {"x": 9.438192367553711, "y": -9.753623962402344, "z": -1.8681347370147705}, "status": {"flags": 831, "velocity_variance": 0.13449513912200928, "pos_horiz_variance": 0.022146010771393776, "pos_vert_variance": 0.03248167783021927}}, "errors": ["Arm: Gyros inconsistent", "Arm: Compasses inconsistent", "Arm: Gyros inconsistent", "Arm: Compasses inconsistent", "Arm: AHRS: EKF3 Roll/Pitch inconsistent 12 deg. Wa", "it or reboot", "PreArm: Gyros inconsistent", "PreArm: Compasses inconsistent", "PreArm: AHRS: EKF3 Roll/Pitch inconsistent 12 deg.", " Wait or reboot"]}
{"timestamp": "2026-01-31T07:41:38.698972Z", "telemetry": {"lat": 13.3546861, "lon": 74.86496, "satellites": 13, "altitude_gps_m": 39.75, "groundspeed_mps": 0.44010472297668457}, "flight": {"mode": "LOITER", "armed": false}, "ekf": {"attitude": {"roll": -0.16969560086727142, "pitch": -0.5465884208679199, "yaw": -2.4391069412231445}, "local_position": {"x": 9.396658897399902, "y": -9.865102767944336, "z": -1.7881462574005127}, "status": {"flags": 831, "velocity_variance": 0.11865001916885376, "pos_horiz_variance": 0.01870104856789112, "pos_vert_variance": 0.039475101977586746}}, "errors": ["Arm: Gyros inconsistent", "Arm: Compasses inconsistent", "Arm: Gyros inconsistent", "Arm: Compasses inconsistent", "Arm: AHRS: EKF3 Roll/Pitch inconsistent 12 deg. Wa", "it or reboot", "PreArm: Gyros inconsistent", "PreArm: Compasses inconsistent", "PreArm: AHRS: EKF3 Roll/Pitch inconsistent 12 deg.", " Wait or reboot"]}
{"timestamp": "2026-01-31T07:41:39.699630Z", "telemetry": {"lat": 13.3546852, "lon": 74.8649596, "satellites": 13, "altitude_gps_m": 39.62999725341797, "groundspeed_mps": 0.548058807849884}, "flight": {"mode": "LOITER", "armed": false}, "ekf": {"attitude": {"roll": 0.11632080376148224, "pitch": -0.594326376914978, "yaw": -2.6258816719055176}, "local_position": {"x": 9.360557556152344, "y": -9.9606294631958, "z": -1.7413430213928223}, "status": {"flags": 831, "velocity_variance": 0.13515162467956543, "pos_horiz_variance": 0.01915258727967739, "pos_vert_variance": 0.03242911025881767}}, "errors": ["Arm: Gyros inconsistent", "Arm: Compasses inconsistent", "Arm: Gyros inconsistent", "Arm: Compasses inconsistent", "Arm: AHRS: EKF3 Roll/Pitch inconsistent 12 deg. Wa", "it or reboot", "PreArm: Gyros inconsistent", "PreArm: Compasses inconsistent", "PreArm: AHRS: EKF3 Roll/Pitch inconsistent 12 deg.", " Wait or reboot"]}
{"timestamp": "2026-01-31T07:41:40.699141Z", "telemetry": {"lat": 13.3546839, "lon": 74.8649594, "satellites": 13, "altitude_gps_m": 38.70000076293945, "groundspeed_mps": 0.31803810596466064}, "flight": {"mode": "LOITER", "armed": false}, "ekf": {"attitude": {"roll": -0.3381153643131256, "pitch": -0.03270736709237099, "yaw": -1.3089960813522339}, "local_position": {"x": 9.164093971252441, "y": -10.046832084655762, "z": -1.0237797498703003}, "status": {"flags": 831, "velocity_variance": 0.1403413712978363, "pos_horiz_variance": 0.02175895683467388, "pos_vert_variance": 0.03010369837284088}}, "errors": ["Arm: Gyros inconsistent", "Arm: Compasses inconsistent", "Arm: Gyros inconsistent", "Arm: Compasses inconsistent", "Arm: AHRS: EKF3 Roll/Pitch inconsistent 12 deg. Wa", "it or reboot", "PreArm: Gyros inconsistent", "PreArm: Compasses inconsistent", "PreArm: AHRS: EKF3 Roll/Pitch inconsistent 12 deg.", " Wait or reboot"]}
{"timestamp": "2026-01-31T07:41:41.699081Z", "telemetry": {"lat": 13.3546831, "lon": 74.8649608, "satellites": 13, "altitude_gps_m": 38.279998779296875, "groundspeed_mps": 0.21786513924598694}, "flight": {"mode": "LOITER", "armed": false}, "ekf": {"attitude": {"roll": -0.00986481923609972, "pitch": -0.043685466051101685, "yaw": -1.1842048168182373}, "local_position": {"x": 9.209783554077148, "y": -9.890471458435059, "z": -0.3217271566390991}, "status": {"flags": 831, "velocity_variance": 0.19843798875808716, "pos_horiz_variance": 0.02555326372385025, "pos_vert_variance": 0.04455310478806496}}, "errors": ["Arm: Gyros inconsistent", "Arm: Compasses inconsistent", "Arm: Gyros inconsistent", "Arm: Compasses inconsistent", "Arm: AHRS: EKF3 Roll/Pitch inconsistent 12 deg. Wa", "it or reboot", "PreArm: Gyros inconsistent", "PreArm: Compasses inconsistent", "PreArm: AHRS: EKF3 Roll/Pitch inconsistent 12 deg.", " Wait or reboot"]}
{"timestamp": "2026-01-31T07:41:42.699018Z", "telemetry": {"lat": 13.3546832, "lon": 74.8649597, "satellites": 12, "altitude_gps_m": 38.20000076293945, "groundspeed_mps": 0.2584916353225708}, "flight": {"mode": "LOITER", "armed": false}, "ekf": {"attitude": {"roll": -0.008187212981283665, "pitch": -0.052468955516815186, "yaw": -1.186562180519104}, "local_position": {"x": 9.250038146972656, "y": -9.955026626586914, "z": -0.2514055669307709}, "status": {"flags": 831, "velocity_variance": 0.08180497586727142, "pos_horiz_variance": 0.0215072613209486, "pos_vert_variance": 0.05289372801780701}}, "errors": ["Arm: Gyros inconsistent", "Arm: Compasses inconsistent", "Arm: Gyros inconsistent", "Arm: Compasses inconsistent", "Arm: AHRS: EKF3 Roll/Pitch inconsistent 12 deg. Wa", "it or reboot", "PreArm: Gyros inconsistent", "PreArm: Compasses inconsistent", "PreArm: AHRS: EKF3 Roll/Pitch inconsistent 12 deg.", " Wait or reboot"]}
{"timestamp": "2026-01-31T07:41:43.699404Z", "telemetry": {"lat": 13.354682, "lon": 74.8649598, "satellites": 12, "altitude_gps_m": 38.23999786376953, "groundspeed_mps": 0.2614409029483795}, "flight": {"mode": "LOITER", "armed": false}, "ekf": {"attitude": {"roll": -0.005879799835383892, "pitch": -0.053344640880823135, "yaw": -1.1859729290008545}, "local_position": {"x": 9.253229141235352, "y": -10.002450942993164, "z": -0.2653695344924927}, "status": {"flags": 831, "velocity_variance": 0.11475148797035217, "pos_horiz_variance": 0.026174522936344147, "pos_vert_variance": 0.06826353818178177}}, "errors": ["Arm: Gyros inconsistent", "Arm: Compasses inconsistent", "Arm: Gyros inconsistent", "Arm: Compasses inconsistent", "Arm: AHRS: EKF3 Roll/Pitch inconsistent 12 deg. Wa", "it or reboot", "PreArm: Gyros inconsistent", "PreArm: Compasses inconsistent", "PreArm: AHRS: EKF3 Roll/Pitch inconsistent 12 deg.", " Wait or reboot"]}
{"timestamp": "2026-01-31T07:41:44.699171Z", "telemetry": {"lat": 13.3546825, "lon": 74.8649584, "satellites": 12, "altitude_gps_m": 38.279998779296875, "groundspeed_mps": 0.3064803183078766}, "flight": {"mode": "LOITER", "armed": false}, "ekf": {"attitude": {"roll": -0.0042704204097390175, "pitch": -0.05475824698805809, "yaw": -1.1856038570404053}, "local_position": {"x": 9.269903182983398, "y": -10.11498737335205, "z": -0.3297949731349945}, "status": {"flags": 831, "velocity_variance": 0.07119289040565491, "pos_horiz_variance": 0.021550601348280907, "pos_vert_variance": 0.059606727212667465}}, "errors": ["Arm: Gyros inconsistent", "Arm: Compasses inconsistent", "Arm: Gyros inconsistent", "Arm: Compasses inconsistent", "Arm: AHRS: EKF3 Roll/Pitch inconsistent 12 deg. Wa", "it or reboot", "PreArm: Gyros inconsistent", "PreArm: Compasses inconsistent", "PreArm: AHRS: EKF3 Roll/Pitch inconsistent 12 deg.", " Wait or reboot"]}
{"timestamp": "2026-01-31T07:41:45.699750Z", "telemetry": {"lat": 13.3546821, "lon": 74.8649585, "satellites": 12, "altitude_gps_m": 38.29999923706055, "groundspeed_mps": 0.34096622467041016}, "flight": {"mode": "LOITER", "armed": false}, "ekf": {"attitude": {"roll": -0.003039143979549408, "pitch": -0.05558324605226517, "yaw": -1.1849629878997803}, "local_position": {"x": 9.28758430480957, "y": -10.178825378417969, "z": -0.34725990891456604}, "status": {"flags": 831, "velocity_variance": 0.11084838211536407, "pos_horiz_variance": 0.026226643472909927, "pos_vert_variance": 0.061788927763700485}}, "errors": ["Arm: Gyros inconsistent", "Arm: Compasses inconsistent", "Arm: Gyros inconsistent", "Arm: Compasses inconsistent", "Arm: AHRS: EKF3 Roll/Pitch inconsistent 12 deg. Wa", "it or reboot", "PreArm: Gyros inconsistent", "PreArm: Compasses inconsistent", "PreArm: AHRS: EKF3 Roll/Pitch inconsistent 12 deg.", " Wait or reboot"]}
{"timestamp": "2026-01-31T07:41:46.699163Z", "telemetry": {"lat": 13.3546815, "lon": 74.864959, "satellites": 12, "altitude_gps_m": 38.32999801635742, "groundspeed_mps": 0.3521961569786072}, "flight": {"mode": "LOITER", "armed": false}, "ekf": {"attitude": {"roll": -0.002118117641657591, "pitch": -0.055906206369400024, "yaw": -1.1844679117202759}, "local_position": {"x": 9.281115531921387, "y": -10.19972038269043, "z": -0.37159350514411926}, "status": {"flags": 831, "velocity_variance": 0.13535040616989136, "pos_horiz_variance": 0.031624943017959595, "pos_vert_variance": 0.0654139593243599}}, "errors": ["Arm: Gyros inconsistent", "Arm: Compasses inconsistent", "Arm: Gyros inconsistent", "Arm: Compasses inconsistent", "Arm: AHRS: EKF3 Roll/Pitch inconsistent 12 deg. Wa", "it or reboot", "PreArm: Gyros inconsistent", "PreArm: Compasses inconsistent", "PreArm: AHRS: EKF3 Roll/Pitch inconsistent 12 deg.", " Wait or reboot"]}
{"timestamp": "2026-01-31T07:41:47.699625Z", "telemetry": {"lat": 13.3546806, "lon": 74.8649595, "satellites": 12, "altitude_gps_m": 38.38999938964844, "groundspeed_mps": 0.34336647391319275}, "flight": {"mode": "LOITER", "armed": false}, "ekf": {"attitude": {"roll": -0.0018291191663593054, "pitch": -0.05576582998037338, "yaw": -1.1841520071029663}, "local_position": {"x": 9.252059936523438, "y": -10.164251327514648, "z": -0.41112813353538513}, "status": {"flags": 831, "velocity_variance": 0.06701204180717468, "pos_horiz_variance": 0.0336955226957798, "pos_vert_variance": 0.07021143287420273}}, "errors": ["Arm: Gyros inconsistent", "Arm: Compasses inconsistent", "Arm: Gyros inconsistent", "Arm: Compasses inconsistent", "Arm: AHRS: EKF3 Roll/Pitch inconsistent 12 deg. Wa", "it or reboot", "PreArm: Gyros inconsistent", "PreArm: Compasses inconsistent", "PreArm: AHRS: EKF3 Roll/Pitch inconsistent 12 deg.", " Wait or reboot"]}
{"timestamp": "2026-01-31T07:41:48.701023Z", "telemetry": {"lat": 13.3546807, "lon": 74.8649587, "satellites": 12, "altitude_gps_m": 38.439998626708984, "groundspeed_mps": 0.3988514542579651}, "flight": {"mode": "LOITER", "armed": false}, "ekf": {"attitude": {"roll": -0.0015098957810550928, "pitch": -0.05690416693687439, "yaw": -1.184354543685913}, "local_position": {"x": 9.228130340576172, "y": -10.275439262390137, "z": -0.4830138087272644}, "status": {"flags": 831, "velocity_variance": 0.07340230792760849, "pos_horiz_variance": 0.035188887268304825, "pos_vert_variance": 0.05592356622219086}}, "errors": ["Arm: Gyros inconsistent", "Arm: Compasses inconsistent", "Arm: Gyros inconsistent", "Arm: Compasses inconsistent", "Arm: AHRS: EKF3 Roll/Pitch inconsistent 12 deg. Wa", "it or reboot", "PreArm: Gyros inconsistent", "PreArm: Compasses inconsistent", "PreArm: AHRS: EKF3 Roll/Pitch inconsistent 12 deg.", " Wait or reboot"]}
{"timestamp": "2026-01-31T07:41:49.699516Z", "telemetry": {"lat": 13.3546812, "lon": 74.8649585, "satellites": 12, "altitude_gps_m": 38.39999771118164, "groundspeed_mps": 0.45515739917755127}, "flight": {"mode": "LOITER", "armed": false}, "ekf": {"attitude": {"roll": -0.0008657558355480433, "pitch": -0.057565439492464066, "yaw": -1.1843692064285278}, "local_position": {"x": 9.274435997009277, "y": -10.3455171585083, "z": -0.45272883772850037}, "status": {"flags": 831, "velocity_variance": 0.05815614387392998, "pos_horiz_variance": 0.03439398482441902, "pos_vert_variance": 0.04709282144904137}}, "errors": ["Arm: Gyros inconsistent", "Arm: Compasses inconsistent", "Arm: Gyros inconsistent", "Arm: Compasses inconsistent", "Arm: AHRS: EKF3 Roll/Pitch inconsistent 12 deg. Wa", "it or reboot", "PreArm: Gyros inconsistent", "PreArm: Compasses inconsistent", "PreArm: AHRS: EKF3 Roll/Pitch inconsistent 12 deg.", " Wait or reboot"]}
{"timestamp": "2026-01-31T07:41:50.700470Z", "telemetry": {"lat": 13.3546819, "lon": 74.8649588, "satellites": 12, "altitude_gps_m": 38.38999938964844, "groundspeed_mps": 0.4674035906791687}, "flight": {"mode": "LOITER", "armed": false}, "ekf": {"attitude": {"roll": -0.0005249137757346034, "pitch": -0.05695159733295441, "yaw": -1.1848790645599365}, "local_position": {"x": 9.35872745513916, "y": -10.39663314819336, "z": -0.4377964437007904}, "status": {"flags": 831, "velocity_variance": 0.12911731004714966, "pos_horiz_variance": 0.04023604094982147, "pos_vert_variance": 0.05291067808866501}}, "errors": ["Arm: Gyros inconsistent", "Arm: Compasses inconsistent", "Arm: Gyros inconsistent", "Arm: Compasses inconsistent", "Arm: AHRS: EKF3 Roll/Pitch inconsistent 12 deg. Wa", "it or reboot", "PreArm: Gyros inconsistent", "PreArm: Compasses inconsistent", "PreArm: AHRS: EKF3 Roll/Pitch inconsistent 12 deg.", " Wait or reboot"]}
{"timestamp": "2026-01-31T07:41:51.699163Z", "telemetry": {"lat": 13.3546816, "lon": 74.8649576, "satellites": 12, "altitude_gps_m": 38.369998931884766, "groundspeed_mps": 0.41204965114593506}, "flight": {"mode": "LOITER", "armed": false}, "ekf": {"attitude": {"roll": -0.0010388771770521998, "pitch": -0.05583735555410385, "yaw": -1.1859458684921265}, "local_position": {"x": 9.354515075683594, "y": -10.323968887329102, "z": -0.42898204922676086}, "status": {"flags": 831, "velocity_variance": 0.16491064429283142, "pos_horiz_variance": 0.03163953125476837, "pos_vert_variance": 0.04367147013545036}}, "errors": ["Arm: Gyros inconsistent", "Arm: Compasses inconsistent", "Arm: Gyros inconsistent", "Arm: Compasses inconsistent", "Arm: AHRS: EKF3 Roll/Pitch inconsistent 12 deg. Wa", "it or reboot", "PreArm: Gyros inconsistent", "PreArm: Compasses inconsistent", "PreArm: AHRS: EKF3 Roll/Pitch inconsistent 12 deg.", " Wait or reboot"]}
{"timestamp": "2026-01-31T07:41:52.699361Z", "telemetry": {"lat": 13.3546821, "lon": 74.8649575, "satellites": 12, "altitude_gps_m": 38.30999755859375, "groundspeed_mps": 0.3642488718032837}, "flight": {"mode": "LOITER", "armed": false}, "ekf": {"attitude": {"roll": -0.0016897267196327448, "pitch": -0.0548667386174202, "yaw": -1.1873116493225098}, "local_position": {"x": 9.289011001586914, "y": -10.257570266723633, "z": -0.36783021688461304}, "status": {"flags": 831, "velocity_variance": 0.13782243430614471, "pos_horiz_variance": 0.025591757148504257, "pos_vert_variance": 0.05498644709587097}}, "errors": ["Arm: Gyros inconsistent", "Arm: Compasses inconsistent", "Arm: Gyros inconsistent", "Arm: Compasses inconsistent", "Arm: AHRS: EKF3 Roll/Pitch inconsistent 12 deg. Wa", "it or reboot", "PreArm: Gyros inconsistent", "PreArm: Compasses inconsistent", "PreArm: AHRS: EKF3 Roll/Pitch inconsistent 12 deg.", " Wait or reboot"]}
{"timestamp": "2026-01-31T07:41:53.699178Z", "telemetry": {"lat": 13.3546834, "lon": 74.8649573, "satellites": 12, "altitude_gps_m": 38.31999969482422, "groundspeed_mps": 0.34658676385879517}, "flight": {"mode": "LOITER", "armed": false}, "ekf": {"attitude": {"roll": -0.0018550304230302572, "pitch": -0.054480139166116714, "yaw": -1.1881258487701416}, "local_position": {"x": 9.285085678100586, "y": -10.237582206726074, "z": -0.3603995740413666}, "status": {"flags": 831, "velocity_variance": 0.11621041595935822, "pos_horiz_variance": 0.021350858733057976, "pos_vert_variance": 0.06277170777320862}}, "errors": ["Arm: Gyros inconsistent", "Arm: Compasses inconsistent", "Arm: Gyros inconsistent", "Arm: Compasses inconsistent", "Arm: AHRS: EKF3 Roll/Pitch inconsistent 12 deg. Wa", "it or reboot", "PreArm: Gyros inconsistent", "PreArm: Compasses inconsistent", "PreArm: AHRS: EKF3 Roll/Pitch inconsistent 12 deg.", " Wait or reboot"]}
{"timestamp": "2026-01-31T07:41:54.700341Z", "telemetry": {"lat": 13.3546847, "lon": 74.864955, "satellites": 12, "altitude_gps_m": 38.34000015258789, "groundspeed_mps": 0.3501513600349426}, "flight": {"mode": "LOITER", "armed": false}, "ekf": {"attitude": {"roll": -0.0025162987876683474, "pitch": -0.05408010631799698, "yaw": -1.1895794868469238}, "local_position": {"x": 9.339920043945312, "y": -10.29345703125, "z": -0.375298410654068}, "status": {"flags": 831, "velocity_variance": 0.11215326189994812, "pos_horiz_variance": 0.009588305838406086, "pos_vert_variance": 0.05243818834424019}}, "errors": ["Arm: Gyros inconsistent", "Arm: Compasses inconsistent", "Arm: Gyros inconsistent", "Arm: Compasses inconsistent", "Arm: AHRS: EKF3 Roll/Pitch inconsistent 12 deg. Wa", "it or reboot", "PreArm: Gyros inconsistent", "PreArm: Compasses inconsistent", "PreArm: AHRS: EKF3 Roll/Pitch inconsistent 12 deg.", " Wait or reboot"]}
{"timestamp": "2026-01-31T07:41:55.689534Z", "telemetry": {"lat": 13.3546853, "lon": 74.8649545, "satellites": 12, "altitude_gps_m": 38.32999801635742, "groundspeed_mps": 0.3381512761116028}, "flight": {"mode": "LOITER", "armed": false}, "ekf": {"attitude": {"roll": -0.002935264725238085, "pitch": -0.05339967831969261, "yaw": -1.190867304801941}, "local_position": {"x": 9.411514282226562, "y": -10.33248519897461, "z": -0.37968671321868896}, "status": {"flags": 831, "velocity_variance": 0.11470355093479156, "pos_horiz_variance": 0.008513960056006908, "pos_vert_variance": 0.04719951003789902}}, "errors": ["Arm: Gyros inconsistent", "Arm: Compasses inconsistent", "Arm: Gyros inconsistent", "Arm: Compasses inconsistent", "Arm: AHRS: EKF3 Roll/Pitch inconsistent 12 deg. Wa", "it or reboot", "PreArm: Gyros inconsistent", "PreArm: Compasses inconsistent", "PreArm: AHRS: EKF3 Roll/Pitch inconsistent 12 deg.", " Wait or reboot"]}
{"timestamp": "2026-01-31T07:41:56.685130Z", "telemetry": {"lat": 13.3546866, "lon": 74.864956, "satellites": 12, "altitude_gps_m": 38.34000015258789, "groundspeed_mps": 0.3106553852558136}, "flight": {"mode": "LOITER", "armed": false}, "ekf": {"attitude": {"roll": -0.003005585167557001, "pitch": -0.05246853828430176, "yaw": -1.1918381452560425}, "local_position": {"x": 9.510793685913086, "y": -10.297235488891602, "z": -0.38464826345443726}, "status": {"flags": 831, "velocity_variance": 0.13632263243198395, "pos_horiz_variance": 0.017953233793377876, "pos_vert_variance": 0.04883576184511185}}, "errors": ["Arm: Gyros inconsistent", "Arm: Compasses inconsistent", "Arm: Gyros inconsistent", "Arm: Compasses inconsistent", "Arm: AHRS: EKF3 Roll/Pitch inconsistent 12 deg. Wa", "it or reboot", "PreArm: Gyros inconsistent", "PreArm: Compasses inconsistent", "PreArm: AHRS: EKF3 Roll/Pitch inconsistent 12 deg.", " Wait or reboot"]}
{"timestamp": "2026-01-31T07:41:57.699761Z", "telemetry": {"lat": 13.3546867, "lon": 74.8649546, "satellites": 12, "altitude_gps_m": 38.34000015258789, "groundspeed_mps": 0.294126957654953}, "flight": {"mode": "LOITER", "armed": false}, "ekf": {"attitude": {"roll": -0.0036712964065372944, "pitch": -0.0519583560526371, "yaw": -1.1932605504989624}, "local_position": {"x": 9.605860710144043, "y": -10.273199081420898, "z": -0.3909485340118408}, "status": {"flags": 831, "velocity_variance": 0.09505645185709, "pos_horiz_variance": 0.006581108085811138, "pos_vert_variance": 0.0289643332362175}}, "errors": ["Arm: Gyros inconsistent", "Arm: Compasses inconsistent", "Arm: Gyros inconsistent", "Arm: Compasses inconsistent", "Arm: AHRS: EKF3 Roll/Pitch inconsistent 12 deg. Wa", "it or reboot", "PreArm: Gyros inconsistent", "PreArm: Compasses inconsistent", "PreArm: AHRS: EKF3 Roll/Pitch inconsistent 12 deg.", " Wait or reboot"]}
{"timestamp": "2026-01-31T07:41:58.699441Z", "telemetry": {"lat": 13.3546865, "lon": 74.8649532, "satellites": 12, "altitude_gps_m": 38.30999755859375, "groundspeed_mps": 0.2915419340133667}, "flight": {"mode": "LOITER", "armed": false}, "ekf": {"attitude": {"roll": -0.004305552691221237, "pitch": -0.05194351077079773, "yaw": -1.193699836730957}, "local_position": {"x": 9.660879135131836, "y": -10.404877662658691, "z": -0.3209441304206848}, "status": {"flags": 831, "velocity_variance": 0.14157608151435852, "pos_horiz_variance": 0.0048690419644117355, "pos_vert_variance": 0.019109921529889107}}, "errors": ["Arm: Gyros inconsistent", "Arm: Compasses inconsistent", "Arm: Gyros inconsistent", "Arm: Compasses inconsistent", "Arm: AHRS: EKF3 Roll/Pitch inconsistent 12 deg. Wa", "it or reboot", "PreArm: Gyros inconsistent", "PreArm: Compasses inconsistent", "PreArm: AHRS: EKF3 Roll/Pitch inconsistent 12 deg.", " Wait or reboot"]}
{"timestamp": "2026-01-31T07:41:59.699410Z", "telemetry": {"lat": 13.3546864, "lon": 74.8649528, "satellites": 12, "altitude_gps_m": 38.11000061035156, "groundspeed_mps": 0.3105522096157074}, "flight": {"mode": "LOITER", "armed": false}, "ekf": {"attitude": {"roll": -0.005285591818392277, "pitch": -0.05226907506585121, "yaw": -1.194771647453308}, "local_position": {"x": 9.693315505981445, "y": -10.502656936645508, "z": -0.1946491152048111}, "status": {"flags": 831, "velocity_variance": 0.12704896926879883, "pos_horiz_variance": 0.008205165155231953, "pos_vert_variance": 0.015013080090284348}}, "errors": ["Arm: Gyros inconsistent", "Arm: Compasses inconsistent", "Arm: Gyros inconsistent", "Arm: Compasses inconsistent", "Arm: AHRS: EKF3 Roll/Pitch inconsistent 12 deg. Wa", "it or reboot", "PreArm: Gyros inconsistent", "PreArm: Compasses inconsistent", "PreArm: AHRS: EKF3 Roll/Pitch inconsistent 12 deg.", " Wait or reboot"]}
{"timestamp": "2026-01-31T07:42:00.699982Z", "telemetry": {"lat": 13.3546865, "lon": 74.8649526, "satellites": 12, "altitude_gps_m": 37.93000030517578, "groundspeed_mps": 0.3147512972354889}, "flight": {"mode": "LOITER", "armed": false}, "ekf": {"attitude": {"roll": -0.006239739246666431, "pitch": -0.05156479775905609, "yaw": -1.1997032165527344}, "local_position": {"x": 9.706642150878906, "y": -10.605674743652344, "z": -0.017183825373649597}, "status": {"flags": 831, "velocity_variance": 0.10723860561847687, "pos_horiz_variance": 0.01264486089348793, "pos_vert_variance": 0.014949426054954529}}, "errors": ["Arm: Gyros inconsistent", "Arm: Compasses inconsistent", "Arm: Gyros inconsistent", "Arm: Compasses inconsistent", "Arm: AHRS: EKF3 Roll/Pitch inconsistent 12 deg. Wa", "it or reboot", "PreArm: Gyros inconsistent", "PreArm: Compasses inconsistent", "PreArm: AHRS: EKF3 Roll/Pitch inconsistent 12 deg.", " Wait or reboot"]}
{"timestamp": "2026-01-31T07:42:01.675802Z", "telemetry": {"lat": 13.3546865, "lon": 74.8649523, "satellites": 12, "altitude_gps_m": 37.73999786376953, "groundspeed_mps": 0.30641889572143555}, "flight": {"mode": "LOITER", "armed": false}, "ekf": {"attitude": {"roll": -0.006257149390876293, "pitch": -0.05162253975868225, "yaw": -1.2012290954589844}, "local_position": {"x": 9.79155158996582, "y": -10.648273468017578, "z": 0.21592526137828827}, "status": {"flags": 831, "velocity_variance": 0.12720130383968353, "pos_horiz_variance": 0.016150539740920067, "pos_vert_variance": 0.020377252250909805}}, "errors": ["Arm: Gyros inconsistent", "Arm: Compasses inconsistent", "Arm: Gyros inconsistent", "Arm: Compasses inconsistent", "Arm: AHRS: EKF3 Roll/Pitch inconsistent 12 deg. Wa", "it or reboot", "PreArm: Gyros inconsistent", "PreArm: Compasses inconsistent", "PreArm: AHRS: EKF3 Roll/Pitch inconsistent 12 deg.", " Wait or reboot"]}
{"timestamp": "2026-01-31T07:42:02.665732Z", "telemetry": {"lat": 13.3546865, "lon": 74.8649523, "satellites": 12, "altitude_gps_m": 37.73999786376953, "groundspeed_mps": 0.30641889572143555}, "flight": {"mode": "LOITER", "armed": false}, "ekf": {"attitude": {"roll": -0.006257149390876293, "pitch": -0.05162253975868225, "yaw": -1.2012290954589844}, "local_position": {"x": 9.79155158996582, "y": -10.648273468017578, "z": 0.21592526137828827}, "status": {"flags": 831, "velocity_variance": 0.12720130383968353, "pos_horiz_variance": 0.016150539740920067, "pos_vert_variance": 0.020377252250909805}}, "errors": ["Arm: Gyros inconsistent", "Arm: Compasses inconsistent", "Arm: Gyros inconsistent", "Arm: Compasses inconsistent", "Arm: AHRS: EKF3 Roll/Pitch inconsistent 12 deg. Wa", "it or reboot", "PreArm: Gyros inconsistent", "PreArm: Compasses inconsistent", "PreArm: AHRS: EKF3 Roll/Pitch inconsistent 12 deg.", " Wait or reboot"]}
{"timestamp": "2026-01-31T07:42:03.670217Z", "telemetry": {"lat": 13.3546865, "lon": 74.8649523, "satellites": 12, "altitude_gps_m": 37.73999786376953, "groundspeed_mps": 0.30641889572143555}, "flight": {"mode": "LOITER", "armed": false}, "ekf": {"attitude": {"roll": -0.006257149390876293, "pitch": -0.05162253975868225, "yaw": -1.2012290954589844}, "local_position": {"x": 9.79155158996582, "y": -10.648273468017578, "z": 0.21592526137828827}, "status": {"flags": 831, "velocity_variance": 0.12720130383968353, "pos_horiz_variance": 0.016150539740920067, "pos_vert_variance": 0.020377252250909805}}, "errors": ["Arm: Gyros inconsistent", "Arm: Compasses inconsistent", "Arm: Gyros inconsistent", "Arm: Compasses inconsistent", "Arm: AHRS: EKF3 Roll/Pitch inconsistent 12 deg. Wa", "it or reboot", "PreArm: Gyros inconsistent", "PreArm: Compasses inconsistent", "PreArm: AHRS: EKF3 Roll/Pitch inconsistent 12 deg.", " Wait or reboot"]}
{"timestamp": "2026-01-31T07:42:04.684414Z", "telemetry": {"lat": 13.3546865, "lon": 74.8649523, "satellites": 12, "altitude_gps_m": 37.73999786376953, "groundspeed_mps": 0.30641889572143555}, "flight": {"mode": "LOITER", "armed": false}, "ekf": {"attitude": {"roll": -0.006257149390876293, "pitch": -0.05162253975868225, "yaw": -1.2012290954589844}, "local_position": {"x": 9.79155158996582, "y": -10.648273468017578, "z": 0.21592526137828827}, "status": {"flags": 831, "velocity_variance": 0.12720130383968353, "pos_horiz_variance": 0.016150539740920067, "pos_vert_variance": 0.020377252250909805}}, "errors": ["Arm: Gyros inconsistent", "Arm: Compasses inconsistent", "Arm: Gyros inconsistent", "Arm: Compasses inconsistent", "Arm: AHRS: EKF3 Roll/Pitch inconsistent 12 deg. Wa", "it or reboot", "PreArm: Gyros inconsistent", "PreArm: Compasses inconsistent", "PreArm: AHRS: EKF3 Roll/Pitch inconsistent 12 deg.", " Wait or reboot"]}
{"timestamp": "2026-01-31T07:42:05.673866Z", "telemetry": {"lat": 13.3546865, "lon": 74.8649523, "satellites": 12, "altitude_gps_m": 37.73999786376953, "groundspeed_mps": 0.30641889572143555}, "flight": {"mode": "LOITER", "armed": false}, "ekf": {"attitude": {"roll": -0.006257149390876293, "pitch": -0.05162253975868225, "yaw": -1.2012290954589844}, "local_position": {"x": 9.79155158996582, "y": -10.648273468017578, "z": 0.21592526137828827}, "status": {"flags": 831, "velocity_variance": 0.12720130383968353, "pos_horiz_variance": 0.016150539740920067, "pos_vert_variance": 0.020377252250909805}}, "errors": ["Arm: Gyros inconsistent", "Arm: Compasses inconsistent", "Arm: Gyros inconsistent", "Arm: Compasses inconsistent", "Arm: AHRS: EKF3 Roll/Pitch inconsistent 12 deg. Wa", "it or reboot", "PreArm: Gyros inconsistent", "PreArm: Compasses inconsistent", "PreArm: AHRS: EKF3 Roll/Pitch inconsistent 12 deg.", " Wait or reboot"]}
{"timestamp": "2026-01-31T07:42:06.682575Z", "telemetry": {"lat": 13.3546865, "lon": 74.8649523, "satellites": 12, "altitude_gps_m": 37.73999786376953, "groundspeed_mps": 0.30641889572143555}, "flight": {"mode": "LOITER", "armed": false}, "ekf": {"attitude": {"roll": -0.006257149390876293, "pitch": -0.05162253975868225, "yaw": -1.2012290954589844}, "local_position": {"x": 9.79155158996582, "y": -10.648273468017578, "z": 0.21592526137828827}, "status": {"flags": 831, "velocity_variance": 0.12720130383968353, "pos_horiz_variance": 0.016150539740920067, "pos_vert_variance": 0.020377252250909805}}, "errors": ["Arm: Gyros inconsistent", "Arm: Compasses inconsistent", "Arm: Gyros inconsistent", "Arm: Compasses inconsistent", "Arm: AHRS: EKF3 Roll/Pitch inconsistent 12 deg. Wa", "it or reboot", "PreArm: Gyros inconsistent", "PreArm: Compasses inconsistent", "PreArm: AHRS: EKF3 Roll/Pitch inconsistent 12 deg.", " Wait or reboot"]}
{"timestamp": "2026-01-31T07:42:07.677472Z", "telemetry": {"lat": 13.3546865, "lon": 74.8649523, "satellites": 12, "altitude_gps_m": 37.73999786376953, "groundspeed_mps": 0.30641889572143555}, "flight": {"mode": "LOITER", "armed": false}, "ekf": {"attitude": {"roll": -0.006257149390876293, "pitch": -0.05162253975868225, "yaw": -1.2012290954589844}, "local_position": {"x": 9.79155158996582, "y": -10.648273468017578, "z": 0.21592526137828827}, "status": {"flags": 831, "velocity_variance": 0.12720130383968353, "pos_horiz_variance": 0.016150539740920067, "pos_vert_variance": 0.020377252250909805}}, "errors": ["Arm: Gyros inconsistent", "Arm: Compasses inconsistent", "Arm: Gyros inconsistent", "Arm: Compasses inconsistent", "Arm: AHRS: EKF3 Roll/Pitch inconsistent 12 deg. Wa", "it or reboot", "PreArm: Gyros inconsistent", "PreArm: Compasses inconsistent", "PreArm: AHRS: EKF3 Roll/Pitch inconsistent 12 deg.", " Wait or reboot"]}
{"timestamp": "2026-01-31T07:42:08.682080Z", "telemetry": {"lat": 13.3546865, "lon": 74.8649523, "satellites": 12, "altitude_gps_m": 37.73999786376953, "groundspeed_mps": 0.30641889572143555}, "flight": {"mode": "LOITER", "armed": false}, "ekf": {"attitude": {"roll": -0.006257149390876293, "pitch": -0.05162253975868225, "yaw": -1.2012290954589844}, "local_position": {"x": 9.79155158996582, "y": -10.648273468017578, "z": 0.21592526137828827}, "status": {"flags": 831, "velocity_variance": 0.12720130383968353, "pos_horiz_variance": 0.016150539740920067, "pos_vert_variance": 0.020377252250909805}}, "errors": ["Arm: Gyros inconsistent", "Arm: Compasses inconsistent", "Arm: Gyros inconsistent", "Arm: Compasses inconsistent", "Arm: AHRS: EKF3 Roll/Pitch inconsistent 12 deg. Wa", "it or reboot", "PreArm: Gyros inconsistent", "PreArm: Compasses inconsistent", "PreArm: AHRS: EKF3 Roll/Pitch inconsistent 12 deg.", " Wait or reboot"]}
{"timestamp": "2026-01-31T07:42:09.686986Z", "telemetry": {"lat": 13.3546865, "lon": 74.8649523, "satellites": 12, "altitude_gps_m": 37.73999786376953, "groundspeed_mps": 0.30641889572143555}, "flight": {"mode": "LOITER", "armed": false}, "ekf": {"attitude": {"roll": -0.006257149390876293, "pitch": -0.05162253975868225, "yaw": -1.2012290954589844}, "local_position": {"x": 9.79155158996582, "y": -10.648273468017578, "z": 0.21592526137828827}, "status": {"flags": 831, "velocity_variance": 0.12720130383968353, "pos_horiz_variance": 0.016150539740920067, "pos_vert_variance": 0.020377252250909805}}, "errors": ["Arm: Gyros inconsistent", "Arm: Compasses inconsistent", "Arm: Gyros inconsistent", "Arm: Compasses inconsistent", "Arm: AHRS: EKF3 Roll/Pitch inconsistent 12 deg. Wa", "it or reboot", "PreArm: Gyros inconsistent", "PreArm: Compasses inconsistent", "PreArm: AHRS: EKF3 Roll/Pitch inconsistent 12 deg.", " Wait or reboot"]}
{"timestamp": "2026-01-31T07:42:10.689020Z", "telemetry": {"lat": 13.3546865, "lon": 74.8649523, "satellites": 12, "altitude_gps_m": 37.73999786376953, "groundspeed_mps": 0.30641889572143555}, "flight": {"mode": "STABILIZE", "armed": false}, "ekf": {"attitude": {"roll": -0.006257149390876293, "pitch": -0.05162253975868225, "yaw": -1.2012290954589844}, "local_position": {"x": 9.79155158996582, "y": -10.648273468017578, "z": 0.21592526137828827}, "status": {"flags": 831, "velocity_variance": 0.12720130383968353, "pos_horiz_variance": 0.016150539740920067, "pos_vert_variance": 0.020377252250909805}}, "errors": ["Arm: Gyros inconsistent", "Arm: Compasses inconsistent", "Arm: Gyros inconsistent", "Arm: Compasses inconsistent", "Arm: AHRS: EKF3 Roll/Pitch inconsistent 12 deg. Wa", "it or reboot", "PreArm: Gyros inconsistent", "PreArm: Compasses inconsistent", "PreArm: AHRS: EKF3 Roll/Pitch inconsistent 12 deg.", " Wait or reboot", "RCInput: decoding PPM(1)", "Calibrating barometer"]}
{"timestamp": "2026-01-31T07:42:11.685286Z", "telemetry": {"lat": 13.3546865, "lon": 74.8649523, "satellites": 12, "altitude_gps_m": 37.73999786376953, "groundspeed_mps": 0.30641889572143555}, "flight": {"mode": "STABILIZE", "armed": false}, "ekf": {"attitude": {"roll": -0.006257149390876293, "pitch": -0.05162253975868225, "yaw": -1.2012290954589844}, "local_position": {"x": 9.79155158996582, "y": -10.648273468017578, "z": 0.21592526137828827}, "status": {"flags": 831, "velocity_variance": 0.12720130383968353, "pos_horiz_variance": 0.016150539740920067, "pos_vert_variance": 0.020377252250909805}}, "errors": ["Arm: Gyros inconsistent", "Arm: Compasses inconsistent", "Arm: Gyros inconsistent", "Arm: Compasses inconsistent", "Arm: AHRS: EKF3 Roll/Pitch inconsistent 12 deg. Wa", "it or reboot", "PreArm: Gyros inconsistent", "PreArm: Compasses inconsistent", "PreArm: AHRS: EKF3 Roll/Pitch inconsistent 12 deg.", " Wait or reboot", "RCInput: decoding PPM(1)", "Calibrating barometer"]}
{"timestamp": "2026-01-31T07:42:12.686658Z", "telemetry": {"lat": 13.3546865, "lon": 74.8649523, "satellites": 12, "altitude_gps_m": 37.73999786376953, "groundspeed_mps": 0.30641889572143555}, "flight": {"mode": "STABILIZE", "armed": false}, "ekf": {"attitude": {"roll": -0.006257149390876293, "pitch": -0.05162253975868225, "yaw": -1.2012290954589844}, "local_position": {"x": 9.79155158996582, "y": -10.648273468017578, "z": 0.21592526137828827}, "status": {"flags": 831, "velocity_variance": 0.12720130383968353, "pos_horiz_variance": 0.016150539740920067, "pos_vert_variance": 0.020377252250909805}}, "errors": ["Arm: Gyros inconsistent", "Arm: Compasses inconsistent", "Arm: Gyros inconsistent", "Arm: Compasses inconsistent", "Arm: AHRS: EKF3 Roll/Pitch inconsistent 12 deg. Wa", "it or reboot", "PreArm: Gyros inconsistent", "PreArm: Compasses inconsistent", "PreArm: AHRS: EKF3 Roll/Pitch inconsistent 12 deg.", " Wait or reboot", "RCInput: decoding PPM(1)", "Calibrating barometer", "Barometer 1 calibration complete"]}
{"timestamp": "2026-01-31T07:42:13.689361Z", "telemetry": {"lat": 13.3546865, "lon": 74.8649523, "satellites": 12, "altitude_gps_m": 37.73999786376953, "groundspeed_mps": 0.30641889572143555}, "flight": {"mode": "STABILIZE", "armed": false}, "ekf": {"attitude": {"roll": -0.006257149390876293, "pitch": -0.05162253975868225, "yaw": -1.2012290954589844}, "local_position": {"x": 9.79155158996582, "y": -10.648273468017578, "z": 0.21592526137828827}, "status": {"flags": 831, "velocity_variance": 0.12720130383968353, "pos_horiz_variance": 0.016150539740920067, "pos_vert_variance": 0.020377252250909805}}, "errors": ["Arm: Gyros inconsistent", "Arm: Compasses inconsistent", "Arm: Gyros inconsistent", "Arm: Compasses inconsistent", "Arm: AHRS: EKF3 Roll/Pitch inconsistent 12 deg. Wa", "it or reboot", "PreArm: Gyros inconsistent", "PreArm: Compasses inconsistent", "PreArm: AHRS: EKF3 Roll/Pitch inconsistent 12 deg.", " Wait or reboot", "RCInput: decoding PPM(1)", "Calibrating barometer", "Barometer 1 calibration complete", "Initialising ArduPilot"]}
{"timestamp": "2026-01-31T07:42:14.693451Z", "telemetry": {"lat": 0.0, "lon": 0.0, "satellites": 0, "altitude_gps_m": 37.73999786376953, "groundspeed_mps": 0.30641889572143555}, "flight": {"mode": "LOITER", "armed": false}, "ekf": {"attitude": {"roll": -0.006257149390876293, "pitch": -0.05162253975868225, "yaw": -1.2012290954589844}, "local_position": {"x": 9.79155158996582, "y": -10.648273468017578, "z": 0.21592526137828827}, "status": {"flags": 831, "velocity_variance": 0.12720130383968353, "pos_horiz_variance": 0.016150539740920067, "pos_vert_variance": 0.020377252250909805}}, "errors": ["Arm: Gyros inconsistent", "Arm: Compasses inconsistent", "Arm: Gyros inconsistent", "Arm: Compasses inconsistent", "Arm: AHRS: EKF3 Roll/Pitch inconsistent 12 deg. Wa", "it or reboot", "PreArm: Gyros inconsistent", "PreArm: Compasses inconsistent", "PreArm: AHRS: EKF3 Roll/Pitch inconsistent 12 deg.", " Wait or reboot", "RCInput: decoding PPM(1)", "Calibrating barometer", "Barometer 1 calibration complete", "Initialising ArduPilot", "ArduPilot Ready", "AHRS: DCM active", "RCOut: PWM:1-14"]}
{"timestamp": "2026-01-31T07:42:15.673023Z", "telemetry": {"lat": 0.0, "lon": 0.0, "satellites": 0, "altitude_gps_m": 37.73999786376953, "groundspeed_mps": 0.30641889572143555}, "flight": {"mode": "LOITER", "armed": false}, "ekf": {"attitude": {"roll": -0.006257149390876293, "pitch": -0.05162253975868225, "yaw": -1.2012290954589844}, "local_position": {"x": 9.79155158996582, "y": -10.648273468017578, "z": 0.21592526137828827}, "status": {"flags": 1024, "velocity_variance": 0.0, "pos_horiz_variance": 0.0, "pos_vert_variance": 0.0}}, "errors": ["Arm: Gyros inconsistent", "Arm: Compasses inconsistent", "Arm: Gyros inconsistent", "Arm: Compasses inconsistent", "Arm: AHRS: EKF3 Roll/Pitch inconsistent 12 deg. Wa", "it or reboot", "PreArm: Gyros inconsistent", "PreArm: Compasses inconsistent", "PreArm: AHRS: EKF3 Roll/Pitch inconsistent 12 deg.", " Wait or reboot", "RCInput: decoding PPM(1)", "Calibrating barometer", "Barometer 1 calibration complete", "Initialising ArduPilot", "ArduPilot Ready", "AHRS: DCM active", "RCOut: PWM:1-14"]}
{"timestamp": "2026-01-31T07:42:16.692909Z", "telemetry": {"lat": 0.0, "lon": 0.0, "satellites": 0, "altitude_gps_m": 37.73999786376953, "groundspeed_mps": 0.30641889572143555}, "flight": {"mode": "LOITER", "armed": false}, "ekf": {"attitude": {"roll": -0.006257149390876293, "pitch": -0.05162253975868225, "yaw": -1.2012290954589844}, "local_position": {"x": 9.79155158996582, "y": -10.648273468017578, "z": 0.21592526137828827}, "status": {"flags": 1024, "velocity_variance": 0.0, "pos_horiz_variance": 0.0004540340742096305, "pos_vert_variance": 0.02256130427122116}}, "errors": ["Arm: AHRS: EKF3 Roll/Pitch inconsistent 12 deg. Wa", "it or reboot", "PreArm: Gyros inconsistent", "PreArm: Compasses inconsistent", "PreArm: AHRS: EKF3 Roll/Pitch inconsistent 12 deg.", " Wait or reboot", "RCInput: decoding PPM(1)", "Calibrating barometer", "Barometer 1 calibration complete", "Initialising ArduPilot", "ArduPilot Ready", "AHRS: DCM active", "RCOut: PWM:1-14", "Arm: EKF attitude is bad", "Arm: Compasses inconsistent", "Arm: AHRS: waiting for home", "Arm: IOMCU is unhealthy", "EKF3 IMU0 initialised", "EKF3 IMU1 initialised", "AHRS: EKF3 active"]}
{"timestamp": "2026-01-31T07:42:17.695028Z", "telemetry": {"lat": 0.0, "lon": 0.0, "satellites": 0, "altitude_gps_m": 37.73999786376953, "groundspeed_mps": 0.30641889572143555}, "flight": {"mode": "LOITER", "armed": false}, "ekf": {"attitude": {"roll": -0.006257149390876293, "pitch": -0.05162253975868225, "yaw": -1.2012290954589844}, "local_position": {"x": 9.79155158996582, "y": -10.648273468017578, "z": 0.21592526137828827}, "status": {"flags": 135, "velocity_variance": 0.0, "pos_horiz_variance": 0.0008090773480944335, "pos_vert_variance": 0.01950153335928917}}, "errors": ["PreArm: AHRS: EKF3 Roll/Pitch inconsistent 12 deg.", " Wait or reboot", "RCInput: decoding PPM(1)", "Calibrating barometer", "Barometer 1 calibration complete", "Initialising ArduPilot", "ArduPilot Ready", "AHRS: DCM active", "RCOut: PWM:1-14", "Arm: EKF attitude is bad", "Arm: Compasses inconsistent", "Arm: AHRS: waiting for home", "Arm: IOMCU is unhealthy", "EKF3 IMU0 initialised", "EKF3 IMU1 initialised", "AHRS: EKF3 active", "EKF3 IMU0 tilt alignment complete", "EKF3 IMU1 tilt alignment complete", "EKF3 IMU0 MAG0 initial yaw alignment complete", "EKF3 IMU1 MAG0 initial yaw alignment complete"]}
{"timestamp": "2026-01-31T07:42:18.688354Z", "telemetry": {"lat": 0.0, "lon": 0.0, "satellites": 0, "altitude_gps_m": 37.73999786376953, "groundspeed_mps": 0.30641889572143555}, "flight": {"mode": "LOITER", "armed": false}, "ekf": {"attitude": {"roll": -0.006257149390876293, "pitch": -0.05162253975868225, "yaw": -1.2012290954589844}, "local_position": {"x": 9.79155158996582, "y": -10.648273468017578, "z": 0.21592526137828827}, "status": {"flags": 135, "velocity_variance": 0.0, "pos_horiz_variance": 0.0011009606532752514, "pos_vert_variance": 0.026930974796414375}}, "errors": ["PreArm: AHRS: EKF3 Roll/Pitch inconsistent 12 deg.", " Wait or reboot", "RCInput: decoding PPM(1)", "Calibrating barometer", "Barometer 1 calibration complete", "Initialising ArduPilot", "ArduPilot Ready", "AHRS: DCM active", "RCOut: PWM:1-14", "Arm: EKF attitude is bad", "Arm: Compasses inconsistent", "Arm: AHRS: waiting for home", "Arm: IOMCU is unhealthy", "EKF3 IMU0 initialised", "EKF3 IMU1 initialised", "AHRS: EKF3 active", "EKF3 IMU0 tilt alignment complete", "EKF3 IMU1 tilt alignment complete", "EKF3 IMU0 MAG0 initial yaw alignment complete", "EKF3 IMU1 MAG0 initial yaw alignment complete"]}
{"timestamp": "2026-01-31T07:42:19.689895Z", "telemetry": {"lat": 0.0, "lon": 0.0, "satellites": 0, "altitude_gps_m": 37.73999786376953, "groundspeed_mps": 0.30641889572143555}, "flight": {"mode": "LOITER", "armed": false}, "ekf": {"attitude": {"roll": -0.006257149390876293, "pitch": -0.05162253975868225, "yaw": -1.2012290954589844}, "local_position": {"x": 9.79155158996582, "y": -10.648273468017578, "z": 0.21592526137828827}, "status": {"flags": 135, "velocity_variance": 0.0, "pos_horiz_variance": 0.0007406504591926932, "pos_vert_variance": 0.06253963708877563}}, "errors": ["PreArm: AHRS: EKF3 Roll/Pitch inconsistent 12 deg.", " Wait or reboot", "RCInput: decoding PPM(1)", "Calibrating barometer", "Barometer 1 calibration complete", "Initialising ArduPilot", "ArduPilot Ready", "AHRS: DCM active", "RCOut: PWM:1-14", "Arm: EKF attitude is bad", "Arm: Compasses inconsistent", "Arm: AHRS: waiting for home", "Arm: IOMCU is unhealthy", "EKF3 IMU0 initialised", "EKF3 IMU1 initialised", "AHRS: EKF3 active", "EKF3 IMU0 tilt alignment complete", "EKF3 IMU1 tilt alignment complete", "EKF3 IMU0 MAG0 initial yaw alignment complete", "EKF3 IMU1 MAG0 initial yaw alignment complete"]}
{"timestamp": "2026-01-31T07:42:20.710672Z", "telemetry": {"lat": 0.0, "lon": 0.0, "satellites": 0, "altitude_gps_m": 37.73999786376953, "groundspeed_mps": 0.30641889572143555}, "flight": {"mode": "LOITER", "armed": false}, "ekf": {"attitude": {"roll": -0.006257149390876293, "pitch": -0.05162253975868225, "yaw": -1.2012290954589844}, "local_position": {"x": 9.79155158996582, "y": -10.648273468017578, "z": 0.21592526137828827}, "status": {"flags": 135, "velocity_variance": 0.0, "pos_horiz_variance": 0.000447977363364771, "pos_vert_variance": 0.0592179149389267}}, "errors": ["PreArm: AHRS: EKF3 Roll/Pitch inconsistent 12 deg.", " Wait or reboot", "RCInput: decoding PPM(1)", "Calibrating barometer", "Barometer 1 calibration complete", "Initialising ArduPilot", "ArduPilot Ready", "AHRS: DCM active", "RCOut: PWM:1-14", "Arm: EKF attitude is bad", "Arm: Compasses inconsistent", "Arm: AHRS: waiting for home", "Arm: IOMCU is unhealthy", "EKF3 IMU0 initialised", "EKF3 IMU1 initialised", "AHRS: EKF3 active", "EKF3 IMU0 tilt alignment complete", "EKF3 IMU1 tilt alignment complete", "EKF3 IMU0 MAG0 initial yaw alignment complete", "EKF3 IMU1 MAG0 initial yaw alignment complete"]}
{"timestamp": "2026-01-31T07:42:21.691734Z", "telemetry": {"lat": 13.3546796, "lon": 74.8649485, "satellites": 12, "altitude_gps_m": 37.73999786376953, "groundspeed_mps": 0.30641889572143555}, "flight": {"mode": "LOITER", "armed": false}, "ekf": {"attitude": {"roll": -0.006257149390876293, "pitch": -0.05162253975868225, "yaw": -1.2012290954589844}, "local_position": {"x": 9.79155158996582, "y": -10.648273468017578, "z": 0.21592526137828827}, "status": {"flags": 135, "velocity_variance": 0.0, "pos_horiz_variance": 0.0003676433698274195, "pos_vert_variance": 0.02116227336227894}}, "errors": ["RCInput: decoding PPM(1)", "Calibrating barometer", "Barometer 1 calibration complete", "Initialising ArduPilot", "ArduPilot Ready", "AHRS: DCM active", "RCOut: PWM:1-14", "Arm: EKF attitude is bad", "Arm: Compasses inconsistent", "Arm: AHRS: waiting for home", "Arm: IOMCU is unhealthy", "EKF3 IMU0 initialised", "EKF3 IMU1 initialised", "AHRS: EKF3 active", "EKF3 IMU0 tilt alignment complete", "EKF3 IMU1 tilt alignment complete", "EKF3 IMU0 MAG0 initial yaw alignment complete", "EKF3 IMU1 MAG0 initial yaw alignment complete", "GPS 1: probing for u-blox at 230400 baud", "GPS 1: detected u-blox"]}
