{"timestamp": "2026-01-31T12:35:20.924661Z", "telemetry": {"lat": -11.814613, "lon": 57.4544135, "satellites": 0, "altitude_gps_m": 0.11999999731779099, "groundspeed_mps": 0.06559962034225464}, "flight": {"mode": "STABILIZE", "armed": false}, "ekf": {"attitude": {"roll": -0.029007501900196075, "pitch": -0.006912782788276672, "yaw": -0.22031275928020477}, "local_position": {"x": null, "y": null, "z": null}, "status": {"flags": 135, "velocity_variance": 0.0, "pos_horiz_variance": 0.01616743952035904, "pos_vert_variance": 0.015053545124828815}}, "errors": []}
{"timestamp": "2026-01-31T12:35:21.946256Z", "telemetry": {"lat": -11.7027003, "lon": 60.059823, "satellites": 0, "altitude_gps_m": 0.11999999731779099, "groundspeed_mps": 0.06588569283485413}, "flight": {"mode": "STABILIZE", "armed": false}, "ekf": {"attitude": {"roll": -0.028956593945622444, "pitch": -0.006990525871515274, "yaw": -0.2202521711587906}, "local_position": {"x": null, "y": null, "z": null}, "status": {"flags": 135, "velocity_variance": 0.0, "pos_horiz_variance": 0.01616501435637474, "pos_vert_variance": 0.04363773763179779}}, "errors": []}
{"timestamp": "2026-01-31T12:35:22.946025Z", "telemetry": {"lat": -11.7011648, "lon": 60.0594993, "satellites": 0, "altitude_gps_m": 0.11999999731779099, "groundspeed_mps": 0.06945822387933731}, "flight": {"mode": "STABILIZE", "armed": false}, "ekf": {"attitude": {"roll": -0.028905140236020088, "pitch": -0.007052130997180939, "yaw": -0.2202831655740738}, "local_position": {"x": null, "y": null, "z": null}, "status": {"flags": 135, "velocity_variance": 0.0, "pos_horiz_variance": 0.01636618748307228, "pos_vert_variance": 0.014100479893386364}}, "errors": []}
{"timestamp": "2026-01-31T12:35:23.946069Z", "telemetry": {"lat": -11.6996293, "lon": 60.0591755, "satellites": 0, "altitude_gps_m": 0.11999999731779099, "groundspeed_mps": 0.07191850244998932}, "flight": {"mode": "STABILIZE", "armed": false}, "ekf": {"attitude": {"roll": -0.028925547376275063, "pitch": -0.0070607103407382965, "yaw": -0.2201201319694519}, "local_position": {"x": null, "y": null, "z": null}, "status": {"flags": 135, "velocity_variance": 0.0, "pos_horiz_variance": 0.016867369413375854, "pos_vert_variance": 0.010090294294059277}}, "errors": []}
{"timestamp": "2026-01-31T12:35:24.946653Z", "telemetry": {"lat": -11.6965583, "lon": 60.0585275, "satellites": 0, "altitude_gps_m": 0.11999999731779099, "groundspeed_mps": 0.07233533263206482}, "flight": {"mode": "STABILIZE", "armed": false}, "ekf": {"attitude": {"roll": -0.02881508506834507, "pitch": -0.0071594081819057465, "yaw": -0.22008664906024933}, "local_position": {"x": null, "y": null, "z": null}, "status": {"flags": 135, "velocity_variance": 0.0, "pos_horiz_variance": 0.01729021780192852, "pos_vert_variance": 0.13533343374729156}}, "errors": []}
{"timestamp": "2026-01-31T12:35:25.946268Z", "telemetry": {"lat": -11.5102974, "lon": 63.5782316, "satellites": 0, "altitude_gps_m": 0.11999999731779099, "groundspeed_mps": 0.07050642371177673}, "flight": {"mode": "STABILIZE", "armed": false}, "ekf": {"attitude": {"roll": -0.028802314773201942, "pitch": -0.0072122663259506226, "yaw": -0.21995380520820618}, "local_position": {"x": null, "y": null, "z": null}, "status": {"flags": 135, "velocity_variance": 0.0, "pos_horiz_variance": 0.017369039356708527, "pos_vert_variance": 0.034698717296123505}}, "errors": []}
{"timestamp": "2026-01-31T12:35:26.946060Z", "telemetry": {"lat": -11.5088342, "lon": 63.5777948, "satellites": 0, "altitude_gps_m": 0.11999999731779099, "groundspeed_mps": 0.07112632691860199}, "flight": {"mode": "STABILIZE", "armed": false}, "ekf": {"attitude": {"roll": -0.02890576794743538, "pitch": -0.007130857557058334, "yaw": -0.21990108489990234}, "local_position": {"x": null, "y": null, "z": null}, "status": {"flags": 135, "velocity_variance": 0.0, "pos_horiz_variance": 0.01739402674138546, "pos_vert_variance": 0.012659484520554543}}, "errors": []}
{"timestamp": "2026-01-31T12:35:27.945935Z", "telemetry": {"lat": -11.5073711, "lon": 63.5773578, "satellites": 0, "altitude_gps_m": 0.11999999731779099, "groundspeed_mps": 0.07016309350728989}, "flight": {"mode": "STABILIZE", "armed": false}, "ekf": {"attitude": {"roll": -0.029158417135477066, "pitch": -0.006949618458747864, "yaw": -0.2198788821697235}, "local_position": {"x": null, "y": null, "z": null}, "status": {"flags": 135, "velocity_variance": 0.0, "pos_horiz_variance": 0.017395785078406334, "pos_vert_variance": 0.025489330291748047}}, "errors": []}
{"timestamp": "2026-01-31T12:35:28.946587Z", "telemetry": {"lat": -11.5056153, "lon": 63.5768331, "satellites": 0, "altitude_gps_m": 0.11999999731779099, "groundspeed_mps": 0.06790308654308319}, "flight": {"mode": "STABILIZE", "armed": false}, "ekf": {"attitude": {"roll": -0.029436539858579636, "pitch": -0.006864689290523529, "yaw": -0.2198193222284317}, "local_position": {"x": null, "y": null, "z": null}, "status": {"flags": 135, "velocity_variance": 0.0, "pos_horiz_variance": 0.017016861587762833, "pos_vert_variance": 0.001995470840483904}}, "errors": []}
{"timestamp": "2026-01-31T12:35:29.946170Z", "telemetry": {"lat": -11.5044446, "lon": 63.5764831, "satellites": 0, "altitude_gps_m": 0.11999999731779099, "groundspeed_mps": 0.06668966263532639}, "flight": {"mode": "STABILIZE", "armed": false}, "ekf": {"attitude": {"roll": -0.02962931990623474, "pitch": -0.0066987574100494385, "yaw": -0.21980556845664978}, "local_position": {"x": null, "y": null, "z": null}, "status": {"flags": 135, "velocity_variance": 0.0, "pos_horiz_variance": 0.0168653205037117, "pos_vert_variance": 0.017809079959988594}}, "errors": []}
{"timestamp": "2026-01-31T12:35:30.946842Z", "telemetry": {"lat": -11.5029814, "lon": 63.5760456, "satellites": 0, "altitude_gps_m": 0.11999999731779099, "groundspeed_mps": 0.0660616084933281}, "flight": {"mode": "STABILIZE", "armed": false}, "ekf": {"attitude": {"roll": -0.029657116159796715, "pitch": -0.006640005856752396, "yaw": -0.21970520913600922}, "local_position": {"x": null, "y": null, "z": null}, "status": {"flags": 135, "velocity_variance": 0.0, "pos_horiz_variance": 0.01660958118736744, "pos_vert_variance": 0.03180630877614021}}, "errors": []}
{"timestamp": "2026-01-31T12:35:31.946631Z", "telemetry": {"lat": -11.5012255, "lon": 63.5755202, "satellites": 0, "altitude_gps_m": 0.11999999731779099, "groundspeed_mps": 0.06256367266178131}, "flight": {"mode": "STABILIZE", "armed": false}, "ekf": {"attitude": {"roll": -0.029698777943849564, "pitch": -0.0065572671592235565, "yaw": -0.21968941390514374}, "local_position": {"x": null, "y": null, "z": null}, "status": {"flags": 135, "velocity_variance": 0.0, "pos_horiz_variance": 0.01598067209124565, "pos_vert_variance": 0.05301707610487938}}, "errors": ["PreArm: RC not found", "PreArm: Hardware safety switch", "PreArm: Compasses inconsistent"]}
{"timestamp": "2026-01-31T12:35:32.946130Z", "telemetry": {"lat": -11.5000549, "lon": 63.5751698, "satellites": 0, "altitude_gps_m": 0.11999999731779099, "groundspeed_mps": 0.06233802065253258}, "flight": {"mode": "STABILIZE", "armed": false}, "ekf": {"attitude": {"roll": -0.029814835637807846, "pitch": -0.0066037289798259735, "yaw": -0.21975427865982056}, "local_position": {"x": null, "y": null, "z": null}, "status": {"flags": 135, "velocity_variance": 0.0, "pos_horiz_variance": 0.015625983476638794, "pos_vert_variance": 0.01367144100368023}}, "errors": ["PreArm: RC not found", "PreArm: Hardware safety switch", "PreArm: Compasses inconsistent"]}
{"timestamp": "2026-01-31T12:35:33.946769Z", "telemetry": {"lat": -11.4985917, "lon": 63.5747317, "satellites": 0, "altitude_gps_m": 0.11999999731779099, "groundspeed_mps": 0.06205125153064728}, "flight": {"mode": "STABILIZE", "armed": false}, "ekf": {"attitude": {"roll": -0.029877187684178352, "pitch": -0.0065651871263980865, "yaw": -0.21984410285949707}, "local_position": {"x": null, "y": null, "z": null}, "status": {"flags": 135, "velocity_variance": 0.0, "pos_horiz_variance": 0.015490947291254997, "pos_vert_variance": 0.06409850716590881}}, "errors": ["PreArm: RC not found", "PreArm: Hardware safety switch", "PreArm: Compasses inconsistent"]}
{"timestamp": "2026-01-31T12:35:34.946923Z", "telemetry": {"lat": -11.6394619, "lon": 60.8613948, "satellites": 0, "altitude_gps_m": 0.11999999731779099, "groundspeed_mps": 0.062209974974393845}, "flight": {"mode": "STABILIZE", "armed": false}, "ekf": {"attitude": {"roll": -0.02993089146912098, "pitch": -0.006569378077983856, "yaw": -0.21984592080116272}, "local_position": {"x": null, "y": null, "z": null}, "status": {"flags": 135, "velocity_variance": 0.0, "pos_horiz_variance": 0.015387829393148422, "pos_vert_variance": 0.03363458067178726}}, "errors": ["PreArm: RC not found", "PreArm: Hardware safety switch", "PreArm: Compasses inconsistent"]}
{"timestamp": "2026-01-31T12:35:35.946473Z", "telemetry": {"lat": -11.6380094, "lon": 60.8610626, "satellites": 0, "altitude_gps_m": 0.11999999731779099, "groundspeed_mps": 0.06341775506734848}, "flight": {"mode": "STABILIZE", "armed": false}, "ekf": {"attitude": {"roll": -0.029969070106744766, "pitch": -0.006594769656658173, "yaw": -0.21984347701072693}, "local_position": {"x": null, "y": null, "z": null}, "status": {"flags": 135, "velocity_variance": 0.0, "pos_horiz_variance": 0.015214306302368641, "pos_vert_variance": 0.023153791204094887}}, "errors": ["PreArm: RC not found", "PreArm: Hardware safety switch", "PreArm: Compasses inconsistent"]}
{"timestamp": "2026-01-31T12:35:36.946623Z", "telemetry": {"lat": -11.6358307, "lon": 60.8605641, "satellites": 0, "altitude_gps_m": 0.11999999731779099, "groundspeed_mps": 0.06455768644809723}, "flight": {"mode": "STABILIZE", "armed": false}, "ekf": {"attitude": {"roll": -0.030015554279088974, "pitch": -0.006535608321428299, "yaw": -0.21994683146476746}, "local_position": {"x": null, "y": null, "z": null}, "status": {"flags": 135, "velocity_variance": 0.0, "pos_horiz_variance": 0.015530400909483433, "pos_vert_variance": 0.045523084700107574}}, "errors": ["PreArm: RC not found", "PreArm: Hardware safety switch", "PreArm: Compasses inconsistent"]}
{"timestamp": "2026-01-31T12:35:37.946643Z", "telemetry": {"lat": -11.6340151, "lon": 60.8601484, "satellites": 0, "altitude_gps_m": 0.11999999731779099, "groundspeed_mps": 0.06368251144886017}, "flight": {"mode": "STABILIZE", "armed": false}, "ekf": {"attitude": {"roll": -0.029924795031547546, "pitch": -0.006490178406238556, "yaw": -0.22001586854457855}, "local_position": {"x": null, "y": null, "z": null}, "status": {"flags": 135, "velocity_variance": 0.0, "pos_horiz_variance": 0.015712760388851166, "pos_vert_variance": 0.002432939363643527}}, "errors": ["PreArm: RC not found", "PreArm: Hardware safety switch", "PreArm: Compasses inconsistent"]}
{"timestamp": "2026-01-31T12:35:38.946435Z", "telemetry": {"lat": -11.6325626, "lon": 60.8598158, "satellites": 0, "altitude_gps_m": 0.11999999731779099, "groundspeed_mps": 0.0613856166601181}, "flight": {"mode": "STABILIZE", "armed": false}, "ekf": {"attitude": {"roll": -0.029889145866036415, "pitch": -0.00659199059009552, "yaw": -0.22011128067970276}, "local_position": {"x": null, "y": null, "z": null}, "status": {"flags": 135, "velocity_variance": 0.0, "pos_horiz_variance": 0.01551851723343134, "pos_vert_variance": 0.005577525589615107}}, "errors": ["PreArm: RC not found", "PreArm: Hardware safety switch", "PreArm: Compasses inconsistent"]}
{"timestamp": "2026-01-31T12:35:39.946308Z", "telemetry": {"lat": -11.6303856, "lon": 60.859317, "satellites": 0, "altitude_gps_m": 0.11999999731779099, "groundspeed_mps": 0.06544511765241623}, "flight": {"mode": "STABILIZE", "armed": false}, "ekf": {"attitude": {"roll": -0.029807457700371742, "pitch": -0.006712004542350769, "yaw": -0.22019095718860626}, "local_position": {"x": null, "y": null, "z": null}, "status": {"flags": 135, "velocity_variance": 0.0, "pos_horiz_variance": 0.015470697544515133, "pos_vert_variance": 0.043794747442007065}}, "errors": ["PreArm: RC not found", "PreArm: Hardware safety switch", "PreArm: Compasses inconsistent"]}
{"timestamp": "2026-01-31T12:35:40.946414Z", "telemetry": {"lat": -11.94559, "lon": 47.032103, "satellites": 0, "altitude_gps_m": 0.11999999731779099, "groundspeed_mps": 0.03988189250230789}, "flight": {"mode": "STABILIZE", "armed": false}, "ekf": {"attitude": {"roll": 0.031248606741428375, "pitch": -0.04930524900555611, "yaw": -0.28590890765190125}, "local_position": {"x": null, "y": null, "z": null}, "status": {"flags": 135, "velocity_variance": 0.0, "pos_horiz_variance": 0.014326459728181362, "pos_vert_variance": 0.001195028773508966}}, "errors": ["PreArm: RC not found", "PreArm: Hardware safety switch", "PreArm: Compasses inconsistent"]}
{"timestamp": "2026-01-31T12:35:41.946859Z", "telemetry": {"lat": -11.8489131, "lon": 40.1912145, "satellites": 0, "altitude_gps_m": 0.11999999731779099, "groundspeed_mps": 0.27820104360580444}, "flight": {"mode": "STABILIZE", "armed": false}, "ekf": {"attitude": {"roll": 0.022931920364499092, "pitch": -0.07500964403152466, "yaw": -0.6938813924789429}, "local_position": {"x": null, "y": null, "z": null}, "status": {"flags": 135, "velocity_variance": 0.0, "pos_horiz_variance": 0.04010261967778206, "pos_vert_variance": 0.03406631574034691}}, "errors": ["PreArm: RC not found", "PreArm: Hardware safety switch", "PreArm: Compasses inconsistent"]}
{"timestamp": "2026-01-31T12:35:42.946482Z", "telemetry": {"lat": -11.6406832, "lon": 34.4868259, "satellites": 0, "altitude_gps_m": 0.11999999731779099, "groundspeed_mps": 0.34726932644844055}, "flight": {"mode": "STABILIZE", "armed": false}, "ekf": {"attitude": {"roll": -0.04696591570973396, "pitch": -0.011356163769960403, "yaw": -0.15361805260181427}, "local_position": {"x": null, "y": null, "z": null}, "status": {"flags": 135, "velocity_variance": 0.0, "pos_horiz_variance": 0.05662403255701065, "pos_vert_variance": 0.019502995535731316}}, "errors": ["PreArm: RC not found", "PreArm: Hardware safety switch", "PreArm: Compasses inconsistent"]}
{"timestamp": "2026-01-31T12:35:43.946424Z", "telemetry": {"lat": -11.495158, "lon": 31.7065875, "satellites": 0, "altitude_gps_m": 0.11999999731779099, "groundspeed_mps": 0.2326740026473999}, "flight": {"mode": "STABILIZE", "armed": false}, "ekf": {"attitude": {"roll": -0.03158634155988693, "pitch": -0.010336695238947868, "yaw": -0.15026147663593292}, "local_position": {"x": null, "y": null, "z": null}, "status": {"flags": 135, "velocity_variance": 0.0, "pos_horiz_variance": 0.04900600388646126, "pos_vert_variance": 0.029544958844780922}}, "errors": ["PreArm: RC not found", "PreArm: Hardware safety switch", "PreArm: Compasses inconsistent"]}
{"timestamp": "2026-01-31T12:35:44.946851Z", "telemetry": {"lat": -11.4899858, "lon": 31.7067077, "satellites": 0, "altitude_gps_m": 0.11999999731779099, "groundspeed_mps": 0.04141802713274956}, "flight": {"mode": "STABILIZE", "armed": false}, "ekf": {"attitude": {"roll": -0.029467031359672546, "pitch": -0.00929129496216774, "yaw": -0.1639430671930313}, "local_position": {"x": null, "y": null, "z": null}, "status": {"flags": 135, "velocity_variance": 0.0, "pos_horiz_variance": 0.027145294472575188, "pos_vert_variance": 0.011113421991467476}}, "errors": ["PreArm: RC not found", "PreArm: Hardware safety switch", "PreArm: Compasses inconsistent"]}
{"timestamp": "2026-01-31T12:35:45.946785Z", "telemetry": {"lat": -11.9218428, "lon": 45.5488753, "satellites": 0, "altitude_gps_m": 0.11999999731779099, "groundspeed_mps": 0.011516205966472626}, "flight": {"mode": "STABILIZE", "armed": false}, "ekf": {"attitude": {"roll": -0.028949297964572906, "pitch": -0.009133588522672653, "yaw": -0.16393475234508514}, "local_position": {"x": null, "y": null, "z": null}, "status": {"flags": 135, "velocity_variance": 0.0, "pos_horiz_variance": 0.015803035348653793, "pos_vert_variance": 0.029522189870476723}}, "errors": ["PreArm: RC not found", "PreArm: Hardware safety switch", "PreArm: Compasses inconsistent"]}
{"timestamp": "2026-01-31T12:35:46.946641Z", "telemetry": {"lat": -11.8539569, "lon": 53.986419, "satellites": 0, "altitude_gps_m": 0.11999999731779099, "groundspeed_mps": 0.006995505653321743}, "flight": {"mode": "STABILIZE", "armed": false}, "ekf": {"attitude": {"roll": -0.02891205996274948, "pitch": -0.009443797171115875, "yaw": -0.16393820941448212}, "local_position": {"x": null, "y": null, "z": null}, "status": {"flags": 135, "velocity_variance": 0.0, "pos_horiz_variance": 0.006161935161799192, "pos_vert_variance": 0.049700990319252014}}, "errors": ["PreArm: RC not found", "PreArm: Hardware safety switch", "PreArm: Compasses inconsistent"]}
{"timestamp": "2026-01-31T12:35:47.946354Z", "telemetry": {"lat": -11.7533508, "lon": 57.4441398, "satellites": 0, "altitude_gps_m": 0.11999999731779099, "groundspeed_mps": 0.02178019843995571}, "flight": {"mode": "STABILIZE", "armed": false}, "ekf": {"attitude": {"roll": -0.028782546520233154, "pitch": -0.009803958237171173, "yaw": -0.16370010375976562}, "local_position": {"x": null, "y": null, "z": null}, "status": {"flags": 135, "velocity_variance": 0.0, "pos_horiz_variance": 0.005379637237638235, "pos_vert_variance": 0.016837486997246742}}, "errors": ["PreArm: RC not found", "PreArm: Hardware safety switch", "PreArm: Compasses inconsistent"]}
{"timestamp": "2026-01-31T12:35:48.946909Z", "telemetry": {"lat": -11.7515513, "lon": 57.4438358, "satellites": 0, "altitude_gps_m": 0.11999999731779099, "groundspeed_mps": 0.04190951585769653}, "flight": {"mode": "STABILIZE", "armed": false}, "ekf": {"attitude": {"roll": -0.0285373255610466, "pitch": -0.010303713381290436, "yaw": -0.16365066170692444}, "local_position": {"x": null, "y": null, "z": null}, "status": {"flags": 135, "velocity_variance": 0.0, "pos_horiz_variance": 0.0067893583327531815, "pos_vert_variance": 0.08992134034633636}}, "errors": ["PreArm: RC not found", "PreArm: Hardware safety switch", "PreArm: Compasses inconsistent"]}
{"timestamp": "2026-01-31T12:35:49.946812Z", "telemetry": {"lat": -11.7488487, "lon": 57.443379, "satellites": 0, "altitude_gps_m": 0.11999999731779099, "groundspeed_mps": 0.0533892922103405}, "flight": {"mode": "STABILIZE", "armed": false}, "ekf": {"attitude": {"roll": -0.02851323038339615, "pitch": -0.010546984151005745, "yaw": -0.16350196301937103}, "local_position": {"x": null, "y": null, "z": null}, "status": {"flags": 135, "velocity_variance": 0.0, "pos_horiz_variance": 0.010681256651878357, "pos_vert_variance": 0.09765644371509552}}, "errors": ["PreArm: RC not found", "PreArm: Hardware safety switch", "PreArm: Compasses inconsistent"]}
{"timestamp": "2026-01-31T12:35:50.946061Z", "telemetry": {"lat": -11.7470469, "lon": 57.4430743, "satellites": 0, "altitude_gps_m": 0.11999999731779099, "groundspeed_mps": 0.061870165169239044}, "flight": {"mode": "STABILIZE", "armed": false}, "ekf": {"attitude": {"roll": -0.028535883873701096, "pitch": -0.010760404169559479, "yaw": -0.1632729321718216}, "local_position": {"x": null, "y": null, "z": null}, "status": {"flags": 135, "velocity_variance": 0.0, "pos_horiz_variance": 0.012256990186870098, "pos_vert_variance": 0.028258152306079865}}, "errors": ["PreArm: RC not found", "PreArm: Hardware safety switch", "PreArm: Compasses inconsistent"]}
{"timestamp": "2026-01-31T12:35:51.946608Z", "telemetry": {"lat": -11.6447283, "lon": 60.0475176, "satellites": 0, "altitude_gps_m": 0.11999999731779099, "groundspeed_mps": 0.06615052372217178}, "flight": {"mode": "STABILIZE", "armed": false}, "ekf": {"attitude": {"roll": -0.02851124107837677, "pitch": -0.010898079723119736, "yaw": -0.163130983710289}, "local_position": {"x": null, "y": null, "z": null}, "status": {"flags": 135, "velocity_variance": 0.0, "pos_horiz_variance": 0.01407866831868887, "pos_vert_variance": 0.03596929833292961}}, "errors": ["PreArm: RC not found", "PreArm: Hardware safety switch", "PreArm: Compasses inconsistent"]}
{"timestamp": "2026-01-31T12:35:52.946332Z", "telemetry": {"lat": -11.7420921, "lon": 57.4422357, "satellites": 0, "altitude_gps_m": 0.11999999731779099, "groundspeed_mps": 0.06926550716161728}, "flight": {"mode": "STABILIZE", "armed": false}, "ekf": {"attitude": {"roll": -0.0284649059176445, "pitch": -0.010883210226893425, "yaw": -0.16307231783866882}, "local_position": {"x": null, "y": null, "z": null}, "status": {"flags": 135, "velocity_variance": 0.0, "pos_horiz_variance": 0.015483947470784187, "pos_vert_variance": 0.024503998458385468}}, "errors": ["PreArm: RC not found", "PreArm: Hardware safety switch", "PreArm: Compasses inconsistent"]}
{"timestamp": "2026-01-31T12:35:53.946603Z", "telemetry": {"lat": -11.7398398, "lon": 57.4418543, "satellites": 0, "altitude_gps_m": 0.11999999731779099, "groundspeed_mps": 0.07004973292350769}, "flight": {"mode": "STABILIZE", "armed": false}, "ekf": {"attitude": {"roll": -0.028441758826375008, "pitch": -0.010962724685668945, "yaw": -0.16300934553146362}, "local_position": {"x": null, "y": null, "z": null}, "status": {"flags": 135, "velocity_variance": 0.0, "pos_horiz_variance": 0.016301730647683144, "pos_vert_variance": 0.0994262769818306}}, "errors": ["PreArm: RC not found", "PreArm: Hardware safety switch", "PreArm: Compasses inconsistent"]}
{"timestamp": "2026-01-31T12:35:54.945926Z", "telemetry": {"lat": -11.7375876, "lon": 57.4414726, "satellites": 0, "altitude_gps_m": 0.11999999731779099, "groundspeed_mps": 0.06789667159318924}, "flight": {"mode": "STABILIZE", "armed": false}, "ekf": {"attitude": {"roll": -0.028514979407191277, "pitch": -0.01095789298415184, "yaw": -0.16295142471790314}, "local_position": {"x": null, "y": null, "z": null}, "status": {"flags": 135, "velocity_variance": 0.0, "pos_horiz_variance": 0.01639559306204319, "pos_vert_variance": 0.024731582030653954}}, "errors": ["PreArm: RC not found", "PreArm: Hardware safety switch", "PreArm: Compasses inconsistent"]}
{"timestamp": "2026-01-31T12:35:55.946010Z", "telemetry": {"lat": -11.7357858, "lon": 57.4411671, "satellites": 0, "altitude_gps_m": 0.11999999731779099, "groundspeed_mps": 0.06368602812290192}, "flight": {"mode": "STABILIZE", "armed": false}, "ekf": {"attitude": {"roll": -0.028381023555994034, "pitch": -0.010828094556927681, "yaw": -0.16279737651348114}, "local_position": {"x": null, "y": null, "z": null}, "status": {"flags": 135, "velocity_variance": 0.0, "pos_horiz_variance": 0.01616055518388748, "pos_vert_variance": 0.0326947420835495}}, "errors": ["PreArm: RC not found", "PreArm: Hardware safety switch", "PreArm: Compasses inconsistent"]}
{"timestamp": "2026-01-31T12:35:56.946384Z", "telemetry": {"lat": -11.7019394, "lon": 58.336073, "satellites": 0, "altitude_gps_m": 0.11999999731779099, "groundspeed_mps": 0.06123633310198784}, "flight": {"mode": "STABILIZE", "armed": false}, "ekf": {"attitude": {"roll": -0.028344105929136276, "pitch": -0.010836385190486908, "yaw": -0.1627458781003952}, "local_position": {"x": null, "y": null, "z": null}, "status": {"flags": 135, "velocity_variance": 0.0, "pos_horiz_variance": 0.015353371389210224, "pos_vert_variance": 0.005361950024962425}}, "errors": ["PreArm: RC not found", "PreArm: Hardware safety switch", "PreArm: Compasses inconsistent"]}
{"timestamp": "2026-01-31T12:35:57.946486Z", "telemetry": {"lat": -11.8002711, "lon": 55.0384858, "satellites": 0, "altitude_gps_m": 0.11999999731779099, "groundspeed_mps": 0.061232972890138626}, "flight": {"mode": "STABILIZE", "armed": false}, "ekf": {"attitude": {"roll": -0.02827301435172558, "pitch": -0.0109043437987566, "yaw": -0.16253814101219177}, "local_position": {"x": null, "y": null, "z": null}, "status": {"flags": 135, "velocity_variance": 0.0, "pos_horiz_variance": 0.015046634711325169, "pos_vert_variance": 0.0044745490886271}}, "errors": ["PreArm: RC not found", "PreArm: Hardware safety switch", "PreArm: Compasses inconsistent"]}
{"timestamp": "2026-01-31T12:35:58.946060Z", "telemetry": {"lat": -11.7285786, "lon": 57.4399439, "satellites": 0, "altitude_gps_m": 0.11999999731779099, "groundspeed_mps": 0.06315314024686813}, "flight": {"mode": "STABILIZE", "armed": false}, "ekf": {"attitude": {"roll": -0.028178630396723747, "pitch": -0.010889308527112007, "yaw": -0.16235429048538208}, "local_position": {"x": null, "y": null, "z": null}, "status": {"flags": 135, "velocity_variance": 0.0, "pos_horiz_variance": 0.014939325861632824, "pos_vert_variance": 0.022219981998205185}}, "errors": ["PreArm: RC not found", "PreArm: Hardware safety switch", "PreArm: Compasses inconsistent"]}
{"timestamp": "2026-01-31T12:35:59.946671Z", "telemetry": {"lat": -11.7267767, "lon": 57.4396378, "satellites": 0, "altitude_gps_m": 0.11999999731779099, "groundspeed_mps": 0.06423685699701309}, "flight": {"mode": "STABILIZE", "armed": false}, "ekf": {"attitude": {"roll": -0.028159070760011673, "pitch": -0.010899167507886887, "yaw": -0.16211411356925964}, "local_position": {"x": null, "y": null, "z": null}, "status": {"flags": 135, "velocity_variance": 0.0, "pos_horiz_variance": 0.015244214795529842, "pos_vert_variance": 0.014534774236381054}}, "errors": ["PreArm: RC not found", "PreArm: Hardware safety switch", "PreArm: Compasses inconsistent"]}
{"timestamp": "2026-01-31T12:36:00.945986Z", "telemetry": {"lat": -11.8541796, "lon": 51.713685, "satellites": 0, "altitude_gps_m": 0.11999999731779099, "groundspeed_mps": 0.06417611241340637}, "flight": {"mode": "STABILIZE", "armed": false}, "ekf": {"attitude": {"roll": -0.02822871133685112, "pitch": -0.011001596227288246, "yaw": -0.16201816499233246}, "local_position": {"x": null, "y": null, "z": null}, "status": {"flags": 135, "velocity_variance": 0.0, "pos_horiz_variance": 0.015573931857943535, "pos_vert_variance": 0.0002488416794221848}}, "errors": ["PreArm: RC not found", "PreArm: Hardware safety switch", "PreArm: Compasses inconsistent"]}
{"timestamp": "2026-01-31T12:36:01.945955Z", "telemetry": {"lat": -11.7218216, "lon": 57.4387954, "satellites": 0, "altitude_gps_m": 0.11999999731779099, "groundspeed_mps": 0.06424256414175034}, "flight": {"mode": "STABILIZE", "armed": false}, "ekf": {"attitude": {"roll": -0.028292326256632805, "pitch": -0.01088302955031395, "yaw": -0.1618482917547226}, "local_position": {"x": null, "y": null, "z": null}, "status": {"flags": 135, "velocity_variance": 0.0, "pos_horiz_variance": 0.01558463741093874, "pos_vert_variance": 0.06687809526920319}}, "errors": ["PreArm: RC not found", "PreArm: Hardware safety switch", "PreArm: Compasses inconsistent"]}
{"timestamp": "2026-01-31T12:36:02.945893Z", "telemetry": {"lat": -11.8115242, "lon": 53.9811205, "satellites": 0, "altitude_gps_m": 0.11999999731779099, "groundspeed_mps": 0.06678806245326996}, "flight": {"mode": "STABILIZE", "armed": false}, "ekf": {"attitude": {"roll": -0.028341634199023247, "pitch": -0.010873500257730484, "yaw": -0.16180306673049927}, "local_position": {"x": null, "y": null, "z": null}, "status": {"flags": 135, "velocity_variance": 0.0, "pos_horiz_variance": 0.01578313112258911, "pos_vert_variance": 0.02246832475066185}}, "errors": ["PreArm: RC not found", "PreArm: Hardware safety switch", "PreArm: Compasses inconsistent"]}
{"timestamp": "2026-01-31T12:36:03.946332Z", "telemetry": {"lat": -11.8083014, "lon": 53.9807159, "satellites": 0, "altitude_gps_m": 0.11999999731779099, "groundspeed_mps": 0.06998476386070251}, "flight": {"mode": "STABILIZE", "armed": false}, "ekf": {"attitude": {"roll": -0.02843528240919113, "pitch": -0.010908208787441254, "yaw": -0.1616324484348297}, "local_position": {"x": null, "y": null, "z": null}, "status": {"flags": 135, "velocity_variance": 0.0, "pos_horiz_variance": 0.016373544931411743, "pos_vert_variance": 0.030608881264925003}}, "errors": ["PreArm: RC not found", "PreArm: Hardware safety switch", "PreArm: Compasses inconsistent", "PreArm: RC not found", "PreArm: Hardware safety switch"]}
{"timestamp": "2026-01-31T12:36:04.945961Z", "telemetry": {"lat": -11.8061529, "lon": 53.9804461, "satellites": 0, "altitude_gps_m": 0.11999999731779099, "groundspeed_mps": 0.06687358766794205}, "flight": {"mode": "STABILIZE", "armed": false}, "ekf": {"attitude": {"roll": -0.028510114178061485, "pitch": -0.010782990604639053, "yaw": -0.16139352321624756}, "local_position": {"x": null, "y": null, "z": null}, "status": {"flags": 135, "velocity_variance": 0.0, "pos_horiz_variance": 0.01657741889357567, "pos_vert_variance": 0.044752832502126694}}, "errors": ["PreArm: RC not found", "PreArm: Hardware safety switch", "PreArm: Compasses inconsistent", "PreArm: RC not found", "PreArm: Hardware safety switch"]}
{"timestamp": "2026-01-31T12:36:05.946250Z", "telemetry": {"lat": -11.8514231, "lon": 50.5013385, "satellites": 0, "altitude_gps_m": 0.11999999731779099, "groundspeed_mps": 0.062172625213861465}, "flight": {"mode": "STABILIZE", "armed": false}, "ekf": {"attitude": {"roll": -0.028506236150860786, "pitch": -0.010561062023043633, "yaw": -0.1612832248210907}, "local_position": {"x": null, "y": null, "z": null}, "status": {"flags": 135, "velocity_variance": 0.0, "pos_horiz_variance": 0.01592623069882393, "pos_vert_variance": 0.02482231706380844}}, "errors": ["PreArm: RC not found", "PreArm: Hardware safety switch", "PreArm: Compasses inconsistent", "PreArm: RC not found", "PreArm: Hardware safety switch"]}
{"timestamp": "2026-01-31T12:36:06.946027Z", "telemetry": {"lat": -11.8002443, "lon": 53.9797034, "satellites": 0, "altitude_gps_m": 0.11999999731779099, "groundspeed_mps": 0.05912305787205696}, "flight": {"mode": "STABILIZE", "armed": false}, "ekf": {"attitude": {"roll": -0.028651608154177666, "pitch": -0.010416336357593536, "yaw": -0.1612449437379837}, "local_position": {"x": null, "y": null, "z": null}, "status": {"flags": 135, "velocity_variance": 0.0, "pos_horiz_variance": 0.0150295440107584, "pos_vert_variance": 0.032705292105674744}}, "errors": ["PreArm: RC not found", "PreArm: Hardware safety switch", "PreArm: Compasses inconsistent", "PreArm: RC not found", "PreArm: Hardware safety switch"]}
{"timestamp": "2026-01-31T12:36:07.946839Z", "telemetry": {"lat": -11.8452006, "lon": 50.5007723, "satellites": 0, "altitude_gps_m": 0.11999999731779099, "groundspeed_mps": 0.054572369903326035}, "flight": {"mode": "STABILIZE", "armed": false}, "ekf": {"attitude": {"roll": -0.028688471764326096, "pitch": -0.010328594595193863, "yaw": -0.16116668283939362}, "local_position": {"x": null, "y": null, "z": null}, "status": {"flags": 135, "velocity_variance": 0.0, "pos_horiz_variance": 0.014237799681723118, "pos_vert_variance": 0.06722899526357651}}, "errors": ["PreArm: RC not found", "PreArm: Hardware safety switch", "PreArm: Compasses inconsistent", "PreArm: RC not found", "PreArm: Hardware safety switch"]}
{"timestamp": "2026-01-31T12:36:08.946954Z", "telemetry": {"lat": -11.8420894, "lon": 50.5004889, "satellites": 0, "altitude_gps_m": 0.11999999731779099, "groundspeed_mps": 0.051989421248435974}, "flight": {"mode": "STABILIZE", "armed": false}, "ekf": {"attitude": {"roll": -0.02886582911014557, "pitch": -0.010289069265127182, "yaw": -0.16104568541049957}, "local_position": {"x": null, "y": null, "z": null}, "status": {"flags": 135, "velocity_variance": 0.0, "pos_horiz_variance": 0.013360502198338509, "pos_vert_variance": 0.1156986802816391}}, "errors": ["PreArm: RC not found", "PreArm: Hardware safety switch", "PreArm: Compasses inconsistent", "PreArm: RC not found", "PreArm: Hardware safety switch"]}
{"timestamp": "2026-01-31T12:36:09.946336Z", "telemetry": {"lat": -11.8389782, "lon": 50.5002054, "satellites": 0, "altitude_gps_m": 0.11999999731779099, "groundspeed_mps": 0.05222047120332718}, "flight": {"mode": "STABILIZE", "armed": false}, "ekf": {"attitude": {"roll": -0.028900394216179848, "pitch": -0.010276077315211296, "yaw": -0.1610240936279297}, "local_position": {"x": null, "y": null, "z": null}, "status": {"flags": 135, "velocity_variance": 0.0, "pos_horiz_variance": 0.01296902634203434, "pos_vert_variance": 0.06758113950490952}}, "errors": ["PreArm: RC not found", "PreArm: Hardware safety switch", "PreArm: Compasses inconsistent", "PreArm: RC not found", "PreArm: Hardware safety switch"]}
{"timestamp": "2026-01-31T12:36:10.946760Z", "telemetry": {"lat": -11.835867, "lon": 50.4999216, "satellites": 0, "altitude_gps_m": 0.11999999731779099, "groundspeed_mps": 0.054168470203876495}, "flight": {"mode": "STABILIZE", "armed": false}, "ekf": {"attitude": {"roll": -0.02899651974439621, "pitch": -0.010254167020320892, "yaw": -0.16081154346466064}, "local_position": {"x": null, "y": null, "z": null}, "status": {"flags": 135, "velocity_variance": 0.0, "pos_horiz_variance": 0.013085552491247654, "pos_vert_variance": 0.004202798940241337}}, "errors": ["PreArm: RC not found", "PreArm: Hardware safety switch", "PreArm: Compasses inconsistent", "PreArm: RC not found", "PreArm: Hardware safety switch"]}
{"timestamp": "2026-01-31T12:36:11.946022Z", "telemetry": {"lat": -11.833378, "lon": 50.4996944, "satellites": 0, "altitude_gps_m": 0.11999999731779099, "groundspeed_mps": 0.056251220405101776}, "flight": {"mode": "STABILIZE", "armed": false}, "ekf": {"attitude": {"roll": -0.02896622195839882, "pitch": -0.010348407551646233, "yaw": -0.16075679659843445}, "local_position": {"x": null, "y": null, "z": null}, "status": {"flags": 135, "velocity_variance": 0.0, "pos_horiz_variance": 0.01329127699136734, "pos_vert_variance": 0.0527181513607502}}, "errors": ["PreArm: RC not found", "PreArm: Hardware safety switch", "PreArm: Compasses inconsistent", "PreArm: RC not found", "PreArm: Hardware safety switch"]}
{"timestamp": "2026-01-31T12:36:12.945845Z", "telemetry": {"lat": -11.8296444, "lon": 50.4993533, "satellites": 0, "altitude_gps_m": 0.11999999731779099, "groundspeed_mps": 0.05504712834954262}, "flight": {"mode": "STABILIZE", "armed": false}, "ekf": {"attitude": {"roll": -0.02898288145661354, "pitch": -0.010467255488038063, "yaw": -0.16076910495758057}, "local_position": {"x": null, "y": null, "z": null}, "status": {"flags": 135, "velocity_variance": 0.0, "pos_horiz_variance": 0.013491065241396427, "pos_vert_variance": 0.052957527339458466}}, "errors": ["PreArm: RC not found", "PreArm: Hardware safety switch", "PreArm: Compasses inconsistent", "PreArm: RC not found", "PreArm: Hardware safety switch"]}
{"timestamp": "2026-01-31T12:36:13.946562Z", "telemetry": {"lat": -11.8265361, "lon": 50.4990692, "satellites": 0, "altitude_gps_m": 0.11999999731779099, "groundspeed_mps": 0.056091975420713425}, "flight": {"mode": "STABILIZE", "armed": false}, "ekf": {"attitude": {"roll": -0.028932714834809303, "pitch": -0.010567111894488335, "yaw": -0.1608114093542099}, "local_position": {"x": null, "y": null, "z": null}, "status": {"flags": 135, "velocity_variance": 0.0, "pos_horiz_variance": 0.013579576276242733, "pos_vert_variance": 0.07008214294910431}}, "errors": ["PreArm: RC not found", "PreArm: Hardware safety switch", "PreArm: Compasses inconsistent", "PreArm: RC not found", "PreArm: Hardware safety switch"]}
{"timestamp": "2026-01-31T12:36:14.945995Z", "telemetry": {"lat": -11.8298801, "lon": 48.3819771, "satellites": 0, "altitude_gps_m": 0.11999999731779099, "groundspeed_mps": 0.05607496574521065}, "flight": {"mode": "STABILIZE", "armed": false}, "ekf": {"attitude": {"roll": -0.028839390724897385, "pitch": -0.010513205081224442, "yaw": -0.1606992930173874}, "local_position": {"x": null, "y": null, "z": null}, "status": {"flags": 135, "velocity_variance": 0.0, "pos_horiz_variance": 0.013593115843832493, "pos_vert_variance": 0.02614816091954708}}, "errors": ["PreArm: RC not found", "PreArm: Hardware safety switch", "PreArm: Compasses inconsistent", "PreArm: RC not found", "PreArm: Hardware safety switch"]}
{"timestamp": "2026-01-31T12:36:15.945924Z", "telemetry": {"lat": -11.8265157, "lon": 48.3817292, "satellites": 0, "altitude_gps_m": 0.11999999731779099, "groundspeed_mps": 0.05917850136756897}, "flight": {"mode": "STABILIZE", "armed": false}, "ekf": {"attitude": {"roll": -0.028799623250961304, "pitch": -0.010571124032139778, "yaw": -0.16063044965267181}, "local_position": {"x": null, "y": null, "z": null}, "status": {"flags": 135, "velocity_variance": 0.0, "pos_horiz_variance": 0.013846746645867825, "pos_vert_variance": 0.001276302384212613}}, "errors": ["PreArm: RC not found", "PreArm: Hardware safety switch", "PreArm: Compasses inconsistent", "PreArm: RC not found", "PreArm: Hardware safety switch"]}
{"timestamp": "2026-01-31T12:36:16.946542Z", "telemetry": {"lat": -11.817196, "lon": 50.4982141, "satellites": 0, "altitude_gps_m": 0.11999999731779099, "groundspeed_mps": 0.05948067456483841}, "flight": {"mode": "STABILIZE", "armed": false}, "ekf": {"attitude": {"roll": -0.02871122397482395, "pitch": -0.010522076860070229, "yaw": -0.16053305566310883}, "local_position": {"x": null, "y": null, "z": null}, "status": {"flags": 135, "velocity_variance": 0.0, "pos_horiz_variance": 0.01431624498218298, "pos_vert_variance": 0.023182254284620285}}, "errors": ["PreArm: RC not found", "PreArm: Hardware safety switch", "PreArm: Compasses inconsistent", "PreArm: RC not found", "PreArm: Hardware safety switch"]}
{"timestamp": "2026-01-31T12:36:17.946291Z", "telemetry": {"lat": -11.7706979, "lon": 53.9759748, "satellites": 0, "altitude_gps_m": 0.11999999731779099, "groundspeed_mps": 0.05830906704068184}, "flight": {"mode": "STABILIZE", "armed": false}, "ekf": {"attitude": {"roll": -0.02865581028163433, "pitch": -0.010532272979617119, "yaw": -0.1605132520198822}, "local_position": {"x": null, "y": null, "z": null}, "status": {"flags": 135, "velocity_variance": 0.0, "pos_horiz_variance": 0.014363639988005161, "pos_vert_variance": 0.1111852377653122}}, "errors": ["PreArm: RC not found", "PreArm: Hardware safety switch", "PreArm: Compasses inconsistent", "PreArm: RC not found", "PreArm: Hardware safety switch"]}
{"timestamp": "2026-01-31T12:36:18.946704Z", "telemetry": {"lat": -11.7680147, "lon": 53.975635, "satellites": 0, "altitude_gps_m": 0.11999999731779099, "groundspeed_mps": 0.057226285338401794}, "flight": {"mode": "STABILIZE", "armed": false}, "ekf": {"attitude": {"roll": -0.028704287484288216, "pitch": -0.010479440912604332, "yaw": -0.1605069488286972}, "local_position": {"x": null, "y": null, "z": null}, "status": {"flags": 135, "velocity_variance": 0.0, "pos_horiz_variance": 0.01411027554422617, "pos_vert_variance": 0.0667678713798523}}, "errors": ["PreArm: RC not found", "PreArm: Hardware safety switch", "PreArm: Compasses inconsistent", "PreArm: RC not found", "PreArm: Hardware safety switch"]}
{"timestamp": "2026-01-31T12:36:19.946238Z", "telemetry": {"lat": -11.7653289, "lon": 53.9752947, "satellites": 0, "altitude_gps_m": 0.11999999731779099, "groundspeed_mps": 0.057414643466472626}, "flight": {"mode": "STABILIZE", "armed": false}, "ekf": {"attitude": {"roll": -0.02869507111608982, "pitch": -0.010492082685232162, "yaw": -0.16052919626235962}, "local_position": {"x": null, "y": null, "z": null}, "status": {"flags": 135, "velocity_variance": 0.0, "pos_horiz_variance": 0.014064941555261612, "pos_vert_variance": 0.036033425480127335}}, "errors": ["PreArm: RC not found", "PreArm: Hardware safety switch", "PreArm: Compasses inconsistent", "PreArm: RC not found", "PreArm: Hardware safety switch"]}
{"timestamp": "2026-01-31T12:36:20.946320Z", "telemetry": {"lat": -11.762643, "lon": 53.9749542, "satellites": 0, "altitude_gps_m": 0.11999999731779099, "groundspeed_mps": 0.0556659996509552}, "flight": {"mode": "STABILIZE", "armed": false}, "ekf": {"attitude": {"roll": -0.028511539101600647, "pitch": -0.010343728587031364, "yaw": -0.16043837368488312}, "local_position": {"x": null, "y": null, "z": null}, "status": {"flags": 135, "velocity_variance": 0.0, "pos_horiz_variance": 0.013901823200285435, "pos_vert_variance": 0.003832337912172079}}, "errors": ["PreArm: RC not found", "PreArm: Hardware safety switch", "PreArm: Compasses inconsistent", "PreArm: RC not found", "PreArm: Hardware safety switch"]}
{"timestamp": "2026-01-31T12:36:21.946654Z", "telemetry": {"lat": -11.8016456, "lon": 50.4967864, "satellites": 0, "altitude_gps_m": 0.11999999731779099, "groundspeed_mps": 0.052691515535116196}, "flight": {"mode": "STABILIZE", "armed": false}, "ekf": {"attitude": {"roll": -0.028577608987689018, "pitch": -0.010264545679092407, "yaw": -0.16038450598716736}, "local_position": {"x": null, "y": null, "z": null}, "status": {"flags": 135, "velocity_variance": 0.0, "pos_horiz_variance": 0.013427367433905602, "pos_vert_variance": 0.0663398802280426}}, "errors": ["PreArm: RC not found", "PreArm: Hardware safety switch", "PreArm: Compasses inconsistent", "PreArm: RC not found", "PreArm: Hardware safety switch"]}
{"timestamp": "2026-01-31T12:36:22.946657Z", "telemetry": {"lat": -11.7762621, "lon": 52.8162009, "satellites": 0, "altitude_gps_m": 0.11999999731779099, "groundspeed_mps": 0.05222044140100479}, "flight": {"mode": "STABILIZE", "armed": false}, "ekf": {"attitude": {"roll": -0.028588877990841866, "pitch": -0.010175319388508797, "yaw": -0.16030168533325195}, "local_position": {"x": null, "y": null, "z": null}, "status": {"flags": 135, "velocity_variance": 0.0, "pos_horiz_variance": 0.013230293057858944, "pos_vert_variance": 0.06122380122542381}}, "errors": ["PreArm: RC not found", "PreArm: Hardware safety switch", "PreArm: Compasses inconsistent", "PreArm: RC not found", "PreArm: Hardware safety switch"]}
{"timestamp": "2026-01-31T12:36:23.946246Z", "telemetry": {"lat": -11.7728675, "lon": 52.8158124, "satellites": 0, "altitude_gps_m": 0.11999999731779099, "groundspeed_mps": 0.04939691722393036}, "flight": {"mode": "STABILIZE", "armed": false}, "ekf": {"attitude": {"roll": -0.028457654640078545, "pitch": -0.010144060477614403, "yaw": -0.1602540761232376}, "local_position": {"x": null, "y": null, "z": null}, "status": {"flags": 135, "velocity_variance": 0.0, "pos_horiz_variance": 0.012725121341645718, "pos_vert_variance": 0.043892573565244675}}, "errors": ["PreArm: RC not found", "PreArm: Hardware safety switch", "PreArm: Compasses inconsistent", "PreArm: RC not found", "PreArm: Hardware safety switch"]}
{"timestamp": "2026-01-31T12:36:24.945991Z", "telemetry": {"lat": -11.7700387, "lon": 52.8154883, "satellites": 0, "altitude_gps_m": 0.11999999731779099, "groundspeed_mps": 0.04967480152845383}, "flight": {"mode": "STABILIZE", "armed": false}, "ekf": {"attitude": {"roll": -0.028274299576878548, "pitch": -0.010101459920406342, "yaw": -0.16028012335300446}, "local_position": {"x": null, "y": null, "z": null}, "status": {"flags": 135, "velocity_variance": 0.0, "pos_horiz_variance": 0.012263358570635319, "pos_vert_variance": 0.036337874829769135}}, "errors": ["PreArm: RC not found", "PreArm: Hardware safety switch", "PreArm: Compasses inconsistent", "PreArm: RC not found", "PreArm: Hardware safety switch"]}
{"timestamp": "2026-01-31T12:36:25.946116Z", "telemetry": {"lat": -11.7677756, "lon": 52.815229, "satellites": 0, "altitude_gps_m": 0.11999999731779099, "groundspeed_mps": 0.04721882939338684}, "flight": {"mode": "STABILIZE", "armed": false}, "ekf": {"attitude": {"roll": -0.02817590720951557, "pitch": -0.009998919442296028, "yaw": -0.16014160215854645}, "local_position": {"x": null, "y": null, "z": null}, "status": {"flags": 135, "velocity_variance": 0.0, "pos_horiz_variance": 0.012263644486665726, "pos_vert_variance": 0.011856684461236}}, "errors": ["PreArm: RC not found", "PreArm: Hardware safety switch", "PreArm: Compasses inconsistent", "PreArm: RC not found", "PreArm: Hardware safety switch"]}
{"timestamp": "2026-01-31T12:36:26.946164Z", "telemetry": {"lat": -11.6927952, "lon": 56.4452896, "satellites": 0, "altitude_gps_m": 0.11999999731779099, "groundspeed_mps": 0.04610064625740051}, "flight": {"mode": "STABILIZE", "armed": false}, "ekf": {"attitude": {"roll": -0.028209999203681946, "pitch": -0.01007830910384655, "yaw": -0.16011683642864227}, "local_position": {"x": null, "y": null, "z": null}, "status": {"flags": 135, "velocity_variance": 0.0, "pos_horiz_variance": 0.011682702228426933, "pos_vert_variance": 0.008819271810352802}}, "errors": ["PreArm: RC not found", "PreArm: Hardware safety switch", "PreArm: Compasses inconsistent", "PreArm: RC not found", "PreArm: Hardware safety switch"]}
{"timestamp": "2026-01-31T12:36:27.946616Z", "telemetry": {"lat": -11.7615521, "lon": 52.8145151, "satellites": 0, "altitude_gps_m": 0.11999999731779099, "groundspeed_mps": 0.046762656420469284}, "flight": {"mode": "STABILIZE", "armed": false}, "ekf": {"attitude": {"roll": -0.02814866602420807, "pitch": -0.010074654594063759, "yaw": -0.15992508828639984}, "local_position": {"x": null, "y": null, "z": null}, "status": {"flags": 135, "velocity_variance": 0.0, "pos_horiz_variance": 0.011479491367936134, "pos_vert_variance": 0.0577821210026741}}, "errors": ["PreArm: RC not found", "PreArm: Hardware safety switch", "PreArm: Compasses inconsistent", "PreArm: RC not found", "PreArm: Hardware safety switch"]}
{"timestamp": "2026-01-31T12:36:28.945989Z", "telemetry": {"lat": -11.759289, "lon": 52.8142552, "satellites": 0, "altitude_gps_m": 0.11999999731779099, "groundspeed_mps": 0.048197150230407715}, "flight": {"mode": "STABILIZE", "armed": false}, "ekf": {"attitude": {"roll": -0.027997810393571854, "pitch": -0.010072905570268631, "yaw": -0.15974056720733643}, "local_position": {"x": null, "y": null, "z": null}, "status": {"flags": 135, "velocity_variance": 0.0, "pos_horiz_variance": 0.011572569608688354, "pos_vert_variance": 0.06160077080130577}}, "errors": ["PreArm: RC not found", "PreArm: Hardware safety switch", "PreArm: Compasses inconsistent", "PreArm: RC not found", "PreArm: Hardware safety switch"]}
{"timestamp": "2026-01-31T12:36:29.946641Z", "telemetry": {"lat": -11.769684, "lon": 51.5384324, "satellites": 0, "altitude_gps_m": 0.11999999731779099, "groundspeed_mps": 0.04891156405210495}, "flight": {"mode": "STABILIZE", "armed": false}, "ekf": {"attitude": {"roll": -0.027956200763583183, "pitch": -0.010153288021683693, "yaw": -0.1597670465707779}, "local_position": {"x": null, "y": null, "z": null}, "status": {"flags": 135, "velocity_variance": 0.0, "pos_horiz_variance": 0.01180182583630085, "pos_vert_variance": 0.040136002004146576}}, "errors": ["PreArm: RC not found", "PreArm: Hardware safety switch", "PreArm: Compasses inconsistent", "PreArm: RC not found", "PreArm: Hardware safety switch"]}
{"timestamp": "2026-01-31T12:36:30.946169Z", "telemetry": {"lat": -11.7530653, "lon": 52.81354, "satellites": 0, "altitude_gps_m": 0.11999999731779099, "groundspeed_mps": 0.05071289837360382}, "flight": {"mode": "STABILIZE", "armed": false}, "ekf": {"attitude": {"roll": -0.02791726402938366, "pitch": -0.01018442027270794, "yaw": -0.1595984846353531}, "local_position": {"x": null, "y": null, "z": null}, "status": {"flags": 135, "velocity_variance": 0.0, "pos_horiz_variance": 0.012088299728929996, "pos_vert_variance": 0.0324951596558094}}, "errors": ["PreArm: RC not found", "PreArm: Hardware safety switch", "PreArm: Compasses inconsistent", "PreArm: RC not found", "PreArm: Hardware safety switch"]}
{"timestamp": "2026-01-31T12:36:31.946066Z", "telemetry": {"lat": -11.7502363, "lon": 52.8132145, "satellites": 0, "altitude_gps_m": 0.11999999731779099, "groundspeed_mps": 0.05236327648162842}, "flight": {"mode": "STABILIZE", "armed": false}, "ekf": {"attitude": {"roll": -0.027796631678938866, "pitch": -0.010232126340270042, "yaw": -0.15967555344104767}, "local_position": {"x": null, "y": null, "z": null}, "status": {"flags": 135, "velocity_variance": 0.0, "pos_horiz_variance": 0.012539621442556381, "pos_vert_variance": 0.08533016592264175}}, "errors": ["PreArm: RC not found", "PreArm: Hardware safety switch", "PreArm: Compasses inconsistent", "PreArm: RC not found", "PreArm: Hardware safety switch"]}
{"timestamp": "2026-01-31T12:36:32.945883Z", "telemetry": {"lat": -11.6785332, "lon": 56.4430316, "satellites": 0, "altitude_gps_m": 0.11999999731779099, "groundspeed_mps": 0.053776372224092484}, "flight": {"mode": "STABILIZE", "armed": false}, "ekf": {"attitude": {"roll": -0.027737285941839218, "pitch": -0.010323163121938705, "yaw": -0.15963609516620636}, "local_position": {"x": null, "y": null, "z": null}, "status": {"flags": 135, "velocity_variance": 0.0, "pos_horiz_variance": 0.012946490198373795, "pos_vert_variance": 0.012064066715538502}}, "errors": ["PreArm: RC not found", "PreArm: Hardware safety switch", "PreArm: Compasses inconsistent", "PreArm: RC not found", "PreArm: Hardware safety switch"]}
{"timestamp": "2026-01-31T12:36:33.946769Z", "telemetry": {"lat": -11.6761561, "lon": 56.4426546, "satellites": 0, "altitude_gps_m": 0.11999999731779099, "groundspeed_mps": 0.05172043666243553}, "flight": {"mode": "STABILIZE", "armed": false}, "ekf": {"attitude": {"roll": -0.02758631482720375, "pitch": -0.010292524471879005, "yaw": -0.15952754020690918}, "local_position": {"x": null, "y": null, "z": null}, "status": {"flags": 135, "velocity_variance": 0.0, "pos_horiz_variance": 0.012797292321920395, "pos_vert_variance": 0.05284792184829712}}, "errors": ["PreArm: RC not found", "PreArm: Hardware safety switch", "PreArm: Compasses inconsistent", "PreArm: RC not found", "PreArm: Hardware safety switch", "PreArm: RC not found", "PreArm: Hardware safety switch"]}
{"timestamp": "2026-01-31T12:36:34.945889Z", "telemetry": {"lat": -11.6989034, "lon": 55.3564723, "satellites": 0, "altitude_gps_m": 0.11999999731779099, "groundspeed_mps": 0.05361301079392433}, "flight": {"mode": "STABILIZE", "armed": false}, "ekf": {"attitude": {"roll": -0.027449149638414383, "pitch": -0.010279843583703041, "yaw": -0.15937282145023346}, "local_position": {"x": null, "y": null, "z": null}, "status": {"flags": 135, "velocity_variance": 0.0, "pos_horiz_variance": 0.012761984951794147, "pos_vert_variance": 0.06006467342376709}}, "errors": ["PreArm: RC not found", "PreArm: Hardware safety switch", "PreArm: Compasses inconsistent", "PreArm: RC not found", "PreArm: Hardware safety switch", "PreArm: RC not found", "PreArm: Hardware safety switch"]}
{"timestamp": "2026-01-31T12:36:35.946392Z", "telemetry": {"lat": -11.6718774, "lon": 56.4419755, "satellites": 0, "altitude_gps_m": 0.11999999731779099, "groundspeed_mps": 0.05363183096051216}, "flight": {"mode": "STABILIZE", "armed": false}, "ekf": {"attitude": {"roll": -0.027560904622077942, "pitch": -0.010306097567081451, "yaw": -0.15925127267837524}, "local_position": {"x": null, "y": null, "z": null}, "status": {"flags": 135, "velocity_variance": 0.0, "pos_horiz_variance": 0.012798711657524109, "pos_vert_variance": 0.04599633440375328}}, "errors": ["PreArm: RC not found", "PreArm: Hardware safety switch", "PreArm: Compasses inconsistent", "PreArm: RC not found", "PreArm: Hardware safety switch", "PreArm: RC not found", "PreArm: Hardware safety switch"]}
{"timestamp": "2026-01-31T12:36:36.946669Z", "telemetry": {"lat": -11.7360915, "lon": 52.8115843, "satellites": 0, "altitude_gps_m": 0.11999999731779099, "groundspeed_mps": 0.052671365439891815}, "flight": {"mode": "STABILIZE", "armed": false}, "ekf": {"attitude": {"roll": -0.027709754183888435, "pitch": -0.01034151203930378, "yaw": -0.15913140773773193}, "local_position": {"x": null, "y": null, "z": null}, "status": {"flags": 135, "velocity_variance": 0.0, "pos_horiz_variance": 0.012960998341441154, "pos_vert_variance": 0.018832216039299965}}, "errors": ["PreArm: RC not found", "PreArm: Hardware safety switch", "PreArm: Compasses inconsistent", "PreArm: RC not found", "PreArm: Hardware safety switch", "PreArm: RC not found", "PreArm: Hardware safety switch"]}
{"timestamp": "2026-01-31T12:36:37.946747Z", "telemetry": {"lat": -11.7332626, "lon": 52.8112577, "satellites": 0, "altitude_gps_m": 0.11999999731779099, "groundspeed_mps": 0.05542439967393875}, "flight": {"mode": "STABILIZE", "armed": false}, "ekf": {"attitude": {"roll": -0.02768664062023163, "pitch": -0.010338278487324715, "yaw": -0.15894998610019684}, "local_position": {"x": null, "y": null, "z": null}, "status": {"flags": 135, "velocity_variance": 0.0, "pos_horiz_variance": 0.013089396990835667, "pos_vert_variance": 0.052259549498558044}}, "errors": ["PreArm: RC not found", "PreArm: Hardware safety switch", "PreArm: Compasses inconsistent", "PreArm: RC not found", "PreArm: Hardware safety switch", "PreArm: RC not found", "PreArm: Hardware safety switch"]}
{"timestamp": "2026-01-31T12:36:38.946403Z", "telemetry": {"lat": -11.6642708, "lon": 56.4407666, "satellites": 0, "altitude_gps_m": 0.11999999731779099, "groundspeed_mps": 0.057570140808820724}, "flight": {"mode": "STABILIZE", "armed": false}, "ekf": {"attitude": {"roll": -0.027734054252505302, "pitch": -0.010415278375148773, "yaw": -0.15886904299259186}, "local_position": {"x": null, "y": null, "z": null}, "status": {"flags": 135, "velocity_variance": 0.0, "pos_horiz_variance": 0.013623164035379887, "pos_vert_variance": 0.03318098932504654}}, "errors": ["PreArm: RC not found", "PreArm: Hardware safety switch", "PreArm: Compasses inconsistent", "PreArm: RC not found", "PreArm: Hardware safety switch", "PreArm: RC not found", "PreArm: Hardware safety switch"]}
{"timestamp": "2026-01-31T12:36:39.946844Z", "telemetry": {"lat": -11.7215072, "lon": 45.5383711, "satellites": 0, "altitude_gps_m": 0.11999999731779099, "groundspeed_mps": 0.06383539736270905}, "flight": {"mode": "STABILIZE", "armed": false}, "ekf": {"attitude": {"roll": -0.04596208781003952, "pitch": -0.0147575493901968, "yaw": -0.15430818498134613}, "local_position": {"x": null, "y": null, "z": null}, "status": {"flags": 135, "velocity_variance": 0.0, "pos_horiz_variance": 0.014041715301573277, "pos_vert_variance": 0.01650404743850231}}, "errors": ["PreArm: RC not found", "PreArm: Hardware safety switch", "PreArm: Compasses inconsistent", "PreArm: RC not found", "PreArm: Hardware safety switch", "PreArm: RC not found", "PreArm: Hardware safety switch"]}
{"timestamp": "2026-01-31T12:36:40.946934Z", "telemetry": {"lat": -11.534079, "lon": 38.4397443, "satellites": 0, "altitude_gps_m": 0.11999999731779099, "groundspeed_mps": 0.45550239086151123}, "flight": {"mode": "STABILIZE", "armed": false}, "ekf": {"attitude": {"roll": -0.1401878446340561, "pitch": -0.01185356080532074, "yaw": 0.09391666948795319}, "local_position": {"x": null, "y": null, "z": null}, "status": {"flags": 135, "velocity_variance": 0.0, "pos_horiz_variance": 0.031673215329647064, "pos_vert_variance": 0.05998047813773155}}, "errors": ["PreArm: RC not found", "PreArm: Hardware safety switch", "PreArm: Compasses inconsistent", "PreArm: RC not found", "PreArm: Hardware safety switch", "PreArm: RC not found", "PreArm: Hardware safety switch"]}
{"timestamp": "2026-01-31T12:36:41.946816Z", "telemetry": {"lat": -11.4510503, "lon": 36.5457349, "satellites": 0, "altitude_gps_m": 0.11999999731779099, "groundspeed_mps": 1.0810052156448364}, "flight": {"mode": "STABILIZE", "armed": false}, "ekf": {"attitude": {"roll": 0.007995578460395336, "pitch": -0.11596953868865967, "yaw": -0.36097192764282227}, "local_position": {"x": null, "y": null, "z": null}, "status": {"flags": 135, "velocity_variance": 0.0, "pos_horiz_variance": 0.14080487191677094, "pos_vert_variance": 0.06392845511436462}}, "errors": ["PreArm: RC not found", "PreArm: Hardware safety switch", "PreArm: Compasses inconsistent", "PreArm: RC not found", "PreArm: Hardware safety switch", "PreArm: RC not found", "PreArm: Hardware safety switch"]}
{"timestamp": "2026-01-31T12:36:42.946324Z", "telemetry": {"lat": -11.4282751, "lon": 36.1479796, "satellites": 0, "altitude_gps_m": 0.11999999731779099, "groundspeed_mps": 0.8590516448020935}, "flight": {"mode": "STABILIZE", "armed": false}, "ekf": {"attitude": {"roll": 0.08081313967704773, "pitch": -0.013700149953365326, "yaw": -0.5252215266227722}, "local_position": {"x": null, "y": null, "z": null}, "status": {"flags": 135, "velocity_variance": 0.0, "pos_horiz_variance": 0.1967468410730362, "pos_vert_variance": 0.001381745794788003}}, "errors": ["PreArm: RC not found", "PreArm: Hardware safety switch", "PreArm: Compasses inconsistent", "PreArm: RC not found", "PreArm: Hardware safety switch", "PreArm: RC not found", "PreArm: Hardware safety switch"]}
{"timestamp": "2026-01-31T12:36:43.946585Z", "telemetry": {"lat": -11.5825255, "lon": 40.1861059, "satellites": 0, "altitude_gps_m": 0.11999999731779099, "groundspeed_mps": 0.7570844292640686}, "flight": {"mode": "STABILIZE", "armed": false}, "ekf": {"attitude": {"roll": -0.12963201105594635, "pitch": 0.11988562345504761, "yaw": -1.5306276082992554}, "local_position": {"x": null, "y": null, "z": null}, "status": {"flags": 135, "velocity_variance": 0.0, "pos_horiz_variance": 0.09259491413831711, "pos_vert_variance": 0.059213023632764816}}, "errors": ["PreArm: RC not found", "PreArm: Hardware safety switch", "PreArm: Compasses inconsistent", "PreArm: RC not found", "PreArm: Hardware safety switch", "PreArm: RC not found", "PreArm: Hardware safety switch"]}
{"timestamp": "2026-01-31T12:36:44.946364Z", "telemetry": {"lat": -11.2925577, "lon": 33.6525402, "satellites": 0, "altitude_gps_m": 0.11999999731779099, "groundspeed_mps": 1.0540558099746704}, "flight": {"mode": "STABILIZE", "armed": false}, "ekf": {"attitude": {"roll": 0.1289038509130478, "pitch": -0.01354220137000084, "yaw": -1.9255881309509277}, "local_position": {"x": null, "y": null, "z": null}, "status": {"flags": 135, "velocity_variance": 0.0, "pos_horiz_variance": 0.1514074206352234, "pos_vert_variance": 0.06269089877605438}}, "errors": ["PreArm: RC not found", "PreArm: Hardware safety switch", "PreArm: Compasses inconsistent", "PreArm: RC not found", "PreArm: Hardware safety switch", "PreArm: RC not found", "PreArm: Hardware safety switch"]}
{"timestamp": "2026-01-31T12:36:45.946230Z", "telemetry": {"lat": -10.8788461, "lon": 27.4002365, "satellites": 0, "altitude_gps_m": 0.11999999731779099, "groundspeed_mps": 0.5678616166114807}, "flight": {"mode": "STABILIZE", "armed": false}, "ekf": {"attitude": {"roll": 0.18548059463500977, "pitch": 0.08916828036308289, "yaw": -1.4340407848358154}, "local_position": {"x": null, "y": null, "z": null}, "status": {"flags": 135, "velocity_variance": 0.0, "pos_horiz_variance": 0.13520300388336182, "pos_vert_variance": 0.006214478053152561}}, "errors": ["PreArm: RC not found", "PreArm: Hardware safety switch", "PreArm: Compasses inconsistent", "PreArm: RC not found", "PreArm: Hardware safety switch", "PreArm: RC not found", "PreArm: Hardware safety switch"]}
{"timestamp": "2026-01-31T12:36:46.946419Z", "telemetry": {"lat": -10.6074589, "lon": 24.1105167, "satellites": 0, "altitude_gps_m": 0.11999999731779099, "groundspeed_mps": 1.0198662281036377}, "flight": {"mode": "STABILIZE", "armed": false}, "ekf": {"attitude": {"roll": 0.1357526332139969, "pitch": -0.12367017567157745, "yaw": -0.7849189639091492}, "local_position": {"x": null, "y": null, "z": null}, "status": {"flags": 135, "velocity_variance": 0.0, "pos_horiz_variance": 0.15417824685573578, "pos_vert_variance": 0.054169297218322754}}, "errors": ["PreArm: RC not found", "PreArm: Hardware safety switch", "PreArm: Compasses inconsistent", "PreArm: RC not found", "PreArm: Hardware safety switch", "PreArm: RC not found", "PreArm: Hardware safety switch"]}
{"timestamp": "2026-01-31T12:36:47.946150Z", "telemetry": {"lat": -10.5330472, "lon": 23.3164771, "satellites": 0, "altitude_gps_m": 0.11999999731779099, "groundspeed_mps": 0.60989910364151}, "flight": {"mode": "STABILIZE", "armed": false}, "ekf": {"attitude": {"roll": 0.11430631577968597, "pitch": -0.09823497384786606, "yaw": -0.7195141911506653}, "local_position": {"x": null, "y": null, "z": null}, "status": {"flags": 135, "velocity_variance": 0.0, "pos_horiz_variance": 0.18068072199821472, "pos_vert_variance": 0.09544645994901657}}, "errors": ["PreArm: RC not found", "PreArm: Hardware safety switch", "PreArm: Compasses inconsistent", "PreArm: RC not found", "PreArm: Hardware safety switch", "PreArm: RC not found", "PreArm: Hardware safety switch"]}
