{"timestamp": "2026-01-31T07:09:13.219356Z", "telemetry": {"lat": 13.3545975, "lon": 74.8648247, "satellites": 11, "altitude_gps_m": 5451535.263977154, "groundspeed_mps": 0.005070765037089586}, "flight": {"mode": "LOITER", "armed": false}, "ekf": {"attitude": {"roll": -0.018449587747454643, "pitch": -0.02632545493543148, "yaw": -1.9871002435684204}, "local_position": {"x": null, "y": null, "z": null}, "status": {"flags": 135, "velocity_variance": 0.0, "pos_horiz_variance": 0.00047798038576729596, "pos_vert_variance": 0.03419560194015503}}, "errors": []}
{"timestamp": "2026-01-31T07:09:14.187656Z", "telemetry": {"lat": 13.3545976, "lon": 74.8648252, "satellites": 11, "altitude_gps_m": 6825988503.674972, "groundspeed_mps": 0.01002144068479538}, "flight": {"mode": "LOITER", "armed": false}, "ekf": {"attitude": {"roll": -0.018352432176470757, "pitch": -0.02654539793729782, "yaw": -1.9904178380966187}, "local_position": {"x": null, "y": null, "z": null}, "status": {"flags": 135, "velocity_variance": 0.0, "pos_horiz_variance": 0.00047798038576729596, "pos_vert_variance": 0.03419560194015503}}, "errors": ["GPS 1: u-blox saving config"]}
{"timestamp": "2026-01-31T07:09:15.185214Z", "telemetry": {"lat": 13.3545976, "lon": 74.8648255, "satellites": 11, "altitude_gps_m": 242366744690.0203, "groundspeed_mps": 0.010585479438304901}, "flight": {"mode": "LOITER", "armed": false}, "ekf": {"attitude": {"roll": -0.017999084666371346, "pitch": -0.026859018951654434, "yaw": -1.9945160150527954}, "local_position": {"x": null, "y": null, "z": null}, "status": {"flags": 135, "velocity_variance": 0.0, "pos_horiz_variance": 0.0010080222273245454, "pos_vert_variance": 0.012491871602833271}}, "errors": ["GPS 1: u-blox saving config"]}
{"timestamp": "2026-01-31T07:09:16.187921Z", "telemetry": {"lat": 13.3545982, "lon": 74.8648259, "satellites": 11, "altitude_gps_m": 5551284.718682092, "groundspeed_mps": 0.017538996413350105}, "flight": {"mode": "LOITER", "armed": false}, "ekf": {"attitude": {"roll": -0.01786314696073532, "pitch": -0.026978880167007446, "yaw": -1.9959694147109985}, "local_position": {"x": null, "y": null, "z": null}, "status": {"flags": 135, "velocity_variance": 0.0, "pos_horiz_variance": 0.0013627669541165233, "pos_vert_variance": 0.02913028560578823}}, "errors": ["GPS 1: u-blox saving config"]}
{"timestamp": "2026-01-31T07:09:17.186426Z", "telemetry": {"lat": 13.3545982, "lon": 74.8648259, "satellites": 11, "altitude_gps_m": 1.160160593790982e+17, "groundspeed_mps": 0.017538996413350105}, "flight": {"mode": "LOITER", "armed": false}, "ekf": {"attitude": {"roll": -0.017641516402363777, "pitch": -0.02727852761745453, "yaw": -1.9971877336502075}, "local_position": {"x": null, "y": null, "z": null}, "status": {"flags": 135, "velocity_variance": 0.0, "pos_horiz_variance": 0.0013627669541165233, "pos_vert_variance": 0.02913028560578823}}, "errors": ["GPS 1: u-blox saving config"]}
{"timestamp": "2026-01-31T07:09:18.183962Z", "telemetry": {"lat": 13.3545985, "lon": 74.8648269, "satellites": 11, "altitude_gps_m": 809834575014.7981, "groundspeed_mps": 0.023568466305732727}, "flight": {"mode": "LOITER", "armed": false}, "ekf": {"attitude": {"roll": -0.017641516402363777, "pitch": -0.02727852761745453, "yaw": -1.9971877336502075}, "local_position": {"x": null, "y": null, "z": null}, "status": {"flags": 135, "velocity_variance": 0.0, "pos_horiz_variance": 0.0029983152635395527, "pos_vert_variance": 0.04740890860557556}}, "errors": ["GPS 1: u-blox saving config", "u-blox 1 HW: 00070000 SW: 1.00 (59842)"]}
{"timestamp": "2026-01-31T07:09:19.183225Z", "telemetry": {"lat": 13.3545991, "lon": 74.8648281, "satellites": 11, "altitude_gps_m": 4540.3502526541015, "groundspeed_mps": 0.039207760244607925}, "flight": {"mode": "LOITER", "armed": false}, "ekf": {"attitude": {"roll": -0.017641516402363777, "pitch": -0.02727852761745453, "yaw": -1.9971877336502075}, "local_position": {"x": null, "y": null, "z": null}, "status": {"flags": 135, "velocity_variance": 0.0, "pos_horiz_variance": 0.005699824076145887, "pos_vert_variance": 0.009630980901420116}}, "errors": ["GPS 1: u-blox saving config", "u-blox 1 HW: 00070000 SW: 1.00 (59842)"]}
{"timestamp": "2026-01-31T07:09:20.182785Z", "telemetry": {"lat": 13.354599, "lon": 74.8648286, "satellites": 11, "altitude_gps_m": 129.1073449935913, "groundspeed_mps": 0.04563309624791145}, "flight": {"mode": "LOITER", "armed": false}, "ekf": {"attitude": {"roll": -0.0179057065397501, "pitch": -0.027990994974970818, "yaw": -1.9988367557525635}, "local_position": {"x": null, "y": null, "z": null}, "status": {"flags": 135, "velocity_variance": 0.0, "pos_horiz_variance": 0.005699824076145887, "pos_vert_variance": 0.009630980901420116}}, "errors": ["GPS 1: u-blox saving config", "u-blox 1 HW: 00070000 SW: 1.00 (59842)", "Arm: Need Alt Estimate", "Arm: Gyros inconsistent", "Arm: Compasses inconsistent", "Arm: AHRS: waiting for home"]}
{"timestamp": "2026-01-31T07:09:21.180646Z", "telemetry": {"lat": 13.3545992, "lon": 74.8648288, "satellites": 11, "altitude_gps_m": 1397.6059409336115, "groundspeed_mps": 0.05220061540603638}, "flight": {"mode": "LOITER", "armed": false}, "ekf": {"attitude": {"roll": -0.01795896515250206, "pitch": -0.02814069576561451, "yaw": -1.9988895654678345}, "local_position": {"x": null, "y": null, "z": null}, "status": {"flags": 167, "velocity_variance": 0.0, "pos_horiz_variance": 0.010576771572232246, "pos_vert_variance": 0.0025227204896509647}}, "errors": ["GPS 1: u-blox saving config", "u-blox 1 HW: 00070000 SW: 1.00 (59842)", "Arm: Need Alt Estimate", "Arm: Gyros inconsistent", "Arm: Compasses inconsistent", "Arm: AHRS: waiting for home", "EKF3 IMU0 origin set", "EKF3 IMU1 origin set", "Field Elevation Set: 39m"]}
{"timestamp": "2026-01-31T07:09:22.210313Z", "telemetry": {"lat": 13.3545992, "lon": 74.8648288, "satellites": 11, "altitude_gps_m": 130.5509930038452, "groundspeed_mps": 0.06152143329381943}, "flight": {"mode": "LOITER", "armed": false}, "ekf": {"attitude": {"roll": -0.017948323860764503, "pitch": -0.028620827943086624, "yaw": -1.9993711709976196}, "local_position": {"x": null, "y": null, "z": null}, "status": {"flags": 167, "velocity_variance": 0.0, "pos_horiz_variance": 0.010576771572232246, "pos_vert_variance": 0.0025227204896509647}}, "errors": ["GPS 1: u-blox saving config", "u-blox 1 HW: 00070000 SW: 1.00 (59842)", "Arm: Need Alt Estimate", "Arm: Gyros inconsistent", "Arm: Compasses inconsistent", "Arm: AHRS: waiting for home", "EKF3 IMU0 origin set", "EKF3 IMU1 origin set", "Field Elevation Set: 39m", "Arm: Gyros inconsistent", "Arm: Compasses inconsistent", "Arm: Need Position Estimate"]}
{"timestamp": "2026-01-31T07:09:23.208779Z", "telemetry": {"lat": 13.3545992, "lon": 74.8648288, "satellites": 11, "altitude_gps_m": 429.6295918673973, "groundspeed_mps": 0.07047232985496521}, "flight": {"mode": "LOITER", "armed": false}, "ekf": {"attitude": {"roll": -0.01806384138762951, "pitch": -0.028940048068761826, "yaw": -1.9995418787002563}, "local_position": {"x": null, "y": null, "z": null}, "status": {"flags": 167, "velocity_variance": 0.0, "pos_horiz_variance": 0.010576771572232246, "pos_vert_variance": 0.0025227204896509647}}, "errors": ["GPS 1: u-blox saving config", "u-blox 1 HW: 00070000 SW: 1.00 (59842)", "Arm: Need Alt Estimate", "Arm: Gyros inconsistent", "Arm: Compasses inconsistent", "Arm: AHRS: waiting for home", "EKF3 IMU0 origin set", "EKF3 IMU1 origin set", "Field Elevation Set: 39m", "Arm: Gyros inconsistent", "Arm: Compasses inconsistent", "Arm: Need Position Estimate"]}
{"timestamp": "2026-01-31T07:09:24.207616Z", "telemetry": {"lat": 13.3545995, "lon": 74.8648299, "satellites": 11, "altitude_gps_m": 8978810269515.225, "groundspeed_mps": 0.07047232985496521}, "flight": {"mode": "LOITER", "armed": false}, "ekf": {"attitude": {"roll": -0.01806384138762951, "pitch": -0.028940048068761826, "yaw": -1.9995418787002563}, "local_position": {"x": null, "y": null, "z": null}, "status": {"flags": 167, "velocity_variance": 0.0, "pos_horiz_variance": 0.015958184376358986, "pos_vert_variance": 0.002560351975262165}}, "errors": ["GPS 1: u-blox saving config", "u-blox 1 HW: 00070000 SW: 1.00 (59842)", "Arm: Need Alt Estimate", "Arm: Gyros inconsistent", "Arm: Compasses inconsistent", "Arm: AHRS: waiting for home", "EKF3 IMU0 origin set", "EKF3 IMU1 origin set", "Field Elevation Set: 39m", "Arm: Gyros inconsistent", "Arm: Compasses inconsistent", "Arm: Need Position Estimate", "Arm: Gyros inconsistent", "Arm: Compasses inconsistent", "Arm: Need Position Estimate"]}
{"timestamp": "2026-01-31T07:09:25.206359Z", "telemetry": {"lat": 13.3545994, "lon": 74.8648301, "satellites": 11, "altitude_gps_m": 131.9946284980774, "groundspeed_mps": 0.08638869971036911}, "flight": {"mode": "LOITER", "armed": false}, "ekf": {"attitude": {"roll": -0.018070707097649574, "pitch": -0.029296763241291046, "yaw": -1.999599575996399}, "local_position": {"x": null, "y": null, "z": null}, "status": {"flags": 167, "velocity_variance": 0.0, "pos_horiz_variance": 0.017786456272006035, "pos_vert_variance": 0.0036505393218249083}}, "errors": ["GPS 1: u-blox saving config", "u-blox 1 HW: 00070000 SW: 1.00 (59842)", "Arm: Need Alt Estimate", "Arm: Gyros inconsistent", "Arm: Compasses inconsistent", "Arm: AHRS: waiting for home", "EKF3 IMU0 origin set", "EKF3 IMU1 origin set", "Field Elevation Set: 39m", "Arm: Gyros inconsistent", "Arm: Compasses inconsistent", "Arm: Need Position Estimate", "Arm: Gyros inconsistent", "Arm: Compasses inconsistent", "Arm: Need Position Estimate"]}
{"timestamp": "2026-01-31T07:09:26.205363Z", "telemetry": {"lat": 13.354599, "lon": 74.8648308, "satellites": 11, "altitude_gps_m": 2758550035457.4624, "groundspeed_mps": 0.08638869971036911}, "flight": {"mode": "LOITER", "armed": false}, "ekf": {"attitude": {"roll": -0.018013199791312218, "pitch": -0.03029256872832775, "yaw": -1.9990700483322144}, "local_position": {"x": null, "y": null, "z": null}, "status": {"flags": 167, "velocity_variance": 0.0, "pos_horiz_variance": 0.01996401697397232, "pos_vert_variance": 0.003720983164384961}}, "errors": ["GPS 1: u-blox saving config", "u-blox 1 HW: 00070000 SW: 1.00 (59842)", "Arm: Need Alt Estimate", "Arm: Gyros inconsistent", "Arm: Compasses inconsistent", "Arm: AHRS: waiting for home", "EKF3 IMU0 origin set", "EKF3 IMU1 origin set", "Field Elevation Set: 39m", "Arm: Gyros inconsistent", "Arm: Compasses inconsistent", "Arm: Need Position Estimate", "Arm: Gyros inconsistent", "Arm: Compasses inconsistent", "Arm: Need Position Estimate", "Arm: Compasses inconsistent", "Arm: Need Position Estimate"]}
{"timestamp": "2026-01-31T07:09:27.192329Z", "telemetry": {"lat": 13.3545986, "lon": 74.8648314, "satellites": 11, "altitude_gps_m": 841809953368.4768, "groundspeed_mps": 0.10052985697984695}, "flight": {"mode": "LOITER", "armed": false}, "ekf": {"attitude": {"roll": -0.018013199791312218, "pitch": -0.03029256872832775, "yaw": -1.9990700483322144}, "local_position": {"x": null, "y": null, "z": null}, "status": {"flags": 167, "velocity_variance": 0.0, "pos_horiz_variance": 0.022865911945700645, "pos_vert_variance": 0.014831152744591236}}, "errors": ["GPS 1: u-blox saving config", "u-blox 1 HW: 00070000 SW: 1.00 (59842)", "Arm: Need Alt Estimate", "Arm: Gyros inconsistent", "Arm: Compasses inconsistent", "Arm: AHRS: waiting for home", "EKF3 IMU0 origin set", "EKF3 IMU1 origin set", "Field Elevation Set: 39m", "Arm: Gyros inconsistent", "Arm: Compasses inconsistent", "Arm: Need Position Estimate", "Arm: Gyros inconsistent", "Arm: Compasses inconsistent", "Arm: Need Position Estimate", "Arm: Compasses inconsistent", "Arm: Need Position Estimate"]}
{"timestamp": "2026-01-31T07:09:28.190684Z", "telemetry": {"lat": 13.3545986, "lon": 74.8648314, "satellites": 11, "altitude_gps_m": 1.7592949827855159e+22, "groundspeed_mps": 0.10052985697984695}, "flight": {"mode": "LOITER", "armed": false}, "ekf": {"attitude": {"roll": -0.018013199791312218, "pitch": -0.03029256872832775, "yaw": -1.9990700483322144}, "local_position": {"x": null, "y": null, "z": null}, "status": {"flags": 167, "velocity_variance": 0.0, "pos_horiz_variance": 0.022865911945700645, "pos_vert_variance": 0.014831152744591236}}, "errors": ["GPS 1: u-blox saving config", "u-blox 1 HW: 00070000 SW: 1.00 (59842)", "Arm: Need Alt Estimate", "Arm: Gyros inconsistent", "Arm: Compasses inconsistent", "Arm: AHRS: waiting for home", "EKF3 IMU0 origin set", "EKF3 IMU1 origin set", "Field Elevation Set: 39m", "Arm: Gyros inconsistent", "Arm: Compasses inconsistent", "Arm: Need Position Estimate", "Arm: Gyros inconsistent", "Arm: Compasses inconsistent", "Arm: Need Position Estimate", "Arm: Compasses inconsistent", "Arm: Need Position Estimate"]}
{"timestamp": "2026-01-31T07:09:29.190148Z", "telemetry": {"lat": 13.3545986, "lon": 74.8648314, "satellites": 11, "altitude_gps_m": 133.47108100128173, "groundspeed_mps": 0.14316211640834808}, "flight": {"mode": "LOITER", "armed": false}, "ekf": {"attitude": {"roll": -0.017940685153007507, "pitch": -0.0316619798541069, "yaw": -1.9984062910079956}, "local_position": {"x": null, "y": null, "z": null}, "status": {"flags": 167, "velocity_variance": 0.0, "pos_horiz_variance": 0.022865911945700645, "pos_vert_variance": 0.014831152744591236}}, "errors": ["GPS 1: u-blox saving config", "u-blox 1 HW: 00070000 SW: 1.00 (59842)", "Arm: Need Alt Estimate", "Arm: Gyros inconsistent", "Arm: Compasses inconsistent", "Arm: AHRS: waiting for home", "EKF3 IMU0 origin set", "EKF3 IMU1 origin set", "Field Elevation Set: 39m", "Arm: Gyros inconsistent", "Arm: Compasses inconsistent", "Arm: Need Position Estimate", "Arm: Gyros inconsistent", "Arm: Compasses inconsistent", "Arm: Need Position Estimate", "Arm: Compasses inconsistent", "Arm: Need Position Estimate"]}
{"timestamp": "2026-01-31T07:09:30.190973Z", "telemetry": {"lat": 13.3545986, "lon": 74.8648314, "satellites": 11, "altitude_gps_m": 78975629170.19244, "groundspeed_mps": 0.14316211640834808}, "flight": {"mode": "LOITER", "armed": false}, "ekf": {"attitude": {"roll": -0.017940685153007507, "pitch": -0.0316619798541069, "yaw": -1.9984062910079956}, "local_position": {"x": null, "y": null, "z": null}, "status": {"flags": 167, "velocity_variance": 0.0, "pos_horiz_variance": 0.022865911945700645, "pos_vert_variance": 0.014831152744591236}}, "errors": ["Arm: Compasses inconsistent", "Arm: AHRS: waiting for home", "EKF3 IMU0 origin set", "EKF3 IMU1 origin set", "Field Elevation Set: 39m", "Arm: Gyros inconsistent", "Arm: Compasses inconsistent", "Arm: Need Position Estimate", "Arm: Gyros inconsistent", "Arm: Compasses inconsistent", "Arm: Need Position Estimate", "Arm: Compasses inconsistent", "Arm: Need Position Estimate", "ArduCopter V4.6.1 (57591cb8)", "ChibiOS: 88b84600", "fmuv3 00240032 33385119 36353030", "IOMCU: 420 1001 411FC231", "RCOut: PWM:1-14", "IMU0: fast sampling enabled 8.0kHz/1.0kHz", "Frame: QUAD/X"]}
{"timestamp": "2026-01-31T07:09:31.187900Z", "telemetry": {"lat": 13.3545986, "lon": 74.8648314, "satellites": 11, "altitude_gps_m": 5.0305036887313324e+20, "groundspeed_mps": 0.14316211640834808}, "flight": {"mode": "LOITER", "armed": false}, "ekf": {"attitude": {"roll": -0.017940685153007507, "pitch": -0.0316619798541069, "yaw": -1.9984062910079956}, "local_position": {"x": null, "y": null, "z": null}, "status": {"flags": 167, "velocity_variance": 0.0, "pos_horiz_variance": 0.022865911945700645, "pos_vert_variance": 0.014831152744591236}}, "errors": ["Arm: Compasses inconsistent", "Arm: AHRS: waiting for home", "EKF3 IMU0 origin set", "EKF3 IMU1 origin set", "Field Elevation Set: 39m", "Arm: Gyros inconsistent", "Arm: Compasses inconsistent", "Arm: Need Position Estimate", "Arm: Gyros inconsistent", "Arm: Compasses inconsistent", "Arm: Need Position Estimate", "Arm: Compasses inconsistent", "Arm: Need Position Estimate", "ArduCopter V4.6.1 (57591cb8)", "ChibiOS: 88b84600", "fmuv3 00240032 33385119 36353030", "IOMCU: 420 1001 411FC231", "RCOut: PWM:1-14", "IMU0: fast sampling enabled 8.0kHz/1.0kHz", "Frame: QUAD/X"]}
{"timestamp": "2026-01-31T07:09:32.183837Z", "telemetry": {"lat": 13.3545986, "lon": 74.8648314, "satellites": 11, "altitude_gps_m": 1.0513227914513845e+31, "groundspeed_mps": 0.14316211640834808}, "flight": {"mode": "LOITER", "armed": false}, "ekf": {"attitude": {"roll": -0.017940685153007507, "pitch": -0.0316619798541069, "yaw": -1.9984062910079956}, "local_position": {"x": null, "y": null, "z": null}, "status": {"flags": 167, "velocity_variance": 0.0, "pos_horiz_variance": 0.022865911945700645, "pos_vert_variance": 0.014831152744591236}}, "errors": ["Arm: Compasses inconsistent", "Arm: AHRS: waiting for home", "EKF3 IMU0 origin set", "EKF3 IMU1 origin set", "Field Elevation Set: 39m", "Arm: Gyros inconsistent", "Arm: Compasses inconsistent", "Arm: Need Position Estimate", "Arm: Gyros inconsistent", "Arm: Compasses inconsistent", "Arm: Need Position Estimate", "Arm: Compasses inconsistent", "Arm: Need Position Estimate", "ArduCopter V4.6.1 (57591cb8)", "ChibiOS: 88b84600", "fmuv3 00240032 33385119 36353030", "IOMCU: 420 1001 411FC231", "RCOut: PWM:1-14", "IMU0: fast sampling enabled 8.0kHz/1.0kHz", "Frame: QUAD/X"]}
{"timestamp": "2026-01-31T07:09:33.186467Z", "telemetry": {"lat": 13.3545986, "lon": 74.8648314, "satellites": 11, "altitude_gps_m": 2.1971549574668465e+41, "groundspeed_mps": 0.14316211640834808}, "flight": {"mode": "LOITER", "armed": false}, "ekf": {"attitude": {"roll": -0.017940685153007507, "pitch": -0.0316619798541069, "yaw": -1.9984062910079956}, "local_position": {"x": null, "y": null, "z": null}, "status": {"flags": 167, "velocity_variance": 0.0, "pos_horiz_variance": 0.022865911945700645, "pos_vert_variance": 0.014831152744591236}}, "errors": ["Arm: Compasses inconsistent", "Arm: AHRS: waiting for home", "EKF3 IMU0 origin set", "EKF3 IMU1 origin set", "Field Elevation Set: 39m", "Arm: Gyros inconsistent", "Arm: Compasses inconsistent", "Arm: Need Position Estimate", "Arm: Gyros inconsistent", "Arm: Compasses inconsistent", "Arm: Need Position Estimate", "Arm: Compasses inconsistent", "Arm: Need Position Estimate", "ArduCopter V4.6.1 (57591cb8)", "ChibiOS: 88b84600", "fmuv3 00240032 33385119 36353030", "IOMCU: 420 1001 411FC231", "RCOut: PWM:1-14", "IMU0: fast sampling enabled 8.0kHz/1.0kHz", "Frame: QUAD/X"]}
{"timestamp": "2026-01-31T07:09:34.182175Z", "telemetry": {"lat": 13.3545986, "lon": 74.8648314, "satellites": 11, "altitude_gps_m": 4.591824648314377e+51, "groundspeed_mps": 0.14316211640834808}, "flight": {"mode": "LOITER", "armed": false}, "ekf": {"attitude": {"roll": -0.017940685153007507, "pitch": -0.0316619798541069, "yaw": -1.9984062910079956}, "local_position": {"x": null, "y": null, "z": null}, "status": {"flags": 167, "velocity_variance": 0.0, "pos_horiz_variance": 0.022865911945700645, "pos_vert_variance": 0.014831152744591236}}, "errors": ["EKF3 IMU0 origin set", "EKF3 IMU1 origin set", "Field Elevation Set: 39m", "Arm: Gyros inconsistent", "Arm: Compasses inconsistent", "Arm: Need Position Estimate", "Arm: Gyros inconsistent", "Arm: Compasses inconsistent", "Arm: Need Position Estimate", "Arm: Compasses inconsistent", "Arm: Need Position Estimate", "ArduCopter V4.6.1 (57591cb8)", "ChibiOS: 88b84600", "fmuv3 00240032 33385119 36353030", "IOMCU: 420 1001 411FC231", "RCOut: PWM:1-14", "IMU0: fast sampling enabled 8.0kHz/1.0kHz", "Frame: QUAD/X", "Arm: Compasses inconsistent", "Arm: Need Position Estimate"]}
{"timestamp": "2026-01-31T07:09:35.188211Z", "telemetry": {"lat": 13.3545986, "lon": 74.8648314, "satellites": 11, "altitude_gps_m": 7507685445.592354, "groundspeed_mps": 0.18993143737316132}, "flight": {"mode": "LOITER", "armed": false}, "ekf": {"attitude": {"roll": -0.018344270065426826, "pitch": -0.03310994803905487, "yaw": -1.9981056451797485}, "local_position": {"x": null, "y": null, "z": null}, "status": {"flags": 167, "velocity_variance": 0.0, "pos_horiz_variance": 0.022865911945700645, "pos_vert_variance": 0.014831152744591236}}, "errors": ["EKF3 IMU0 origin set", "EKF3 IMU1 origin set", "Field Elevation Set: 39m", "Arm: Gyros inconsistent", "Arm: Compasses inconsistent", "Arm: Need Position Estimate", "Arm: Gyros inconsistent", "Arm: Compasses inconsistent", "Arm: Need Position Estimate", "Arm: Compasses inconsistent", "Arm: Need Position Estimate", "ArduCopter V4.6.1 (57591cb8)", "ChibiOS: 88b84600", "fmuv3 00240032 33385119 36353030", "IOMCU: 420 1001 411FC231", "RCOut: PWM:1-14", "IMU0: fast sampling enabled 8.0kHz/1.0kHz", "Frame: QUAD/X", "Arm: Compasses inconsistent", "Arm: Need Position Estimate"]}
{"timestamp": "2026-01-31T07:09:36.182694Z", "telemetry": {"lat": 13.3545986, "lon": 74.8648314, "satellites": 11, "altitude_gps_m": 1.569027936045437e+20, "groundspeed_mps": 0.18993143737316132}, "flight": {"mode": "LOITER", "armed": false}, "ekf": {"attitude": {"roll": -0.018344270065426826, "pitch": -0.03310994803905487, "yaw": -1.9981056451797485}, "local_position": {"x": null, "y": null, "z": null}, "status": {"flags": 167, "velocity_variance": 0.0, "pos_horiz_variance": 0.022865911945700645, "pos_vert_variance": 0.014831152744591236}}, "errors": ["EKF3 IMU0 origin set", "EKF3 IMU1 origin set", "Field Elevation Set: 39m", "Arm: Gyros inconsistent", "Arm: Compasses inconsistent", "Arm: Need Position Estimate", "Arm: Gyros inconsistent", "Arm: Compasses inconsistent", "Arm: Need Position Estimate", "Arm: Compasses inconsistent", "Arm: Need Position Estimate", "ArduCopter V4.6.1 (57591cb8)", "ChibiOS: 88b84600", "fmuv3 00240032 33385119 36353030", "IOMCU: 420 1001 411FC231", "RCOut: PWM:1-14", "IMU0: fast sampling enabled 8.0kHz/1.0kHz", "Frame: QUAD/X", "Arm: Compasses inconsistent", "Arm: Need Position Estimate"]}
{"timestamp": "2026-01-31T07:09:37.188487Z", "telemetry": {"lat": 13.3545986, "lon": 74.8648314, "satellites": 11, "altitude_gps_m": 65813116.8649207, "groundspeed_mps": 0.21900220215320587}, "flight": {"mode": "LOITER", "armed": false}, "ekf": {"attitude": {"roll": -0.018163267523050308, "pitch": -0.03435046598315239, "yaw": -1.9975305795669556}, "local_position": {"x": null, "y": null, "z": null}, "status": {"flags": 167, "velocity_variance": 0.0, "pos_horiz_variance": 0.022865911945700645, "pos_vert_variance": 0.014831152744591236}}, "errors": ["EKF3 IMU0 origin set", "EKF3 IMU1 origin set", "Field Elevation Set: 39m", "Arm: Gyros inconsistent", "Arm: Compasses inconsistent", "Arm: Need Position Estimate", "Arm: Gyros inconsistent", "Arm: Compasses inconsistent", "Arm: Need Position Estimate", "Arm: Compasses inconsistent", "Arm: Need Position Estimate", "ArduCopter V4.6.1 (57591cb8)", "ChibiOS: 88b84600", "fmuv3 00240032 33385119 36353030", "IOMCU: 420 1001 411FC231", "RCOut: PWM:1-14", "IMU0: fast sampling enabled 8.0kHz/1.0kHz", "Frame: QUAD/X", "Arm: Compasses inconsistent", "Arm: Need Position Estimate"]}
{"timestamp": "2026-01-31T07:09:38.182639Z", "telemetry": {"lat": 13.3545986, "lon": 74.8648314, "satellites": 11, "altitude_gps_m": 1.3754254845600596e+18, "groundspeed_mps": 0.21900220215320587}, "flight": {"mode": "LOITER", "armed": false}, "ekf": {"attitude": {"roll": -0.018163267523050308, "pitch": -0.03435046598315239, "yaw": -1.9975305795669556}, "local_position": {"x": null, "y": null, "z": null}, "status": {"flags": 167, "velocity_variance": 0.0, "pos_horiz_variance": 0.022865911945700645, "pos_vert_variance": 0.014831152744591236}}, "errors": ["EKF3 IMU0 origin set", "EKF3 IMU1 origin set", "Field Elevation Set: 39m", "Arm: Gyros inconsistent", "Arm: Compasses inconsistent", "Arm: Need Position Estimate", "Arm: Gyros inconsistent", "Arm: Compasses inconsistent", "Arm: Need Position Estimate", "Arm: Compasses inconsistent", "Arm: Need Position Estimate", "ArduCopter V4.6.1 (57591cb8)", "ChibiOS: 88b84600", "fmuv3 00240032 33385119 36353030", "IOMCU: 420 1001 411FC231", "RCOut: PWM:1-14", "IMU0: fast sampling enabled 8.0kHz/1.0kHz", "Frame: QUAD/X", "Arm: Compasses inconsistent", "Arm: Need Position Estimate"]}
{"timestamp": "2026-01-31T07:09:39.182605Z", "telemetry": {"lat": 13.3545986, "lon": 74.8648314, "satellites": 11, "altitude_gps_m": 2.874495774847016e+28, "groundspeed_mps": 0.21900220215320587}, "flight": {"mode": "LOITER", "armed": false}, "ekf": {"attitude": {"roll": -0.018163267523050308, "pitch": -0.03435046598315239, "yaw": -1.9975305795669556}, "local_position": {"x": null, "y": null, "z": null}, "status": {"flags": 167, "velocity_variance": 0.0, "pos_horiz_variance": 0.022865911945700645, "pos_vert_variance": 0.014831152744591236}}, "errors": ["EKF3 IMU0 origin set", "EKF3 IMU1 origin set", "Field Elevation Set: 39m", "Arm: Gyros inconsistent", "Arm: Compasses inconsistent", "Arm: Need Position Estimate", "Arm: Gyros inconsistent", "Arm: Compasses inconsistent", "Arm: Need Position Estimate", "Arm: Compasses inconsistent", "Arm: Need Position Estimate", "ArduCopter V4.6.1 (57591cb8)", "ChibiOS: 88b84600", "fmuv3 00240032 33385119 36353030", "IOMCU: 420 1001 411FC231", "RCOut: PWM:1-14", "IMU0: fast sampling enabled 8.0kHz/1.0kHz", "Frame: QUAD/X", "Arm: Compasses inconsistent", "Arm: Need Position Estimate"]}
{"timestamp": "2026-01-31T07:09:40.213107Z", "telemetry": {"lat": 13.3545986, "lon": 74.8648314, "satellites": 11, "altitude_gps_m": 6.007396294722751e+38, "groundspeed_mps": 0.21900220215320587}, "flight": {"mode": "LOITER", "armed": false}, "ekf": {"attitude": {"roll": -0.018163267523050308, "pitch": -0.03435046598315239, "yaw": -1.9975305795669556}, "local_position": {"x": null, "y": null, "z": null}, "status": {"flags": 167, "velocity_variance": 0.0, "pos_horiz_variance": 0.022865911945700645, "pos_vert_variance": 0.014831152744591236}}, "errors": ["EKF3 IMU0 origin set", "EKF3 IMU1 origin set", "Field Elevation Set: 39m", "Arm: Gyros inconsistent", "Arm: Compasses inconsistent", "Arm: Need Position Estimate", "Arm: Gyros inconsistent", "Arm: Compasses inconsistent", "Arm: Need Position Estimate", "Arm: Compasses inconsistent", "Arm: Need Position Estimate", "ArduCopter V4.6.1 (57591cb8)", "ChibiOS: 88b84600", "fmuv3 00240032 33385119 36353030", "IOMCU: 420 1001 411FC231", "RCOut: PWM:1-14", "IMU0: fast sampling enabled 8.0kHz/1.0kHz", "Frame: QUAD/X", "Arm: Compasses inconsistent", "Arm: Need Position Estimate"]}
{"timestamp": "2026-01-31T07:09:41.192774Z", "telemetry": {"lat": 13.3545986, "lon": 74.8648314, "satellites": 11, "altitude_gps_m": 1.2554831549115537e+49, "groundspeed_mps": 0.21900220215320587}, "flight": {"mode": "LOITER", "armed": false}, "ekf": {"attitude": {"roll": -0.018163267523050308, "pitch": -0.03435046598315239, "yaw": -1.9975305795669556}, "local_position": {"x": null, "y": null, "z": null}, "status": {"flags": 167, "velocity_variance": 0.0, "pos_horiz_variance": 0.022865911945700645, "pos_vert_variance": 0.014831152744591236}}, "errors": ["EKF3 IMU0 origin set", "EKF3 IMU1 origin set", "Field Elevation Set: 39m", "Arm: Gyros inconsistent", "Arm: Compasses inconsistent", "Arm: Need Position Estimate", "Arm: Gyros inconsistent", "Arm: Compasses inconsistent", "Arm: Need Position Estimate", "Arm: Compasses inconsistent", "Arm: Need Position Estimate", "ArduCopter V4.6.1 (57591cb8)", "ChibiOS: 88b84600", "fmuv3 00240032 33385119 36353030", "IOMCU: 420 1001 411FC231", "RCOut: PWM:1-14", "IMU0: fast sampling enabled 8.0kHz/1.0kHz", "Frame: QUAD/X", "Arm: Compasses inconsistent", "Arm: Need Position Estimate"]}
{"timestamp": "2026-01-31T07:09:42.192494Z", "telemetry": {"lat": 13.3545997, "lon": 74.8648332, "satellites": 11, "altitude_gps_m": 215983887.88524732, "groundspeed_mps": 0.2554497718811035}, "flight": {"mode": "LOITER", "armed": false}, "ekf": {"attitude": {"roll": -0.018239030614495277, "pitch": -0.035527266561985016, "yaw": -1.9998680353164673}, "local_position": {"x": null, "y": null, "z": null}, "status": {"flags": 167, "velocity_variance": 0.0, "pos_horiz_variance": 0.0718899741768837, "pos_vert_variance": 0.07109295576810837}}, "errors": ["EKF3 IMU1 origin set", "Field Elevation Set: 39m", "Arm: Gyros inconsistent", "Arm: Compasses inconsistent", "Arm: Need Position Estimate", "Arm: Gyros inconsistent", "Arm: Compasses inconsistent", "Arm: Need Position Estimate", "Arm: Compasses inconsistent", "Arm: Need Position Estimate", "ArduCopter V4.6.1 (57591cb8)", "ChibiOS: 88b84600", "fmuv3 00240032 33385119 36353030", "IOMCU: 420 1001 411FC231", "RCOut: PWM:1-14", "IMU0: fast sampling enabled 8.0kHz/1.0kHz", "Frame: QUAD/X", "Arm: Compasses inconsistent", "Arm: Need Position Estimate", "EKF3 IMU1 is using GPS"]}
{"timestamp": "2026-01-31T07:09:43.191619Z", "telemetry": {"lat": 13.3545997, "lon": 74.8648332, "satellites": 11, "altitude_gps_m": 1899477.2766413917, "groundspeed_mps": 0.09584690630435944}, "flight": {"mode": "LOITER", "armed": false}, "ekf": {"attitude": {"roll": -0.018231378868222237, "pitch": -0.03649955615401268, "yaw": -2.0008459091186523}, "local_position": {"x": 0.19000236690044403, "y": 0.4488458037376404, "z": -3.6245312690734863}, "status": {"flags": 831, "velocity_variance": 0.11911807209253311, "pos_horiz_variance": 0.004421568941324949, "pos_vert_variance": 0.05378933250904083}}, "errors": ["Field Elevation Set: 39m", "Arm: Gyros inconsistent", "Arm: Compasses inconsistent", "Arm: Need Position Estimate", "Arm: Gyros inconsistent", "Arm: Compasses inconsistent", "Arm: Need Position Estimate", "Arm: Compasses inconsistent", "Arm: Need Position Estimate", "ArduCopter V4.6.1 (57591cb8)", "ChibiOS: 88b84600", "fmuv3 00240032 33385119 36353030", "IOMCU: 420 1001 411FC231", "RCOut: PWM:1-14", "IMU0: fast sampling enabled 8.0kHz/1.0kHz", "Frame: QUAD/X", "Arm: Compasses inconsistent", "Arm: Need Position Estimate", "EKF3 IMU1 is using GPS", "EKF3 IMU0 is using GPS"]}
{"timestamp": "2026-01-31T07:09:44.190794Z", "telemetry": {"lat": 13.3546021, "lon": 74.8648317, "satellites": 11, "altitude_gps_m": 53180.53315480114, "groundspeed_mps": 0.1589215248823166}, "flight": {"mode": "LOITER", "armed": false}, "ekf": {"attitude": {"roll": -0.018206670880317688, "pitch": -0.03867599740624428, "yaw": -2.0017800331115723}, "local_position": {"x": 0.2187907099723816, "y": 0.3351171016693115, "z": -3.140882968902588}, "status": {"flags": 831, "velocity_variance": 0.08556907624006271, "pos_horiz_variance": 0.009681460447609425, "pos_vert_variance": 0.022498028352856636}}, "errors": ["Field Elevation Set: 39m", "Arm: Gyros inconsistent", "Arm: Compasses inconsistent", "Arm: Need Position Estimate", "Arm: Gyros inconsistent", "Arm: Compasses inconsistent", "Arm: Need Position Estimate", "Arm: Compasses inconsistent", "Arm: Need Position Estimate", "ArduCopter V4.6.1 (57591cb8)", "ChibiOS: 88b84600", "fmuv3 00240032 33385119 36353030", "IOMCU: 420 1001 411FC231", "RCOut: PWM:1-14", "IMU0: fast sampling enabled 8.0kHz/1.0kHz", "Frame: QUAD/X", "Arm: Compasses inconsistent", "Arm: Need Position Estimate", "EKF3 IMU1 is using GPS", "EKF3 IMU0 is using GPS"]}
{"timestamp": "2026-01-31T07:09:45.190186Z", "telemetry": {"lat": 13.3546021, "lon": 74.8648317, "satellites": 11, "altitude_gps_m": 139.11439249038696, "groundspeed_mps": 0.23682960867881775}, "flight": {"mode": "LOITER", "armed": false}, "ekf": {"attitude": {"roll": -0.017952965572476387, "pitch": -0.03987809643149376, "yaw": -2.0022459030151367}, "local_position": {"x": 0.2187907099723816, "y": 0.3351171016693115, "z": -3.140882968902588}, "status": {"flags": 831, "velocity_variance": 0.08556907624006271, "pos_horiz_variance": 0.009681460447609425, "pos_vert_variance": 0.022498028352856636}}, "errors": ["Field Elevation Set: 39m", "Arm: Gyros inconsistent", "Arm: Compasses inconsistent", "Arm: Need Position Estimate", "Arm: Gyros inconsistent", "Arm: Compasses inconsistent", "Arm: Need Position Estimate", "Arm: Compasses inconsistent", "Arm: Need Position Estimate", "ArduCopter V4.6.1 (57591cb8)", "ChibiOS: 88b84600", "fmuv3 00240032 33385119 36353030", "IOMCU: 420 1001 411FC231", "RCOut: PWM:1-14", "IMU0: fast sampling enabled 8.0kHz/1.0kHz", "Frame: QUAD/X", "Arm: Compasses inconsistent", "Arm: Need Position Estimate", "EKF3 IMU1 is using GPS", "EKF3 IMU0 is using GPS"]}
{"timestamp": "2026-01-31T07:09:46.189753Z", "telemetry": {"lat": 13.3546026, "lon": 74.8648308, "satellites": 11, "altitude_gps_m": 2907345675377.919, "groundspeed_mps": 0.23682960867881775}, "flight": {"mode": "LOITER", "armed": false}, "ekf": {"attitude": {"roll": -0.017952965572476387, "pitch": -0.03987809643149376, "yaw": -2.0022459030151367}, "local_position": {"x": 0.2382420152425766, "y": 0.19356632232666016, "z": -2.912848472595215}, "status": {"flags": 831, "velocity_variance": 0.042142581194639206, "pos_horiz_variance": 0.013058802112936974, "pos_vert_variance": 0.024349162355065346}}, "errors": ["Field Elevation Set: 39m", "Arm: Gyros inconsistent", "Arm: Compasses inconsistent", "Arm: Need Position Estimate", "Arm: Gyros inconsistent", "Arm: Compasses inconsistent", "Arm: Need Position Estimate", "Arm: Compasses inconsistent", "Arm: Need Position Estimate", "ArduCopter V4.6.1 (57591cb8)", "ChibiOS: 88b84600", "fmuv3 00240032 33385119 36353030", "IOMCU: 420 1001 411FC231", "RCOut: PWM:1-14", "IMU0: fast sampling enabled 8.0kHz/1.0kHz", "Frame: QUAD/X", "Arm: Compasses inconsistent", "Arm: Need Position Estimate", "EKF3 IMU1 is using GPS", "EKF3 IMU0 is using GPS"]}
{"timestamp": "2026-01-31T07:09:47.189050Z", "telemetry": {"lat": 13.3546032, "lon": 74.8648303, "satellites": 11, "altitude_gps_m": 6.076049159847196e+22, "groundspeed_mps": 0.23682960867881775}, "flight": {"mode": "LOITER", "armed": false}, "ekf": {"attitude": {"roll": -0.017952965572476387, "pitch": -0.03987809643149376, "yaw": -2.0022459030151367}, "local_position": {"x": 0.24211600422859192, "y": 0.057382091879844666, "z": -2.791024923324585}, "status": {"flags": 831, "velocity_variance": 0.10816150158643723, "pos_horiz_variance": 0.02054002694785595, "pos_vert_variance": 0.014206375926733017}}, "errors": ["Field Elevation Set: 39m", "Arm: Gyros inconsistent", "Arm: Compasses inconsistent", "Arm: Need Position Estimate", "Arm: Gyros inconsistent", "Arm: Compasses inconsistent", "Arm: Need Position Estimate", "Arm: Compasses inconsistent", "Arm: Need Position Estimate", "ArduCopter V4.6.1 (57591cb8)", "ChibiOS: 88b84600", "fmuv3 00240032 33385119 36353030", "IOMCU: 420 1001 411FC231", "RCOut: PWM:1-14", "IMU0: fast sampling enabled 8.0kHz/1.0kHz", "Frame: QUAD/X", "Arm: Compasses inconsistent", "Arm: Need Position Estimate", "EKF3 IMU1 is using GPS", "EKF3 IMU0 is using GPS"]}
{"timestamp": "2026-01-31T07:09:48.194800Z", "telemetry": {"lat": 13.354604, "lon": 74.8648321, "satellites": 11, "altitude_gps_m": 882144946321.263, "groundspeed_mps": 0.23925010859966278}, "flight": {"mode": "LOITER", "armed": false}, "ekf": {"attitude": {"roll": -0.018202045932412148, "pitch": -0.03700580075383186, "yaw": -2.003650188446045}, "local_position": {"x": 0.27401289343833923, "y": 0.07092514634132385, "z": -2.725602388381958}, "status": {"flags": 831, "velocity_variance": 0.09843148291110992, "pos_horiz_variance": 0.03373568877577782, "pos_vert_variance": 0.01139810960739851}}, "errors": ["Field Elevation Set: 39m", "Arm: Gyros inconsistent", "Arm: Compasses inconsistent", "Arm: Need Position Estimate", "Arm: Gyros inconsistent", "Arm: Compasses inconsistent", "Arm: Need Position Estimate", "Arm: Compasses inconsistent", "Arm: Need Position Estimate", "ArduCopter V4.6.1 (57591cb8)", "ChibiOS: 88b84600", "fmuv3 00240032 33385119 36353030", "IOMCU: 420 1001 411FC231", "RCOut: PWM:1-14", "IMU0: fast sampling enabled 8.0kHz/1.0kHz", "Frame: QUAD/X", "Arm: Compasses inconsistent", "Arm: Need Position Estimate", "EKF3 IMU1 is using GPS", "EKF3 IMU0 is using GPS"]}
{"timestamp": "2026-01-31T07:09:49.196068Z", "telemetry": {"lat": 13.3546046, "lon": 74.8648332, "satellites": 11, "altitude_gps_m": 81926538501.32127, "groundspeed_mps": 0.18720927834510803}, "flight": {"mode": "LOITER", "armed": false}, "ekf": {"attitude": {"roll": -0.018391435965895653, "pitch": -0.03464512526988983, "yaw": -2.0046143531799316}, "local_position": {"x": 0.33572497963905334, "y": 0.15030153095722198, "z": -2.7208335399627686}, "status": {"flags": 831, "velocity_variance": 0.07132533192634583, "pos_horiz_variance": 0.038207415491342545, "pos_vert_variance": 0.016718139871954918}}, "errors": ["Arm: Gyros inconsistent", "Arm: Compasses inconsistent", "Arm: Need Position Estimate", "Arm: Gyros inconsistent", "Arm: Compasses inconsistent", "Arm: Need Position Estimate", "Arm: Compasses inconsistent", "Arm: Need Position Estimate", "ArduCopter V4.6.1 (57591cb8)", "ChibiOS: 88b84600", "fmuv3 00240032 33385119 36353030", "IOMCU: 420 1001 411FC231", "RCOut: PWM:1-14", "IMU0: fast sampling enabled 8.0kHz/1.0kHz", "Frame: QUAD/X", "Arm: Compasses inconsistent", "Arm: Need Position Estimate", "EKF3 IMU1 is using GPS", "EKF3 IMU0 is using GPS", "Arm: Compasses inconsistent"]}
{"timestamp": "2026-01-31T07:09:50.187509Z", "telemetry": {"lat": 13.354605, "lon": 74.8648337, "satellites": 11, "altitude_gps_m": 882144946321.263, "groundspeed_mps": 0.1672419160604477}, "flight": {"mode": "LOITER", "armed": false}, "ekf": {"attitude": {"roll": -0.018391435965895653, "pitch": -0.03464512526988983, "yaw": -2.0046143531799316}, "local_position": {"x": 0.3926845192909241, "y": 0.2120785117149353, "z": -2.7203192710876465}, "status": {"flags": 831, "velocity_variance": 0.0644647628068924, "pos_horiz_variance": 0.03832460194826126, "pos_vert_variance": 0.02468772977590561}}, "errors": ["Arm: Gyros inconsistent", "Arm: Compasses inconsistent", "Arm: Need Position Estimate", "Arm: Gyros inconsistent", "Arm: Compasses inconsistent", "Arm: Need Position Estimate", "Arm: Compasses inconsistent", "Arm: Need Position Estimate", "ArduCopter V4.6.1 (57591cb8)", "ChibiOS: 88b84600", "fmuv3 00240032 33385119 36353030", "IOMCU: 420 1001 411FC231", "RCOut: PWM:1-14", "IMU0: fast sampling enabled 8.0kHz/1.0kHz", "Frame: QUAD/X", "Arm: Compasses inconsistent", "Arm: Need Position Estimate", "EKF3 IMU1 is using GPS", "EKF3 IMU0 is using GPS", "Arm: Compasses inconsistent"]}
{"timestamp": "2026-01-31T07:09:51.189332Z", "telemetry": {"lat": 13.3546054, "lon": 74.8648335, "satellites": 11, "altitude_gps_m": 881726957618.988, "groundspeed_mps": 0.18070583045482635}, "flight": {"mode": "LOITER", "armed": false}, "ekf": {"attitude": {"roll": -0.018276043236255646, "pitch": -0.03471947833895683, "yaw": -2.0048651695251465}, "local_position": {"x": 0.4274746775627136, "y": 0.2141328603029251, "z": -2.700629949569702}, "status": {"flags": 831, "velocity_variance": 0.06325908750295639, "pos_horiz_variance": 0.03634825348854065, "pos_vert_variance": 0.030557220801711082}}, "errors": ["Arm: Compasses inconsistent", "Arm: Need Position Estimate", "Arm: Gyros inconsistent", "Arm: Compasses inconsistent", "Arm: Need Position Estimate", "Arm: Compasses inconsistent", "Arm: Need Position Estimate", "ArduCopter V4.6.1 (57591cb8)", "ChibiOS: 88b84600", "fmuv3 00240032 33385119 36353030", "IOMCU: 420 1001 411FC231", "RCOut: PWM:1-14", "IMU0: fast sampling enabled 8.0kHz/1.0kHz", "Frame: QUAD/X", "Arm: Compasses inconsistent", "Arm: Need Position Estimate", "EKF3 IMU1 is using GPS", "EKF3 IMU0 is using GPS", "Arm: Compasses inconsistent", "Arm: Compasses inconsistent"]}
{"timestamp": "2026-01-31T07:09:52.186287Z", "telemetry": {"lat": 13.3546059, "lon": 74.8648337, "satellites": 10, "altitude_gps_m": 81907120482.73914, "groundspeed_mps": 0.17157794535160065}, "flight": {"mode": "LOITER", "armed": false}, "ekf": {"attitude": {"roll": -0.01825810968875885, "pitch": -0.03459750860929489, "yaw": -2.005279541015625}, "local_position": {"x": 0.476093053817749, "y": 0.247452512383461, "z": -2.70145845413208}, "status": {"flags": 831, "velocity_variance": 0.06336277723312378, "pos_horiz_variance": 0.03529251739382744, "pos_vert_variance": 0.03141945227980614}}, "errors": ["Arm: Compasses inconsistent", "Arm: Need Position Estimate", "Arm: Gyros inconsistent", "Arm: Compasses inconsistent", "Arm: Need Position Estimate", "Arm: Compasses inconsistent", "Arm: Need Position Estimate", "ArduCopter V4.6.1 (57591cb8)", "ChibiOS: 88b84600", "fmuv3 00240032 33385119 36353030", "IOMCU: 420 1001 411FC231", "RCOut: PWM:1-14", "IMU0: fast sampling enabled 8.0kHz/1.0kHz", "Frame: QUAD/X", "Arm: Compasses inconsistent", "Arm: Need Position Estimate", "EKF3 IMU1 is using GPS", "EKF3 IMU0 is using GPS", "Arm: Compasses inconsistent", "Arm: Compasses inconsistent"]}
{"timestamp": "2026-01-31T07:09:53.193227Z", "telemetry": {"lat": 13.3546059, "lon": 74.8648336, "satellites": 11, "altitude_gps_m": 1.711773370498708e+21, "groundspeed_mps": 0.17157794535160065}, "flight": {"mode": "LOITER", "armed": false}, "ekf": {"attitude": {"roll": -0.018245067447423935, "pitch": -0.03584585338830948, "yaw": -2.006314992904663}, "local_position": {"x": 0.49764057993888855, "y": 0.24384236335754395, "z": -2.715977907180786}, "status": {"flags": 831, "velocity_variance": 0.03400300815701485, "pos_horiz_variance": 0.03289347141981125, "pos_vert_variance": 0.0332149937748909}}, "errors": ["Arm: Need Position Estimate", "Arm: Gyros inconsistent", "Arm: Compasses inconsistent", "Arm: Need Position Estimate", "Arm: Compasses inconsistent", "Arm: Need Position Estimate", "ArduCopter V4.6.1 (57591cb8)", "ChibiOS: 88b84600", "fmuv3 00240032 33385119 36353030", "IOMCU: 420 1001 411FC231", "RCOut: PWM:1-14", "IMU0: fast sampling enabled 8.0kHz/1.0kHz", "Frame: QUAD/X", "Arm: Compasses inconsistent", "Arm: Need Position Estimate", "EKF3 IMU1 is using GPS", "EKF3 IMU0 is using GPS", "Arm: Compasses inconsistent", "Arm: Compasses inconsistent", "Arm: Compasses inconsistent"]}
{"timestamp": "2026-01-31T07:09:54.187672Z", "telemetry": {"lat": 13.3546061, "lon": 74.864833, "satellites": 11, "altitude_gps_m": 3.577427767792181e+31, "groundspeed_mps": 0.17157794535160065}, "flight": {"mode": "LOITER", "armed": false}, "ekf": {"attitude": {"roll": -0.018245067447423935, "pitch": -0.03584585338830948, "yaw": -2.006314992904663}, "local_position": {"x": 0.49764057993888855, "y": 0.24384236335754395, "z": -2.715977907180786}, "status": {"flags": 831, "velocity_variance": 0.03400300815701485, "pos_horiz_variance": 0.03289347141981125, "pos_vert_variance": 0.0332149937748909}}, "errors": ["Arm: Need Position Estimate", "Arm: Gyros inconsistent", "Arm: Compasses inconsistent", "Arm: Need Position Estimate", "Arm: Compasses inconsistent", "Arm: Need Position Estimate", "ArduCopter V4.6.1 (57591cb8)", "ChibiOS: 88b84600", "fmuv3 00240032 33385119 36353030", "IOMCU: 420 1001 411FC231", "RCOut: PWM:1-14", "IMU0: fast sampling enabled 8.0kHz/1.0kHz", "Frame: QUAD/X", "Arm: Compasses inconsistent", "Arm: Need Position Estimate", "EKF3 IMU1 is using GPS", "EKF3 IMU0 is using GPS", "Arm: Compasses inconsistent", "Arm: Compasses inconsistent", "Arm: Compasses inconsistent"]}
{"timestamp": "2026-01-31T07:09:55.192987Z", "telemetry": {"lat": 13.3546059, "lon": 74.8648322, "satellites": 11, "altitude_gps_m": 268546179343.8502, "groundspeed_mps": 0.2561081051826477}, "flight": {"mode": "LOITER", "armed": false}, "ekf": {"attitude": {"roll": -0.01823139376938343, "pitch": -0.036317650228738785, "yaw": -2.0069823265075684}, "local_position": {"x": 0.5162813663482666, "y": 0.13798284530639648, "z": -2.677558422088623}, "status": {"flags": 831, "velocity_variance": 0.09938587993383408, "pos_horiz_variance": 0.02641262486577034, "pos_vert_variance": 0.022099846974015236}}, "errors": ["Arm: Need Position Estimate", "Arm: Gyros inconsistent", "Arm: Compasses inconsistent", "Arm: Need Position Estimate", "Arm: Compasses inconsistent", "Arm: Need Position Estimate", "ArduCopter V4.6.1 (57591cb8)", "ChibiOS: 88b84600", "fmuv3 00240032 33385119 36353030", "IOMCU: 420 1001 411FC231", "RCOut: PWM:1-14", "IMU0: fast sampling enabled 8.0kHz/1.0kHz", "Frame: QUAD/X", "Arm: Compasses inconsistent", "Arm: Need Position Estimate", "EKF3 IMU1 is using GPS", "EKF3 IMU0 is using GPS", "Arm: Compasses inconsistent", "Arm: Compasses inconsistent", "Arm: Compasses inconsistent"]}
{"timestamp": "2026-01-31T07:09:56.193054Z", "telemetry": {"lat": 13.3546059, "lon": 74.8648322, "satellites": 11, "altitude_gps_m": 5.612334994084509e+21, "groundspeed_mps": 0.2561081051826477}, "flight": {"mode": "LOITER", "armed": false}, "ekf": {"attitude": {"roll": -0.01823139376938343, "pitch": -0.036317650228738785, "yaw": -2.0069823265075684}, "local_position": {"x": 0.5162813663482666, "y": 0.13798284530639648, "z": -2.677558422088623}, "status": {"flags": 831, "velocity_variance": 0.09938587993383408, "pos_horiz_variance": 0.02641262486577034, "pos_vert_variance": 0.022099846974015236}}, "errors": ["Arm: Need Position Estimate", "Arm: Gyros inconsistent", "Arm: Compasses inconsistent", "Arm: Need Position Estimate", "Arm: Compasses inconsistent", "Arm: Need Position Estimate", "ArduCopter V4.6.1 (57591cb8)", "ChibiOS: 88b84600", "fmuv3 00240032 33385119 36353030", "IOMCU: 420 1001 411FC231", "RCOut: PWM:1-14", "IMU0: fast sampling enabled 8.0kHz/1.0kHz", "Frame: QUAD/X", "Arm: Compasses inconsistent", "Arm: Need Position Estimate", "EKF3 IMU1 is using GPS", "EKF3 IMU0 is using GPS", "Arm: Compasses inconsistent", "Arm: Compasses inconsistent", "Arm: Compasses inconsistent"]}
{"timestamp": "2026-01-31T07:09:57.194335Z", "telemetry": {"lat": 13.3546059, "lon": 74.8648322, "satellites": 11, "altitude_gps_m": 1.1729194644580926e+32, "groundspeed_mps": 0.2561081051826477}, "flight": {"mode": "LOITER", "armed": false}, "ekf": {"attitude": {"roll": -0.01823139376938343, "pitch": -0.036317650228738785, "yaw": -2.0069823265075684}, "local_position": {"x": 0.5162813663482666, "y": 0.13798284530639648, "z": -2.677558422088623}, "status": {"flags": 831, "velocity_variance": 0.09938587993383408, "pos_horiz_variance": 0.02641262486577034, "pos_vert_variance": 0.022099846974015236}}, "errors": ["Arm: Need Position Estimate", "Arm: Gyros inconsistent", "Arm: Compasses inconsistent", "Arm: Need Position Estimate", "Arm: Compasses inconsistent", "Arm: Need Position Estimate", "ArduCopter V4.6.1 (57591cb8)", "ChibiOS: 88b84600", "fmuv3 00240032 33385119 36353030", "IOMCU: 420 1001 411FC231", "RCOut: PWM:1-14", "IMU0: fast sampling enabled 8.0kHz/1.0kHz", "Frame: QUAD/X", "Arm: Compasses inconsistent", "Arm: Need Position Estimate", "EKF3 IMU1 is using GPS", "EKF3 IMU0 is using GPS", "Arm: Compasses inconsistent", "Arm: Compasses inconsistent", "Arm: Compasses inconsistent"]}
{"timestamp": "2026-01-31T07:09:58.202883Z", "telemetry": {"lat": 13.3546059, "lon": 74.8648322, "satellites": 11, "altitude_gps_m": 2.4512793187767857e+42, "groundspeed_mps": 0.2561081051826477}, "flight": {"mode": "LOITER", "armed": false}, "ekf": {"attitude": {"roll": -0.01823139376938343, "pitch": -0.036317650228738785, "yaw": -2.0069823265075684}, "local_position": {"x": 0.5162813663482666, "y": 0.13798284530639648, "z": -2.677558422088623}, "status": {"flags": 831, "velocity_variance": 0.09938587993383408, "pos_horiz_variance": 0.02641262486577034, "pos_vert_variance": 0.022099846974015236}}, "errors": ["Arm: Need Position Estimate", "Arm: Gyros inconsistent", "Arm: Compasses inconsistent", "Arm: Need Position Estimate", "Arm: Compasses inconsistent", "Arm: Need Position Estimate", "ArduCopter V4.6.1 (57591cb8)", "ChibiOS: 88b84600", "fmuv3 00240032 33385119 36353030", "IOMCU: 420 1001 411FC231", "RCOut: PWM:1-14", "IMU0: fast sampling enabled 8.0kHz/1.0kHz", "Frame: QUAD/X", "Arm: Compasses inconsistent", "Arm: Need Position Estimate", "EKF3 IMU1 is using GPS", "EKF3 IMU0 is using GPS", "Arm: Compasses inconsistent", "Arm: Compasses inconsistent", "Arm: Compasses inconsistent"]}
{"timestamp": "2026-01-31T07:09:59.202066Z", "telemetry": {"lat": 13.3546059, "lon": 74.8648322, "satellites": 11, "altitude_gps_m": 5.122918052552676e+52, "groundspeed_mps": 0.2561081051826477}, "flight": {"mode": "LOITER", "armed": false}, "ekf": {"attitude": {"roll": -0.01823139376938343, "pitch": -0.036317650228738785, "yaw": -2.0069823265075684}, "local_position": {"x": 0.5162813663482666, "y": 0.13798284530639648, "z": -2.677558422088623}, "status": {"flags": 831, "velocity_variance": 0.09938587993383408, "pos_horiz_variance": 0.02641262486577034, "pos_vert_variance": 0.022099846974015236}}, "errors": ["Arm: Need Position Estimate", "Arm: Gyros inconsistent", "Arm: Compasses inconsistent", "Arm: Need Position Estimate", "Arm: Compasses inconsistent", "Arm: Need Position Estimate", "ArduCopter V4.6.1 (57591cb8)", "ChibiOS: 88b84600", "fmuv3 00240032 33385119 36353030", "IOMCU: 420 1001 411FC231", "RCOut: PWM:1-14", "IMU0: fast sampling enabled 8.0kHz/1.0kHz", "Frame: QUAD/X", "Arm: Compasses inconsistent", "Arm: Need Position Estimate", "EKF3 IMU1 is using GPS", "EKF3 IMU0 is using GPS", "Arm: Compasses inconsistent", "Arm: Compasses inconsistent", "Arm: Compasses inconsistent"]}
{"timestamp": "2026-01-31T07:10:00.201627Z", "telemetry": {"lat": 13.3546059, "lon": 74.8648322, "satellites": 11, "altitude_gps_m": 80509319376.99278, "groundspeed_mps": 0.38438040018081665}, "flight": {"mode": "LOITER", "armed": false}, "ekf": {"attitude": {"roll": -0.01823139376938343, "pitch": -0.036317650228738785, "yaw": -2.0069823265075684}, "local_position": {"x": 0.398486465215683, "y": -0.40773192048072815, "z": -1.985584020614624}, "status": {"flags": 831, "velocity_variance": 0.08820481598377228, "pos_horiz_variance": 0.02238653413951397, "pos_vert_variance": 0.006469072308391333}}, "errors": ["Arm: Need Position Estimate", "Arm: Gyros inconsistent", "Arm: Compasses inconsistent", "Arm: Need Position Estimate", "Arm: Compasses inconsistent", "Arm: Need Position Estimate", "ArduCopter V4.6.1 (57591cb8)", "ChibiOS: 88b84600", "fmuv3 00240032 33385119 36353030", "IOMCU: 420 1001 411FC231", "RCOut: PWM:1-14", "IMU0: fast sampling enabled 8.0kHz/1.0kHz", "Frame: QUAD/X", "Arm: Compasses inconsistent", "Arm: Need Position Estimate", "EKF3 IMU1 is using GPS", "EKF3 IMU0 is using GPS", "Arm: Compasses inconsistent", "Arm: Compasses inconsistent", "Arm: Compasses inconsistent"]}
{"timestamp": "2026-01-31T07:10:01.206673Z", "telemetry": {"lat": 13.3546059, "lon": 74.8648322, "satellites": 11, "altitude_gps_m": 1.6825607856102611e+21, "groundspeed_mps": 0.38438040018081665}, "flight": {"mode": "LOITER", "armed": false}, "ekf": {"attitude": {"roll": -0.01823139376938343, "pitch": -0.036317650228738785, "yaw": -2.0069823265075684}, "local_position": {"x": 0.398486465215683, "y": -0.40773192048072815, "z": -1.985584020614624}, "status": {"flags": 831, "velocity_variance": 0.08820481598377228, "pos_horiz_variance": 0.02238653413951397, "pos_vert_variance": 0.006469072308391333}}, "errors": ["Arm: Need Position Estimate", "Arm: Gyros inconsistent", "Arm: Compasses inconsistent", "Arm: Need Position Estimate", "Arm: Compasses inconsistent", "Arm: Need Position Estimate", "ArduCopter V4.6.1 (57591cb8)", "ChibiOS: 88b84600", "fmuv3 00240032 33385119 36353030", "IOMCU: 420 1001 411FC231", "RCOut: PWM:1-14", "IMU0: fast sampling enabled 8.0kHz/1.0kHz", "Frame: QUAD/X", "Arm: Compasses inconsistent", "Arm: Need Position Estimate", "EKF3 IMU1 is using GPS", "EKF3 IMU0 is using GPS", "Arm: Compasses inconsistent", "Arm: Compasses inconsistent", "Arm: Compasses inconsistent"]}
{"timestamp": "2026-01-31T07:10:02.198485Z", "telemetry": {"lat": 13.3546051, "lon": 74.8648267, "satellites": 11, "altitude_gps_m": 79926904718.19987, "groundspeed_mps": 0.3492223620414734}, "flight": {"mode": "LOITER", "armed": false}, "ekf": {"attitude": {"roll": -0.0187391247600317, "pitch": -0.036456383764743805, "yaw": -2.00736665725708}, "local_position": {"x": 0.33525827527046204, "y": -0.4955819249153137, "z": -1.6846977472305298}, "status": {"flags": 831, "velocity_variance": 0.11711536347866058, "pos_horiz_variance": 0.028387881815433502, "pos_vert_variance": 0.008774163201451302}}, "errors": ["Arm: Need Position Estimate", "Arm: Gyros inconsistent", "Arm: Compasses inconsistent", "Arm: Need Position Estimate", "Arm: Compasses inconsistent", "Arm: Need Position Estimate", "ArduCopter V4.6.1 (57591cb8)", "ChibiOS: 88b84600", "fmuv3 00240032 33385119 36353030", "IOMCU: 420 1001 411FC231", "RCOut: PWM:1-14", "IMU0: fast sampling enabled 8.0kHz/1.0kHz", "Frame: QUAD/X", "Arm: Compasses inconsistent", "Arm: Need Position Estimate", "EKF3 IMU1 is using GPS", "EKF3 IMU0 is using GPS", "Arm: Compasses inconsistent", "Arm: Compasses inconsistent", "Arm: Compasses inconsistent"]}
{"timestamp": "2026-01-31T07:10:03.210277Z", "telemetry": {"lat": 13.3546055, "lon": 74.864826, "satellites": 11, "altitude_gps_m": 439.8563130304108, "groundspeed_mps": 0.27121466398239136}, "flight": {"mode": "LOITER", "armed": false}, "ekf": {"attitude": {"roll": -0.018575992435216904, "pitch": -0.03464485704898834, "yaw": -2.006755828857422}, "local_position": {"x": 0.376593679189682, "y": -0.4669240415096283, "z": -1.4094451665878296}, "status": {"flags": 831, "velocity_variance": 0.11939582973718643, "pos_horiz_variance": 0.0259071234613657, "pos_vert_variance": 0.002775919158011675}}, "errors": ["Arm: Need Position Estimate", "Arm: Gyros inconsistent", "Arm: Compasses inconsistent", "Arm: Need Position Estimate", "Arm: Compasses inconsistent", "Arm: Need Position Estimate", "ArduCopter V4.6.1 (57591cb8)", "ChibiOS: 88b84600", "fmuv3 00240032 33385119 36353030", "IOMCU: 420 1001 411FC231", "RCOut: PWM:1-14", "IMU0: fast sampling enabled 8.0kHz/1.0kHz", "Frame: QUAD/X", "Arm: Compasses inconsistent", "Arm: Need Position Estimate", "EKF3 IMU1 is using GPS", "EKF3 IMU0 is using GPS", "Arm: Compasses inconsistent", "Arm: Compasses inconsistent", "Arm: Compasses inconsistent"]}
{"timestamp": "2026-01-31T07:10:04.194464Z", "telemetry": {"lat": 13.3546053, "lon": 74.8648258, "satellites": 11, "altitude_gps_m": 683011383.1296436, "groundspeed_mps": 0.2473214566707611}, "flight": {"mode": "LOITER", "armed": false}, "ekf": {"attitude": {"roll": -0.018722185865044594, "pitch": -0.034454576671123505, "yaw": -2.0066781044006348}, "local_position": {"x": 0.405114084482193, "y": -0.44736096262931824, "z": -1.2440546751022339}, "status": {"flags": 831, "velocity_variance": 0.08184784650802612, "pos_horiz_variance": 0.022660670801997185, "pos_vert_variance": 0.00050983956316486}}, "errors": ["Arm: Need Position Estimate", "Arm: Gyros inconsistent", "Arm: Compasses inconsistent", "Arm: Need Position Estimate", "Arm: Compasses inconsistent", "Arm: Need Position Estimate", "ArduCopter V4.6.1 (57591cb8)", "ChibiOS: 88b84600", "fmuv3 00240032 33385119 36353030", "IOMCU: 420 1001 411FC231", "RCOut: PWM:1-14", "IMU0: fast sampling enabled 8.0kHz/1.0kHz", "Frame: QUAD/X", "Arm: Compasses inconsistent", "Arm: Need Position Estimate", "EKF3 IMU1 is using GPS", "EKF3 IMU0 is using GPS", "Arm: Compasses inconsistent", "Arm: Compasses inconsistent", "Arm: Compasses inconsistent"]}
{"timestamp": "2026-01-31T07:10:05.193885Z", "telemetry": {"lat": 13.3546053, "lon": 74.8648261, "satellites": 11, "altitude_gps_m": 680498438.5990628, "groundspeed_mps": 0.2325509488582611}, "flight": {"mode": "LOITER", "armed": false}, "ekf": {"attitude": {"roll": -0.01885874569416046, "pitch": -0.034145910292863846, "yaw": -2.0064568519592285}, "local_position": {"x": 0.3996396064758301, "y": -0.44902870059013367, "z": -1.135736107826233}, "status": {"flags": 831, "velocity_variance": 0.05496111884713173, "pos_horiz_variance": 0.02386641316115856, "pos_vert_variance": 0.003132821060717106}}, "errors": ["Arm: Need Position Estimate", "Arm: Gyros inconsistent", "Arm: Compasses inconsistent", "Arm: Need Position Estimate", "Arm: Compasses inconsistent", "Arm: Need Position Estimate", "ArduCopter V4.6.1 (57591cb8)", "ChibiOS: 88b84600", "fmuv3 00240032 33385119 36353030", "IOMCU: 420 1001 411FC231", "RCOut: PWM:1-14", "IMU0: fast sampling enabled 8.0kHz/1.0kHz", "Frame: QUAD/X", "Arm: Compasses inconsistent", "Arm: Need Position Estimate", "EKF3 IMU1 is using GPS", "EKF3 IMU0 is using GPS", "Arm: Compasses inconsistent", "Arm: Compasses inconsistent", "Arm: Compasses inconsistent"]}
{"timestamp": "2026-01-31T07:10:06.197658Z", "telemetry": {"lat": 13.3546052, "lon": 74.864826, "satellites": 11, "altitude_gps_m": 165726.27410329986, "groundspeed_mps": 0.22449150681495667}, "flight": {"mode": "LOITER", "armed": false}, "ekf": {"attitude": {"roll": -0.018583063036203384, "pitch": -0.03414656221866608, "yaw": -2.0060875415802}, "local_position": {"x": 0.4117535650730133, "y": -0.47803524136543274, "z": -1.002317190170288}, "status": {"flags": 831, "velocity_variance": 0.07069481164216995, "pos_horiz_variance": 0.023363253101706505, "pos_vert_variance": 0.0019180560484528542}}, "errors": ["Arm: Need Position Estimate", "Arm: Gyros inconsistent", "Arm: Compasses inconsistent", "Arm: Need Position Estimate", "Arm: Compasses inconsistent", "Arm: Need Position Estimate", "ArduCopter V4.6.1 (57591cb8)", "ChibiOS: 88b84600", "fmuv3 00240032 33385119 36353030", "IOMCU: 420 1001 411FC231", "RCOut: PWM:1-14", "IMU0: fast sampling enabled 8.0kHz/1.0kHz", "Frame: QUAD/X", "Arm: Compasses inconsistent", "Arm: Need Position Estimate", "EKF3 IMU1 is using GPS", "EKF3 IMU0 is using GPS", "Arm: Compasses inconsistent", "Arm: Compasses inconsistent", "Arm: Compasses inconsistent"]}
{"timestamp": "2026-01-31T07:10:07.176770Z", "telemetry": {"lat": 13.3546051, "lon": 74.8648259, "satellites": 11, "altitude_gps_m": 132.51958799743653, "groundspeed_mps": 0.20694024860858917}, "flight": {"mode": "LOITER", "armed": false}, "ekf": {"attitude": {"roll": -0.018040809780359268, "pitch": -0.03379270061850548, "yaw": -2.0057458877563477}, "local_position": {"x": 0.42128127813339233, "y": -0.4802802801132202, "z": -0.9307474493980408}, "status": {"flags": 831, "velocity_variance": 0.10087119042873383, "pos_horiz_variance": 0.0227814968675375, "pos_vert_variance": 0.0008396586054004729}}, "errors": ["Arm: Need Position Estimate", "Arm: Gyros inconsistent", "Arm: Compasses inconsistent", "Arm: Need Position Estimate", "Arm: Compasses inconsistent", "Arm: Need Position Estimate", "ArduCopter V4.6.1 (57591cb8)", "ChibiOS: 88b84600", "fmuv3 00240032 33385119 36353030", "IOMCU: 420 1001 411FC231", "RCOut: PWM:1-14", "IMU0: fast sampling enabled 8.0kHz/1.0kHz", "Frame: QUAD/X", "Arm: Compasses inconsistent", "Arm: Need Position Estimate", "EKF3 IMU1 is using GPS", "EKF3 IMU0 is using GPS", "Arm: Compasses inconsistent", "Arm: Compasses inconsistent", "Arm: Compasses inconsistent"]}
{"timestamp": "2026-01-31T07:10:08.190279Z", "telemetry": {"lat": 13.3546054, "lon": 74.8648255, "satellites": 11, "altitude_gps_m": 2218424331.60391, "groundspeed_mps": 0.20878414809703827}, "flight": {"mode": "LOITER", "armed": false}, "ekf": {"attitude": {"roll": -0.017975518479943275, "pitch": -0.03393857926130295, "yaw": -2.005720615386963}, "local_position": {"x": 0.4544953405857086, "y": -0.5399371385574341, "z": -0.7878251671791077}, "status": {"flags": 831, "velocity_variance": 0.05248381197452545, "pos_horiz_variance": 0.022350896149873734, "pos_vert_variance": 0.002652182476595044}}, "errors": ["Arm: Need Position Estimate", "Arm: Gyros inconsistent", "Arm: Compasses inconsistent", "Arm: Need Position Estimate", "Arm: Compasses inconsistent", "Arm: Need Position Estimate", "ArduCopter V4.6.1 (57591cb8)", "ChibiOS: 88b84600", "fmuv3 00240032 33385119 36353030", "IOMCU: 420 1001 411FC231", "RCOut: PWM:1-14", "IMU0: fast sampling enabled 8.0kHz/1.0kHz", "Frame: QUAD/X", "Arm: Compasses inconsistent", "Arm: Need Position Estimate", "EKF3 IMU1 is using GPS", "EKF3 IMU0 is using GPS", "Arm: Compasses inconsistent", "Arm: Compasses inconsistent", "Arm: Compasses inconsistent"]}
