{"timestamp": "2026-01-31T13:10:16.006327Z", "telemetry": {"lat": 13.3525642, "lon": 74.8648459, "satellites": 6, "altitude_gps_m": 57.349998474121094, "groundspeed_mps": 0.9863364100456238}, "flight": {"mode": "STABILIZE", "armed": false}, "ekf": {"attitude": {"roll": -0.02854739874601364, "pitch": -0.024286959320306778, "yaw": 1.4735337495803833}, "local_position": {"x": -16.661069869995117, "y": 21.33830451965332, "z": -10.6406888961792}, "status": {"flags": 33599, "velocity_variance": 0.4746282398700714, "pos_horiz_variance": 0.01416697632521391, "pos_vert_variance": 0.02895812876522541}}, "errors": []}
{"timestamp": "2026-01-31T13:10:16.956829Z", "telemetry": {"lat": 13.352557, "lon": 74.864843, "satellites": 6, "altitude_gps_m": 57.27000045776367, "groundspeed_mps": 0.8380545377731323}, "flight": {"mode": "STABILIZE", "armed": false}, "ekf": {"attitude": {"roll": -0.02833389677107334, "pitch": -0.02224760130047798, "yaw": 1.4736260175704956}, "local_position": {"x": -16.752418518066406, "y": 21.48116111755371, "z": -10.56916618347168}, "status": {"flags": 33599, "velocity_variance": 0.4925728142261505, "pos_horiz_variance": 0.010646732524037361, "pos_vert_variance": 0.06089247390627861}}, "errors": []}
{"timestamp": "2026-01-31T13:10:17.946537Z", "telemetry": {"lat": 13.35256, "lon": 74.8648511, "satellites": 5, "altitude_gps_m": 57.369998931884766, "groundspeed_mps": 0.8354403972625732}, "flight": {"mode": "STABILIZE", "armed": false}, "ekf": {"attitude": {"roll": -0.029009275138378143, "pitch": -0.02210506796836853, "yaw": 1.473560094833374}, "local_position": {"x": -16.670469284057617, "y": 21.968589782714844, "z": -10.653390884399414}, "status": {"flags": 33599, "velocity_variance": 0.5463115572929382, "pos_horiz_variance": 0.010558596812188625, "pos_vert_variance": 0.02011091820895672}}, "errors": []}
{"timestamp": "2026-01-31T13:10:18.946039Z", "telemetry": {"lat": 13.3525748, "lon": 74.8648658, "satellites": 5, "altitude_gps_m": 57.30999755859375, "groundspeed_mps": 0.8928290009498596}, "flight": {"mode": "STABILIZE", "armed": false}, "ekf": {"attitude": {"roll": -0.030246494337916374, "pitch": -0.02266288548707962, "yaw": 1.4736924171447754}, "local_position": {"x": -16.269256591796875, "y": 22.978899002075195, "z": -10.601895332336426}, "status": {"flags": 33599, "velocity_variance": 1.0390506982803345, "pos_horiz_variance": 0.022977476939558983, "pos_vert_variance": 0.045061107724905014}}, "errors": []}
{"timestamp": "2026-01-31T13:10:19.946484Z", "telemetry": {"lat": 13.3525821, "lon": 74.8648681, "satellites": 6, "altitude_gps_m": 57.2599983215332, "groundspeed_mps": 0.923792839050293}, "flight": {"mode": "STABILIZE", "armed": false}, "ekf": {"attitude": {"roll": -0.03186042234301567, "pitch": -0.021797360852360725, "yaw": 1.4736628532409668}, "local_position": {"x": -15.761119842529297, "y": 23.8783016204834, "z": -10.556451797485352}, "status": {"flags": 33599, "velocity_variance": 0.9319268465042114, "pos_horiz_variance": 0.02825203910470009, "pos_vert_variance": 0.0934024304151535}}, "errors": []}
{"timestamp": "2026-01-31T13:10:20.946478Z", "telemetry": {"lat": 13.3525915, "lon": 74.8648717, "satellites": 6, "altitude_gps_m": 57.22999954223633, "groundspeed_mps": 0.9861101508140564}, "flight": {"mode": "STABILIZE", "armed": false}, "ekf": {"attitude": {"roll": -0.03484499827027321, "pitch": -0.02167966589331627, "yaw": 1.4736286401748657}, "local_position": {"x": -13.954761505126953, "y": 24.499807357788086, "z": -10.517391204833984}, "status": {"flags": 33599, "velocity_variance": 1.0073353052139282, "pos_horiz_variance": 0.020948532968759537, "pos_vert_variance": 0.03205518424510956}}, "errors": []}
{"timestamp": "2026-01-31T13:10:21.946719Z", "telemetry": {"lat": 13.352598, "lon": 74.8648693, "satellites": 5, "altitude_gps_m": 57.18000030517578, "groundspeed_mps": 1.010611891746521}, "flight": {"mode": "STABILIZE", "armed": false}, "ekf": {"attitude": {"roll": -0.03565926104784012, "pitch": -0.020780552178621292, "yaw": 1.473660945892334}, "local_position": {"x": -12.918659210205078, "y": 25.050527572631836, "z": -10.480509757995605}, "status": {"flags": 33599, "velocity_variance": 0.5199428796768188, "pos_horiz_variance": 0.023850470781326294, "pos_vert_variance": 0.05341781675815582}}, "errors": []}
{"timestamp": "2026-01-31T13:10:22.946090Z", "telemetry": {"lat": 13.3526031, "lon": 74.8648729, "satellites": 5, "altitude_gps_m": 57.28999710083008, "groundspeed_mps": 1.024163842201233}, "flight": {"mode": "STABILIZE", "armed": false}, "ekf": {"attitude": {"roll": -0.03649195283651352, "pitch": -0.020008452236652374, "yaw": 1.4735066890716553}, "local_position": {"x": -12.118287086486816, "y": 25.48100471496582, "z": -10.55963134765625}, "status": {"flags": 33599, "velocity_variance": 0.57196044921875, "pos_horiz_variance": 0.022278720512986183, "pos_vert_variance": 0.1155962124466896}}, "errors": []}
{"timestamp": "2026-01-31T13:10:23.946239Z", "telemetry": {"lat": 13.3526062, "lon": 74.8648725, "satellites": 5, "altitude_gps_m": 57.279998779296875, "groundspeed_mps": 1.0338082313537598}, "flight": {"mode": "STABILIZE", "armed": false}, "ekf": {"attitude": {"roll": -0.03706928342580795, "pitch": -0.018809828907251358, "yaw": 1.4733741283416748}, "local_position": {"x": -11.136974334716797, "y": 25.879135131835938, "z": -10.564544677734375}, "status": {"flags": 33599, "velocity_variance": 0.44459131360054016, "pos_horiz_variance": 0.022929102182388306, "pos_vert_variance": 0.02627689577639103}}, "errors": []}
{"timestamp": "2026-01-31T13:10:24.946123Z", "telemetry": {"lat": 13.3526028, "lon": 74.8648647, "satellites": 5, "altitude_gps_m": 57.25, "groundspeed_mps": 0.8732471466064453}, "flight": {"mode": "STABILIZE", "armed": false}, "ekf": {"attitude": {"roll": -0.036595456302165985, "pitch": -0.016369419172406197, "yaw": 1.4732557535171509}, "local_position": {"x": -10.70643138885498, "y": 25.57535171508789, "z": -10.562071800231934}, "status": {"flags": 33599, "velocity_variance": 0.4903564155101776, "pos_horiz_variance": 0.027563901618123055, "pos_vert_variance": 0.028398260474205017}}, "errors": []}
{"timestamp": "2026-01-31T13:10:25.946339Z", "telemetry": {"lat": 13.3526016, "lon": 74.8648562, "satellites": 5, "altitude_gps_m": 57.209999084472656, "groundspeed_mps": 0.7342749834060669}, "flight": {"mode": "STABILIZE", "armed": false}, "ekf": {"attitude": {"roll": -0.036293089389801025, "pitch": -0.013947460800409317, "yaw": 1.4731664657592773}, "local_position": {"x": -10.512373924255371, "y": 24.96544647216797, "z": -10.506197929382324}, "status": {"flags": 33599, "velocity_variance": 0.6369808316230774, "pos_horiz_variance": 0.032436471432447433, "pos_vert_variance": 0.0447588749229908}}, "errors": []}
{"timestamp": "2026-01-31T13:10:26.946029Z", "telemetry": {"lat": 13.3526099, "lon": 74.8648617, "satellites": 5, "altitude_gps_m": 57.23999786376953, "groundspeed_mps": 0.758022129535675}, "flight": {"mode": "STABILIZE", "armed": false}, "ekf": {"attitude": {"roll": -0.03664890676736832, "pitch": -0.013237947598099709, "yaw": 1.4727180004119873}, "local_position": {"x": -9.775485038757324, "y": 24.68796730041504, "z": -10.516438484191895}, "status": {"flags": 33599, "velocity_variance": 0.2647320032119751, "pos_horiz_variance": 0.023873833939433098, "pos_vert_variance": 0.0032902227248996496}}, "errors": []}
{"timestamp": "2026-01-31T13:10:27.946539Z", "telemetry": {"lat": 13.3526042, "lon": 74.8648368, "satellites": 4, "altitude_gps_m": 57.40999984741211, "groundspeed_mps": 0.7285776138305664}, "flight": {"mode": "STABILIZE", "armed": false}, "ekf": {"attitude": {"roll": -0.03626362979412079, "pitch": -0.011021604761481285, "yaw": 1.4724466800689697}, "local_position": {"x": -9.282673835754395, "y": 23.973237991333008, "z": -10.706631660461426}, "status": {"flags": 33599, "velocity_variance": 0.5598465800285339, "pos_horiz_variance": 0.047797687351703644, "pos_vert_variance": 0.0002932806091848761}}, "errors": []}
{"timestamp": "2026-01-31T13:10:28.945888Z", "telemetry": {"lat": 13.3526012, "lon": 74.8648263, "satellites": 4, "altitude_gps_m": 57.439998626708984, "groundspeed_mps": 0.7509728074073792}, "flight": {"mode": "STABILIZE", "armed": false}, "ekf": {"attitude": {"roll": -0.03576429560780525, "pitch": -0.009128576144576073, "yaw": 1.472340703010559}, "local_position": {"x": -8.963547706604004, "y": 23.02426528930664, "z": -10.731736183166504}, "status": {"flags": 33599, "velocity_variance": 0.4235202968120575, "pos_horiz_variance": 0.05339593067765236, "pos_vert_variance": 0.0037814131937921047}}, "errors": []}
{"timestamp": "2026-01-31T13:10:29.946434Z", "telemetry": {"lat": 13.3525785, "lon": 74.864801, "satellites": 5, "altitude_gps_m": 57.54999923706055, "groundspeed_mps": 0.7941174507141113}, "flight": {"mode": "STABILIZE", "armed": false}, "ekf": {"attitude": {"roll": -0.033602915704250336, "pitch": -0.005716860294342041, "yaw": 1.4720324277877808}, "local_position": {"x": -9.64520263671875, "y": 21.18451690673828, "z": -10.849920272827148}, "status": {"flags": 33599, "velocity_variance": 0.28838562965393066, "pos_horiz_variance": 0.07550668716430664, "pos_vert_variance": 0.051791854202747345}}, "errors": []}
{"timestamp": "2026-01-31T13:10:30.946831Z", "telemetry": {"lat": 13.3525471, "lon": 74.8647727, "satellites": 5, "altitude_gps_m": 57.529998779296875, "groundspeed_mps": 1.0297510623931885}, "flight": {"mode": "STABILIZE", "armed": false}, "ekf": {"attitude": {"roll": -0.030191494151949883, "pitch": -0.002905283123254776, "yaw": 1.4718297719955444}, "local_position": {"x": -11.724420547485352, "y": 18.509017944335938, "z": -10.823310852050781}, "status": {"flags": 33599, "velocity_variance": 0.2032291740179062, "pos_horiz_variance": 0.09265301376581192, "pos_vert_variance": 0.0019091162830591202}}, "errors": []}
{"timestamp": "2026-01-31T13:10:31.946122Z", "telemetry": {"lat": 13.3525312, "lon": 74.8647574, "satellites": 6, "altitude_gps_m": 57.52000045776367, "groundspeed_mps": 1.3312186002731323}, "flight": {"mode": "STABILIZE", "armed": false}, "ekf": {"attitude": {"roll": -0.02854442223906517, "pitch": -0.0014032348990440369, "yaw": 1.4716265201568604}, "local_position": {"x": -13.597197532653809, "y": 16.024747848510742, "z": -10.813009262084961}, "status": {"flags": 33599, "velocity_variance": 0.6663943529129028, "pos_horiz_variance": 0.08953267335891724, "pos_vert_variance": 0.031627435237169266}}, "errors": []}
{"timestamp": "2026-01-31T13:10:32.946225Z", "telemetry": {"lat": 13.3525164, "lon": 74.864749, "satellites": 6, "altitude_gps_m": 57.46999740600586, "groundspeed_mps": 1.4965699911117554}, "flight": {"mode": "STABILIZE", "armed": false}, "ekf": {"attitude": {"roll": -0.02722358889877796, "pitch": -0.001377645879983902, "yaw": 1.4712862968444824}, "local_position": {"x": -15.635826110839844, "y": 13.988445281982422, "z": -10.769579887390137}, "status": {"flags": 33599, "velocity_variance": 0.07533927261829376, "pos_horiz_variance": 0.08044327050447464, "pos_vert_variance": 0.0806402936577797}}, "errors": ["PreArm: RC not found", "PreArm: Hardware safety switch"]}
{"timestamp": "2026-01-31T13:10:33.946831Z", "telemetry": {"lat": 13.3524991, "lon": 74.8647385, "satellites": 6, "altitude_gps_m": 57.38999938964844, "groundspeed_mps": 1.7210127115249634}, "flight": {"mode": "STABILIZE", "armed": false}, "ekf": {"attitude": {"roll": -0.02536918967962265, "pitch": -0.0018026158213615417, "yaw": 1.471147894859314}, "local_position": {"x": -17.93946075439453, "y": 11.846997261047363, "z": -10.684491157531738}, "status": {"flags": 33599, "velocity_variance": 0.3599684238433838, "pos_horiz_variance": 0.0724090039730072, "pos_vert_variance": 0.03514358773827553}}, "errors": ["PreArm: RC not found", "PreArm: Hardware safety switch"]}
{"timestamp": "2026-01-31T13:10:34.946920Z", "telemetry": {"lat": 13.3524831, "lon": 74.864731, "satellites": 6, "altitude_gps_m": 57.40999984741211, "groundspeed_mps": 1.7877683639526367}, "flight": {"mode": "STABILIZE", "armed": false}, "ekf": {"attitude": {"roll": -0.02433326467871666, "pitch": -0.0039013735949993134, "yaw": 1.471113681793213}, "local_position": {"x": -20.114282608032227, "y": 10.464282989501953, "z": -10.705552101135254}, "status": {"flags": 33599, "velocity_variance": 0.39646995067596436, "pos_horiz_variance": 0.06617129594087601, "pos_vert_variance": 0.000808805285487324}}, "errors": ["PreArm: RC not found", "PreArm: Hardware safety switch"]}
{"timestamp": "2026-01-31T13:10:35.945944Z", "telemetry": {"lat": 13.3524707, "lon": 74.8647246, "satellites": 6, "altitude_gps_m": 57.38999938964844, "groundspeed_mps": 1.8266921043395996}, "flight": {"mode": "STABILIZE", "armed": false}, "ekf": {"attitude": {"roll": -0.02371719665825367, "pitch": -0.005623329430818558, "yaw": 1.4708783626556396}, "local_position": {"x": -21.93756103515625, "y": 9.154051780700684, "z": -10.6904935836792}, "status": {"flags": 33599, "velocity_variance": 0.30190157890319824, "pos_horiz_variance": 0.05907288193702698, "pos_vert_variance": 0.03148221969604492}}, "errors": ["PreArm: RC not found", "PreArm: Hardware safety switch"]}
{"timestamp": "2026-01-31T13:10:36.945857Z", "telemetry": {"lat": 13.3524516, "lon": 74.8647174, "satellites": 6, "altitude_gps_m": 57.37999725341797, "groundspeed_mps": 1.9341964721679688}, "flight": {"mode": "STABILIZE", "armed": false}, "ekf": {"attitude": {"roll": -0.021526562049984932, "pitch": -0.007604926824569702, "yaw": 1.4705462455749512}, "local_position": {"x": -24.344396591186523, "y": 8.079475402832031, "z": -10.67746639251709}, "status": {"flags": 33599, "velocity_variance": 0.26270705461502075, "pos_horiz_variance": 0.05550852045416832, "pos_vert_variance": 0.0062851510010659695}}, "errors": ["PreArm: RC not found", "PreArm: Hardware safety switch"]}
{"timestamp": "2026-01-31T13:10:37.946265Z", "telemetry": {"lat": 13.3524482, "lon": 74.8647241, "satellites": 6, "altitude_gps_m": 57.38999938964844, "groundspeed_mps": 1.7966642379760742}, "flight": {"mode": "STABILIZE", "armed": false}, "ekf": {"attitude": {"roll": -0.022574489936232567, "pitch": -0.011526135727763176, "yaw": 1.4702746868133545}, "local_position": {"x": -25.888046264648438, "y": 7.61980676651001, "z": -10.690130233764648}, "status": {"flags": 33599, "velocity_variance": 0.4130088686943054, "pos_horiz_variance": 0.03777822479605675, "pos_vert_variance": 0.008854717016220093}}, "errors": ["PreArm: RC not found", "PreArm: Hardware safety switch"]}
{"timestamp": "2026-01-31T13:10:38.945990Z", "telemetry": {"lat": 13.3524368, "lon": 74.8647196, "satellites": 6, "altitude_gps_m": 57.44999694824219, "groundspeed_mps": 1.74177885055542}, "flight": {"mode": "STABILIZE", "armed": false}, "ekf": {"attitude": {"roll": -0.02282283827662468, "pitch": -0.013542216271162033, "yaw": 1.4700710773468018}, "local_position": {"x": -27.45486831665039, "y": 7.094183444976807, "z": -10.741825103759766}, "status": {"flags": 33599, "velocity_variance": 0.6441892981529236, "pos_horiz_variance": 0.03238143026828766, "pos_vert_variance": 0.0006748760933987796}}, "errors": ["PreArm: RC not found", "PreArm: Hardware safety switch"]}
{"timestamp": "2026-01-31T13:10:39.945865Z", "telemetry": {"lat": 13.3524329, "lon": 74.8647213, "satellites": 6, "altitude_gps_m": 57.34000015258789, "groundspeed_mps": 1.5478572845458984}, "flight": {"mode": "STABILIZE", "armed": false}, "ekf": {"attitude": {"roll": -0.024409200996160507, "pitch": -0.01636504754424095, "yaw": 1.4700547456741333}, "local_position": {"x": -28.506505966186523, "y": 6.949452877044678, "z": -10.637835502624512}, "status": {"flags": 33599, "velocity_variance": 0.4180218577384949, "pos_horiz_variance": 0.02443888410925865, "pos_vert_variance": 0.12476067990064621}}, "errors": ["PreArm: RC not found", "PreArm: Hardware safety switch"]}
{"timestamp": "2026-01-31T13:10:40.946005Z", "telemetry": {"lat": 13.3524293, "lon": 74.8647272, "satellites": 6, "altitude_gps_m": 57.39999771118164, "groundspeed_mps": 1.3411688804626465}, "flight": {"mode": "STABILIZE", "armed": false}, "ekf": {"attitude": {"roll": -0.026020489633083344, "pitch": -0.019746946170926094, "yaw": 1.4699879884719849}, "local_position": {"x": -29.413867950439453, "y": 7.091495037078857, "z": -10.699407577514648}, "status": {"flags": 33599, "velocity_variance": 0.23160666227340698, "pos_horiz_variance": 0.020396249368786812, "pos_vert_variance": 0.016329092904925346}}, "errors": ["PreArm: RC not found", "PreArm: Hardware safety switch"]}
{"timestamp": "2026-01-31T13:10:41.946672Z", "telemetry": {"lat": 13.3524249, "lon": 74.8647292, "satellites": 6, "altitude_gps_m": 57.44999694824219, "groundspeed_mps": 1.148735761642456}, "flight": {"mode": "STABILIZE", "armed": false}, "ekf": {"attitude": {"roll": -0.027749089524149895, "pitch": -0.022131340578198433, "yaw": 1.469812035560608}, "local_position": {"x": -29.974319458007812, "y": 7.292292594909668, "z": -10.746938705444336}, "status": {"flags": 33599, "velocity_variance": 0.39428529143333435, "pos_horiz_variance": 0.018270783126354218, "pos_vert_variance": 0.041270662099123}}, "errors": ["PreArm: RC not found", "PreArm: Hardware safety switch"]}
{"timestamp": "2026-01-31T13:10:42.946766Z", "telemetry": {"lat": 13.3524244, "lon": 74.8647296, "satellites": 6, "altitude_gps_m": 57.48999786376953, "groundspeed_mps": 0.9156845211982727}, "flight": {"mode": "STABILIZE", "armed": false}, "ekf": {"attitude": {"roll": -0.030047208070755005, "pitch": -0.024486271664500237, "yaw": 1.4697012901306152}, "local_position": {"x": -30.535137176513672, "y": 7.6665425300598145, "z": -10.779657363891602}, "status": {"flags": 33599, "velocity_variance": 0.3221738338470459, "pos_horiz_variance": 0.012228243984282017, "pos_vert_variance": 0.06122767925262451}}, "errors": ["PreArm: RC not found", "PreArm: Hardware safety switch"]}
{"timestamp": "2026-01-31T13:10:43.945825Z", "telemetry": {"lat": 13.3524275, "lon": 74.8647257, "satellites": 6, "altitude_gps_m": 57.459999084472656, "groundspeed_mps": 0.6767079830169678}, "flight": {"mode": "STABILIZE", "armed": false}, "ekf": {"attitude": {"roll": -0.03294869884848595, "pitch": -0.025625042617321014, "yaw": 1.469510793685913}, "local_position": {"x": -30.627742767333984, "y": 7.734488010406494, "z": -10.752309799194336}, "status": {"flags": 33599, "velocity_variance": 0.274821013212204, "pos_horiz_variance": 0.003614013781771064, "pos_vert_variance": 0.007464493624866009}}, "errors": ["PreArm: RC not found", "PreArm: Hardware safety switch"]}
{"timestamp": "2026-01-31T13:10:44.946234Z", "telemetry": {"lat": 13.3524364, "lon": 74.864736, "satellites": 6, "altitude_gps_m": 57.5099983215332, "groundspeed_mps": 0.47230634093284607}, "flight": {"mode": "STABILIZE", "armed": false}, "ekf": {"attitude": {"roll": -0.035781729966402054, "pitch": -0.028770484030246735, "yaw": 1.4694572687149048}, "local_position": {"x": -30.554903030395508, "y": 8.14240550994873, "z": -10.802356719970703}, "status": {"flags": 33599, "velocity_variance": 0.7629711627960205, "pos_horiz_variance": 0.0207101721316576, "pos_vert_variance": 0.010764331556856632}}, "errors": ["PreArm: RC not found", "PreArm: Hardware safety switch"]}
{"timestamp": "2026-01-31T13:10:45.946369Z", "telemetry": {"lat": 13.3524405, "lon": 74.8647378, "satellites": 6, "altitude_gps_m": 57.439998626708984, "groundspeed_mps": 0.3530160188674927}, "flight": {"mode": "STABILIZE", "armed": false}, "ekf": {"attitude": {"roll": -0.03746649995446205, "pitch": -0.028951026499271393, "yaw": 1.4693700075149536}, "local_position": {"x": -30.12464714050293, "y": 8.754125595092773, "z": -10.735133171081543}, "status": {"flags": 33599, "velocity_variance": 0.24931448698043823, "pos_horiz_variance": 0.018022969365119934, "pos_vert_variance": 0.030691640451550484}}, "errors": ["PreArm: RC not found", "PreArm: Hardware safety switch"]}
