{"timestamp": "2026-01-31T06:57:48.046694Z", "telemetry": {"lat": 13.3545943, "lon": 74.8648237, "satellites": 10, "altitude_gps_m": 15296.116390562167, "groundspeed_mps": 0.1455603390932083}, "flight": {"mode": "STABILIZE", "armed": false}, "ekf": {"attitude": {"roll": -0.0059187146835029125, "pitch": -0.008904954418540001, "yaw": 2.2423973083496094}, "local_position": {"x": -1.9463058710098267, "y": -2.463574171066284, "z": 2.49015736579895}, "status": {"flags": 831, "velocity_variance": 0.12786032259464264, "pos_horiz_variance": 0.027051398530602455, "pos_vert_variance": 0.13051725924015045}}, "errors": []}
{"timestamp": "2026-01-31T06:57:49.098894Z", "telemetry": {"lat": 13.3545959, "lon": 74.8648242, "satellites": 10, "altitude_gps_m": 132.22429749679566, "groundspeed_mps": 0.13225321471691132}, "flight": {"mode": "STABILIZE", "armed": false}, "ekf": {"attitude": {"roll": -0.005118801258504391, "pitch": -0.008747933432459831, "yaw": 2.241564989089966}, "local_position": {"x": -1.8958972692489624, "y": -2.491549491882324, "z": 2.4510512351989746}, "status": {"flags": 831, "velocity_variance": 0.10401853919029236, "pos_horiz_variance": 0.033654022961854935, "pos_vert_variance": 0.13695019483566284}}, "errors": []}
{"timestamp": "2026-01-31T06:57:50.146140Z", "telemetry": {"lat": 13.3545968, "lon": 74.8648245, "satellites": 10, "altitude_gps_m": 1425.8617836195142, "groundspeed_mps": 0.15125851333141327}, "flight": {"mode": "STABILIZE", "armed": false}, "ekf": {"attitude": {"roll": -0.004795117303729057, "pitch": -0.009134413674473763, "yaw": 2.2407712936401367}, "local_position": {"x": -1.8532356023788452, "y": -2.4668891429901123, "z": 2.3645591735839844}, "status": {"flags": 831, "velocity_variance": 0.06996855139732361, "pos_horiz_variance": 0.036762502044439316, "pos_vert_variance": 0.1350686252117157}}, "errors": []}
{"timestamp": "2026-01-31T06:57:51.157168Z", "telemetry": {"lat": 13.354598, "lon": 74.8648248, "satellites": 10, "altitude_gps_m": 435.87324789356234, "groundspeed_mps": 0.15447841584682465}, "flight": {"mode": "STABILIZE", "armed": false}, "ekf": {"attitude": {"roll": -0.004956098273396492, "pitch": -0.009063303470611572, "yaw": 2.240030288696289}, "local_position": {"x": -1.766982913017273, "y": -2.405876636505127, "z": 2.2649924755096436}, "status": {"flags": 831, "velocity_variance": 0.09701137989759445, "pos_horiz_variance": 0.039377935230731964, "pos_vert_variance": 0.1358977109193802}}, "errors": []}
{"timestamp": "2026-01-31T06:57:52.156363Z", "telemetry": {"lat": 13.3545998, "lon": 74.8648244, "satellites": 10, "altitude_gps_m": 1439.28335942075, "groundspeed_mps": 0.1599688082933426}, "flight": {"mode": "STABILIZE", "armed": false}, "ekf": {"attitude": {"roll": -0.005077367648482323, "pitch": -0.009361261501908302, "yaw": 2.239253282546997}, "local_position": {"x": -1.6421318054199219, "y": -2.3464391231536865, "z": 2.0300424098968506}, "status": {"flags": 831, "velocity_variance": 0.02507588639855385, "pos_horiz_variance": 0.04305372014641762, "pos_vert_variance": 0.13841722905635834}}, "errors": []}
{"timestamp": "2026-01-31T06:57:53.156801Z", "telemetry": {"lat": 13.3546016, "lon": 74.8648243, "satellites": 10, "altitude_gps_m": 1449.1728706771946, "groundspeed_mps": 0.14272534847259521}, "flight": {"mode": "STABILIZE", "armed": false}, "ekf": {"attitude": {"roll": -0.004753831773996353, "pitch": -0.008911512792110443, "yaw": 2.2385950088500977}, "local_position": {"x": -1.5086915493011475, "y": -2.3337502479553223, "z": 1.7553733587265015}, "status": {"flags": 831, "velocity_variance": 0.11909472197294235, "pos_horiz_variance": 0.045447174459695816, "pos_vert_variance": 0.13026514649391174}}, "errors": []}
{"timestamp": "2026-01-31T06:57:54.157274Z", "telemetry": {"lat": 13.3546033, "lon": 74.864824, "satellites": 10, "altitude_gps_m": 444.48524954561617, "groundspeed_mps": 0.12899628281593323}, "flight": {"mode": "STABILIZE", "armed": false}, "ekf": {"attitude": {"roll": -0.004534883424639702, "pitch": -0.008652517572045326, "yaw": 2.237814426422119}, "local_position": {"x": -1.3303794860839844, "y": -2.3458971977233887, "z": 1.4328739643096924}, "status": {"flags": 831, "velocity_variance": 0.10916081815958023, "pos_horiz_variance": 0.047466278076171875, "pos_vert_variance": 0.12950189411640167}}, "errors": []}
{"timestamp": "2026-01-31T06:57:55.156211Z", "telemetry": {"lat": 13.3546037, "lon": 74.8648237, "satellites": 10, "altitude_gps_m": 4801.0901196500245, "groundspeed_mps": 0.1173444613814354}, "flight": {"mode": "STABILIZE", "armed": false}, "ekf": {"attitude": {"roll": -0.004260280169546604, "pitch": -0.008761398494243622, "yaw": 2.2371275424957275}, "local_position": {"x": -1.2218104600906372, "y": -2.378603458404541, "z": 1.287596344947815}, "status": {"flags": 831, "velocity_variance": 0.09172569960355759, "pos_horiz_variance": 0.0441703163087368, "pos_vert_variance": 0.1258864402770996}}, "errors": []}
{"timestamp": "2026-01-31T06:57:56.156890Z", "telemetry": {"lat": 13.3546038, "lon": 74.8648229, "satellites": 10, "altitude_gps_m": 136.4895949935913, "groundspeed_mps": 0.11211488395929337}, "flight": {"mode": "STABILIZE", "armed": false}, "ekf": {"attitude": {"roll": -0.0043466282077133656, "pitch": -0.008638076484203339, "yaw": 2.236398220062256}, "local_position": {"x": -1.1382722854614258, "y": -2.416846990585327, "z": 1.1728497743606567}, "status": {"flags": 831, "velocity_variance": 0.09426853060722351, "pos_horiz_variance": 0.04060671105980873, "pos_vert_variance": 0.11175796389579773}}, "errors": []}
{"timestamp": "2026-01-31T06:57:57.156691Z", "telemetry": {"lat": 13.3546039, "lon": 74.8648229, "satellites": 10, "altitude_gps_m": 697586295.2492428, "groundspeed_mps": 0.11165877431631088}, "flight": {"mode": "STABILIZE", "armed": false}, "ekf": {"attitude": {"roll": -0.0045556602999567986, "pitch": -0.00878983549773693, "yaw": 2.236245632171631}, "local_position": {"x": -1.073012351989746, "y": -2.421999454498291, "z": 1.1192928552627563}, "status": {"flags": 831, "velocity_variance": 0.05927909165620804, "pos_horiz_variance": 0.03654465079307556, "pos_vert_variance": 0.10396451503038406}}, "errors": []}
{"timestamp": "2026-01-31T06:57:58.156307Z", "telemetry": {"lat": 13.3546039, "lon": 74.8648229, "satellites": 10, "altitude_gps_m": 1.4578825830950146e+19, "groundspeed_mps": 0.11165877431631088}, "flight": {"mode": "STABILIZE", "armed": false}, "ekf": {"attitude": {"roll": -0.0045556602999567986, "pitch": -0.00878983549773693, "yaw": 2.236245632171631}, "local_position": {"x": -1.073012351989746, "y": -2.421999454498291, "z": 1.1192928552627563}, "status": {"flags": 831, "velocity_variance": 0.05927909165620804, "pos_horiz_variance": 0.03654465079307556, "pos_vert_variance": 0.10396451503038406}}, "errors": []}
{"timestamp": "2026-01-31T06:57:59.156223Z", "telemetry": {"lat": 13.3546039, "lon": 74.8648229, "satellites": 10, "altitude_gps_m": 3.0468225086509095e+29, "groundspeed_mps": 0.11165877431631088}, "flight": {"mode": "STABILIZE", "armed": false}, "ekf": {"attitude": {"roll": -0.0045556602999567986, "pitch": -0.00878983549773693, "yaw": 2.236245632171631}, "local_position": {"x": -1.073012351989746, "y": -2.421999454498291, "z": 1.1192928552627563}, "status": {"flags": 831, "velocity_variance": 0.05927909165620804, "pos_horiz_variance": 0.03654465079307556, "pos_vert_variance": 0.10396451503038406}}, "errors": []}
{"timestamp": "2026-01-31T06:58:00.156693Z", "telemetry": {"lat": 13.3546008, "lon": 74.8648252, "satellites": 10, "altitude_gps_m": 171251.8572389065, "groundspeed_mps": 0.16104546189308167}, "flight": {"mode": "STABILIZE", "armed": false}, "ekf": {"attitude": {"roll": -0.0047800615429878235, "pitch": -0.009408582001924515, "yaw": 2.234440326690674}, "local_position": {"x": -0.9012727737426758, "y": -2.303220272064209, "z": 0.8810993432998657}, "status": {"flags": 831, "velocity_variance": 0.05851702764630318, "pos_horiz_variance": 0.01290291640907526, "pos_vert_variance": 0.11750518530607224}}, "errors": []}
{"timestamp": "2026-01-31T06:58:01.156445Z", "telemetry": {"lat": 13.3545986, "lon": 74.8648252, "satellites": 10, "altitude_gps_m": 452.8819059847946, "groundspeed_mps": 0.1709206998348236}, "flight": {"mode": "STABILIZE", "armed": false}, "ekf": {"attitude": {"roll": -0.005972619168460369, "pitch": -0.009901663288474083, "yaw": 2.2324321269989014}, "local_position": {"x": -0.9487646222114563, "y": -2.3166677951812744, "z": 0.6968428492546082}, "status": {"flags": 831, "velocity_variance": 0.0809120237827301, "pos_horiz_variance": 0.005684294737875462, "pos_vert_variance": 0.12008506804704666}}, "errors": []}
{"timestamp": "2026-01-31T06:58:02.155662Z", "telemetry": {"lat": 13.3545967, "lon": 74.8648254, "satellites": 10, "altitude_gps_m": 138.58943299102785, "groundspeed_mps": 0.22294612228870392}, "flight": {"mode": "STABILIZE", "armed": false}, "ekf": {"attitude": {"roll": -0.005324920639395714, "pitch": -0.010284265503287315, "yaw": 2.231945514678955}, "local_position": {"x": -1.1067776679992676, "y": -2.3164029121398926, "z": 0.5255146622657776}, "status": {"flags": 831, "velocity_variance": 0.1142977923154831, "pos_horiz_variance": 0.005584510508924723, "pos_vert_variance": 0.11336129158735275}}, "errors": []}
{"timestamp": "2026-01-31T06:58:03.155969Z", "telemetry": {"lat": 13.354596, "lon": 74.8648271, "satellites": 10, "altitude_gps_m": 568054.7590573466, "groundspeed_mps": 0.25420165061950684}, "flight": {"mode": "STABILIZE", "armed": false}, "ekf": {"attitude": {"roll": -0.00549651775509119, "pitch": -0.010598720982670784, "yaw": 2.231753349304199}, "local_position": {"x": -1.30051851272583, "y": -2.250645399093628, "z": 0.41789960861206055}, "status": {"flags": 831, "velocity_variance": 0.11033733189105988, "pos_horiz_variance": 0.012872973456978798, "pos_vert_variance": 0.131611168384552}}, "errors": []}
{"timestamp": "2026-01-31T06:58:04.156267Z", "telemetry": {"lat": 13.3545959, "lon": 74.8648264, "satellites": 10, "altitude_gps_m": 569531.9782378773, "groundspeed_mps": 0.2512266933917999}, "flight": {"mode": "STABILIZE", "armed": false}, "ekf": {"attitude": {"roll": -0.006543627008795738, "pitch": -0.010587822645902634, "yaw": 2.231534004211426}, "local_position": {"x": -1.3309836387634277, "y": -2.1209256649017334, "z": 0.30811119079589844}, "status": {"flags": 831, "velocity_variance": 0.054010726511478424, "pos_horiz_variance": 0.005177544895559549, "pos_vert_variance": 0.12170206755399704}}, "errors": []}
{"timestamp": "2026-01-31T06:58:05.156744Z", "telemetry": {"lat": 13.3545951, "lon": 74.8648256, "satellites": 10, "altitude_gps_m": 139.80341200256348, "groundspeed_mps": 0.25834059715270996}, "flight": {"mode": "STABILIZE", "armed": false}, "ekf": {"attitude": {"roll": -0.00702261459082365, "pitch": -0.010494045913219452, "yaw": 2.231020450592041}, "local_position": {"x": -1.4365371465682983, "y": -2.06089186668396, "z": 0.16348332166671753}, "status": {"flags": 831, "velocity_variance": 0.11547943204641342, "pos_horiz_variance": 0.007570866961032152, "pos_vert_variance": 0.09906943887472153}}, "errors": []}
{"timestamp": "2026-01-31T06:58:06.156394Z", "telemetry": {"lat": 13.3545938, "lon": 74.864826, "satellites": 10, "altitude_gps_m": 1510.982585498945, "groundspeed_mps": 0.28172582387924194}, "flight": {"mode": "STABILIZE", "armed": false}, "ekf": {"attitude": {"roll": -0.007042477838695049, "pitch": -0.010700376704335213, "yaw": 2.2305853366851807}, "local_position": {"x": -1.4628009796142578, "y": -1.9909958839416504, "z": 0.022416172549128532}, "status": {"flags": 831, "velocity_variance": 0.07429847121238708, "pos_horiz_variance": 0.006425900850445032, "pos_vert_variance": 0.08662114292383194}}, "errors": []}
{"timestamp": "2026-01-31T06:58:07.156178Z", "telemetry": {"lat": 13.3545931, "lon": 74.8648244, "satellites": 10, "altitude_gps_m": 460.52501843917855, "groundspeed_mps": 0.29201221466064453}, "flight": {"mode": "STABILIZE", "armed": false}, "ekf": {"attitude": {"roll": -0.006680931895971298, "pitch": -0.010452359914779663, "yaw": 2.230539083480835}, "local_position": {"x": -1.7133464813232422, "y": -1.9712861776351929, "z": -0.08052662014961243}, "status": {"flags": 831, "velocity_variance": 0.22138778865337372, "pos_horiz_variance": 0.017141327261924744, "pos_vert_variance": 0.07410144060850143}}, "errors": []}
{"timestamp": "2026-01-31T06:58:08.155963Z", "telemetry": {"lat": 13.3545931, "lon": 74.8648265, "satellites": 10, "altitude_gps_m": 458.37201802616505, "groundspeed_mps": 0.2919875383377075}, "flight": {"mode": "STABILIZE", "armed": false}, "ekf": {"attitude": {"roll": -0.007752791978418827, "pitch": -0.010604305192828178, "yaw": 2.2301881313323975}, "local_position": {"x": -1.7606912851333618, "y": -1.9508962631225586, "z": 0.09423316270112991}, "status": {"flags": 831, "velocity_variance": 0.17510263621807098, "pos_horiz_variance": 0.014285922981798649, "pos_vert_variance": 0.07008438557386398}}, "errors": []}
{"timestamp": "2026-01-31T06:58:09.158253Z", "telemetry": {"lat": 13.3545919, "lon": 74.8648265, "satellites": 10, "altitude_gps_m": 173584.87602495495, "groundspeed_mps": 0.3099660277366638}, "flight": {"mode": "STABILIZE", "armed": false}, "ekf": {"attitude": {"roll": -0.007186277769505978, "pitch": -0.010747624561190605, "yaw": 2.2301392555236816}, "local_position": {"x": -1.8834571838378906, "y": -1.8668707609176636, "z": 0.3176547884941101}, "status": {"flags": 831, "velocity_variance": 0.0948965772986412, "pos_horiz_variance": 0.013283378444612026, "pos_vert_variance": 0.053971849381923676}}, "errors": ["PreArm: RC not found", "PreArm: Hardware safety switch", "PreArm: Compasses inconsistent"]}
{"timestamp": "2026-01-31T06:58:10.156163Z", "telemetry": {"lat": 13.3545915, "lon": 74.8648275, "satellites": 10, "altitude_gps_m": 453.0972101326027, "groundspeed_mps": 0.3017975986003876}, "flight": {"mode": "STABILIZE", "armed": false}, "ekf": {"attitude": {"roll": -0.007221906445920467, "pitch": -0.010336516425013542, "yaw": 2.230079174041748}, "local_position": {"x": -2.013533592224121, "y": -1.8696812391281128, "z": 0.5674727559089661}, "status": {"flags": 831, "velocity_variance": 0.17946994304656982, "pos_horiz_variance": 0.01433510985225439, "pos_vert_variance": 0.05620664358139038}}, "errors": ["PreArm: RC not found", "PreArm: Hardware safety switch", "PreArm: Compasses inconsistent"]}
