{"timestamp": "2026-01-25T13:39:59.314268Z", "telemetry": {"lat": 0.0, "lon": 0.0, "satellites": 0, "altitude_gps_m": 0.3999999761581421, "groundspeed_mps": 0.0684533566236496}, "flight": {"mode": "STABILIZE", "armed": false}, "ekf": {"attitude": {"roll": -0.006380189210176468, "pitch": -0.013113727793097496, "yaw": -0.5391583442687988}, "local_position": {"x": null, "y": null, "z": null}, "status": {"flags": 135, "velocity_variance": 0.0, "pos_horiz_variance": 0.016034388914704323, "pos_vert_variance": 0.028459981083869934}}, "errors": []}
{"timestamp": "2026-01-25T13:40:00.263765Z", "telemetry": {"lat": 0.0, "lon": 0.0, "satellites": 0, "altitude_gps_m": 0.3999999761581421, "groundspeed_mps": 0.06857570260763168}, "flight": {"mode": "STABILIZE", "armed": false}, "ekf": {"attitude": {"roll": -0.006494985893368721, "pitch": -0.013138329610228539, "yaw": -0.538974940776825}, "local_position": {"x": null, "y": null, "z": null}, "status": {"flags": 135, "velocity_variance": 0.0, "pos_horiz_variance": 0.016419729217886925, "pos_vert_variance": 0.03756134212017059}}, "errors": []}
{"timestamp": "2026-01-25T13:40:01.220190Z", "telemetry": {"lat": 0.0, "lon": 0.0, "satellites": 0, "altitude_gps_m": 0.3999999761581421, "groundspeed_mps": 0.06767859309911728}, "flight": {"mode": "STABILIZE", "armed": false}, "ekf": {"attitude": {"roll": -0.006638332270085812, "pitch": -0.013195410370826721, "yaw": -0.5389842987060547}, "local_position": {"x": null, "y": null, "z": null}, "status": {"flags": 135, "velocity_variance": 0.0, "pos_horiz_variance": 0.01654583401978016, "pos_vert_variance": 0.03211084380745888}}, "errors": []}
{"timestamp": "2026-01-25T13:40:02.219983Z", "telemetry": {"lat": 0.0, "lon": 0.0, "satellites": 0, "altitude_gps_m": 0.3999999761581421, "groundspeed_mps": 0.06800621002912521}, "flight": {"mode": "STABILIZE", "armed": false}, "ekf": {"attitude": {"roll": -0.006641631945967674, "pitch": -0.013143787160515785, "yaw": -0.5391445755958557}, "local_position": {"x": null, "y": null, "z": null}, "status": {"flags": 135, "velocity_variance": 0.0, "pos_horiz_variance": 0.016559097915887833, "pos_vert_variance": 0.06712859869003296}}, "errors": []}
{"timestamp": "2026-01-25T13:40:03.219863Z", "telemetry": {"lat": 0.0, "lon": 0.0, "satellites": 0, "altitude_gps_m": 0.3999999761581421, "groundspeed_mps": 0.06796018034219742}, "flight": {"mode": "STABILIZE", "armed": false}, "ekf": {"attitude": {"roll": -0.006643550470471382, "pitch": -0.01327349990606308, "yaw": -0.5390205979347229}, "local_position": {"x": null, "y": null, "z": null}, "status": {"flags": 135, "velocity_variance": 0.0, "pos_horiz_variance": 0.01651076413691044, "pos_vert_variance": 0.07251869887113571}}, "errors": []}
{"timestamp": "2026-01-25T13:40:04.220055Z", "telemetry": {"lat": 0.0, "lon": 0.0, "satellites": 0, "altitude_gps_m": 0.3999999761581421, "groundspeed_mps": 0.07077060639858246}, "flight": {"mode": "STABILIZE", "armed": false}, "ekf": {"attitude": {"roll": -0.006592029705643654, "pitch": -0.01320759765803814, "yaw": -0.5389640927314758}, "local_position": {"x": null, "y": null, "z": null}, "status": {"flags": 135, "velocity_variance": 0.0, "pos_horiz_variance": 0.01663884148001671, "pos_vert_variance": 0.036305565387010574}}, "errors": []}
{"timestamp": "2026-01-25T13:40:05.220607Z", "telemetry": {"lat": 0.0, "lon": 0.0, "satellites": 0, "altitude_gps_m": 0.3999999761581421, "groundspeed_mps": 0.06957046687602997}, "flight": {"mode": "STABILIZE", "armed": false}, "ekf": {"attitude": {"roll": -0.006453290581703186, "pitch": -0.013252507895231247, "yaw": -0.5392172336578369}, "local_position": {"x": null, "y": null, "z": null}, "status": {"flags": 135, "velocity_variance": 0.0, "pos_horiz_variance": 0.016955185681581497, "pos_vert_variance": 0.03223639354109764}}, "errors": []}
{"timestamp": "2026-01-25T13:40:06.220628Z", "telemetry": {"lat": 0.0, "lon": 0.0, "satellites": 0, "altitude_gps_m": 0.3999999761581421, "groundspeed_mps": 0.06935807317495346}, "flight": {"mode": "STABILIZE", "armed": false}, "ekf": {"attitude": {"roll": -0.006487995386123657, "pitch": -0.012907441705465317, "yaw": -0.5394042134284973}, "local_position": {"x": null, "y": null, "z": null}, "status": {"flags": 135, "velocity_variance": 0.0, "pos_horiz_variance": 0.016986675560474396, "pos_vert_variance": 0.004218720365315676}}, "errors": []}
{"timestamp": "2026-01-25T13:40:07.220139Z", "telemetry": {"lat": 0.0, "lon": 0.0, "satellites": 0, "altitude_gps_m": 0.3999999761581421, "groundspeed_mps": 0.06740696728229523}, "flight": {"mode": "STABILIZE", "armed": false}, "ekf": {"attitude": {"roll": -0.006282195448875427, "pitch": -0.014319118112325668, "yaw": -0.5395779013633728}, "local_position": {"x": null, "y": null, "z": null}, "status": {"flags": 135, "velocity_variance": 0.0, "pos_horiz_variance": 0.016710372641682625, "pos_vert_variance": 0.1002105101943016}}, "errors": []}
{"timestamp": "2026-01-25T13:40:08.219966Z", "telemetry": {"lat": 0.0, "lon": 0.0, "satellites": 0, "altitude_gps_m": 0.3999999761581421, "groundspeed_mps": 0.06104791536927223}, "flight": {"mode": "STABILIZE", "armed": false}, "ekf": {"attitude": {"roll": -0.006074612960219383, "pitch": -0.014437757432460785, "yaw": -0.5398488640785217}, "local_position": {"x": null, "y": null, "z": null}, "status": {"flags": 135, "velocity_variance": 0.0, "pos_horiz_variance": 0.01639670506119728, "pos_vert_variance": 0.1327769011259079}}, "errors": []}
{"timestamp": "2026-01-25T13:40:09.219733Z", "telemetry": {"lat": 0.0, "lon": 0.0, "satellites": 0, "altitude_gps_m": 0.3999999761581421, "groundspeed_mps": 0.06041298806667328}, "flight": {"mode": "STABILIZE", "armed": false}, "ekf": {"attitude": {"roll": -0.005896246992051601, "pitch": -0.012792598456144333, "yaw": -0.5401504039764404}, "local_position": {"x": null, "y": null, "z": null}, "status": {"flags": 135, "velocity_variance": 0.0, "pos_horiz_variance": 0.01574857160449028, "pos_vert_variance": 0.06924785673618317}}, "errors": []}
{"timestamp": "2026-01-25T13:40:10.219917Z", "telemetry": {"lat": 0.0, "lon": 0.0, "satellites": 0, "altitude_gps_m": 0.3999999761581421, "groundspeed_mps": 0.05945931002497673}, "flight": {"mode": "STABILIZE", "armed": false}, "ekf": {"attitude": {"roll": -0.006228882819414139, "pitch": -0.011830192059278488, "yaw": -0.5398259162902832}, "local_position": {"x": null, "y": null, "z": null}, "status": {"flags": 135, "velocity_variance": 0.0, "pos_horiz_variance": 0.015543073415756226, "pos_vert_variance": 0.12512299418449402}}, "errors": []}
{"timestamp": "2026-01-25T13:40:11.220298Z", "telemetry": {"lat": 0.0, "lon": 0.0, "satellites": 0, "altitude_gps_m": 0.3999999761581421, "groundspeed_mps": 0.05823958292603493}, "flight": {"mode": "STABILIZE", "armed": false}, "ekf": {"attitude": {"roll": -0.005758974701166153, "pitch": -0.011995360255241394, "yaw": -0.5404102802276611}, "local_position": {"x": null, "y": null, "z": null}, "status": {"flags": 135, "velocity_variance": 0.0, "pos_horiz_variance": 0.015265852212905884, "pos_vert_variance": 0.10042969882488251}}, "errors": []}
{"timestamp": "2026-01-25T13:40:12.220485Z", "telemetry": {"lat": 0.0, "lon": 0.0, "satellites": 0, "altitude_gps_m": 0.3999999761581421, "groundspeed_mps": 0.05341250076889992}, "flight": {"mode": "STABILIZE", "armed": false}, "ekf": {"attitude": {"roll": -0.005662804469466209, "pitch": -0.013012541458010674, "yaw": -0.540286123752594}, "local_position": {"x": null, "y": null, "z": null}, "status": {"flags": 135, "velocity_variance": 0.0, "pos_horiz_variance": 0.014708510600030422, "pos_vert_variance": 0.007542824372649193}}, "errors": []}
{"timestamp": "2026-01-25T13:40:13.220241Z", "telemetry": {"lat": 0.0, "lon": 0.0, "satellites": 0, "altitude_gps_m": 0.3999999761581421, "groundspeed_mps": 0.05236835405230522}, "flight": {"mode": "STABILIZE", "armed": false}, "ekf": {"attitude": {"roll": -0.005509961862117052, "pitch": -0.013178093358874321, "yaw": -0.5403648614883423}, "local_position": {"x": null, "y": null, "z": null}, "status": {"flags": 135, "velocity_variance": 0.0, "pos_horiz_variance": 0.013876035809516907, "pos_vert_variance": 0.03625458478927612}}, "errors": []}
{"timestamp": "2026-01-25T13:40:14.220149Z", "telemetry": {"lat": 0.0, "lon": 0.0, "satellites": 0, "altitude_gps_m": 0.3999999761581421, "groundspeed_mps": 0.05573822930455208}, "flight": {"mode": "STABILIZE", "armed": false}, "ekf": {"attitude": {"roll": -0.005536744371056557, "pitch": -0.012865811586380005, "yaw": -0.5403510928153992}, "local_position": {"x": null, "y": null, "z": null}, "status": {"flags": 135, "velocity_variance": 0.0, "pos_horiz_variance": 0.013461175374686718, "pos_vert_variance": 0.003647033590823412}}, "errors": []}
{"timestamp": "2026-01-25T13:40:15.220161Z", "telemetry": {"lat": 0.0, "lon": 0.0, "satellites": 0, "altitude_gps_m": 0.3999999761581421, "groundspeed_mps": 0.05336496978998184}, "flight": {"mode": "STABILIZE", "armed": false}, "ekf": {"attitude": {"roll": -0.005403457209467888, "pitch": -0.012998657301068306, "yaw": -0.5404712557792664}, "local_position": {"x": null, "y": null, "z": null}, "status": {"flags": 135, "velocity_variance": 0.0, "pos_horiz_variance": 0.01347536500543356, "pos_vert_variance": 0.044002942740917206}}, "errors": []}
{"timestamp": "2026-01-25T13:40:16.219719Z", "telemetry": {"lat": 0.0, "lon": 0.0, "satellites": 0, "altitude_gps_m": 0.3999999761581421, "groundspeed_mps": 0.05589008703827858}, "flight": {"mode": "STABILIZE", "armed": false}, "ekf": {"attitude": {"roll": -0.005422849208116531, "pitch": -0.013242952525615692, "yaw": -0.5407193899154663}, "local_position": {"x": null, "y": null, "z": null}, "status": {"flags": 135, "velocity_variance": 0.0, "pos_horiz_variance": 0.013405212201178074, "pos_vert_variance": 0.014195314608514309}}, "errors": []}
{"timestamp": "2026-01-25T13:40:17.220302Z", "telemetry": {"lat": 0.0, "lon": 0.0, "satellites": 0, "altitude_gps_m": 0.3999999761581421, "groundspeed_mps": 0.05784546583890915}, "flight": {"mode": "STABILIZE", "armed": false}, "ekf": {"attitude": {"roll": -0.005471112672239542, "pitch": -0.01312030665576458, "yaw": -0.5408136248588562}, "local_position": {"x": null, "y": null, "z": null}, "status": {"flags": 135, "velocity_variance": 0.0, "pos_horiz_variance": 0.01360954437404871, "pos_vert_variance": 0.0894375741481781}}, "errors": ["PreArm: RC not found", "PreArm: Hardware safety switch", "PreArm: Compasses inconsistent"]}
{"timestamp": "2026-01-25T13:40:18.219747Z", "telemetry": {"lat": 0.0, "lon": 0.0, "satellites": 0, "altitude_gps_m": 0.3999999761581421, "groundspeed_mps": 0.05969954654574394}, "flight": {"mode": "STABILIZE", "armed": false}, "ekf": {"attitude": {"roll": -0.005326594691723585, "pitch": -0.013542799279093742, "yaw": -0.5410237312316895}, "local_position": {"x": null, "y": null, "z": null}, "status": {"flags": 135, "velocity_variance": 0.0, "pos_horiz_variance": 0.013969884254038334, "pos_vert_variance": 0.10944733768701553}}, "errors": ["PreArm: RC not found", "PreArm: Hardware safety switch", "PreArm: Compasses inconsistent"]}
{"timestamp": "2026-01-25T13:40:19.219740Z", "telemetry": {"lat": 0.0, "lon": 0.0, "satellites": 0, "altitude_gps_m": 0.3999999761581421, "groundspeed_mps": 0.05785235017538071}, "flight": {"mode": "STABILIZE", "armed": false}, "ekf": {"attitude": {"roll": -0.005650907754898071, "pitch": -0.012658588588237762, "yaw": -0.5411033630371094}, "local_position": {"x": null, "y": null, "z": null}, "status": {"flags": 135, "velocity_variance": 0.0, "pos_horiz_variance": 0.013965408317744732, "pos_vert_variance": 0.046502042561769485}}, "errors": ["PreArm: RC not found", "PreArm: Hardware safety switch", "PreArm: Compasses inconsistent"]}
{"timestamp": "2026-01-25T13:40:20.219662Z", "telemetry": {"lat": 0.0, "lon": 0.0, "satellites": 0, "altitude_gps_m": 0.3999999761581421, "groundspeed_mps": 0.05428411439061165}, "flight": {"mode": "STABILIZE", "armed": false}, "ekf": {"attitude": {"roll": -0.005772702395915985, "pitch": -0.013294791802763939, "yaw": -0.5413695573806763}, "local_position": {"x": null, "y": null, "z": null}, "status": {"flags": 135, "velocity_variance": 0.0, "pos_horiz_variance": 0.014006216078996658, "pos_vert_variance": 0.07356371730566025}}, "errors": ["PreArm: RC not found", "PreArm: Hardware safety switch", "PreArm: Compasses inconsistent"]}
{"timestamp": "2026-01-25T13:40:21.220137Z", "telemetry": {"lat": 0.0, "lon": 0.0, "satellites": 0, "altitude_gps_m": 0.3999999761581421, "groundspeed_mps": 0.05535842105746269}, "flight": {"mode": "STABILIZE", "armed": false}, "ekf": {"attitude": {"roll": -0.006371942348778248, "pitch": -0.011831866577267647, "yaw": -0.5418042540550232}, "local_position": {"x": null, "y": null, "z": null}, "status": {"flags": 135, "velocity_variance": 0.0, "pos_horiz_variance": 0.013428746722638607, "pos_vert_variance": 0.025439929217100143}}, "errors": ["PreArm: RC not found", "PreArm: Hardware safety switch", "PreArm: Compasses inconsistent"]}
{"timestamp": "2026-01-25T13:40:22.220039Z", "telemetry": {"lat": 0.0, "lon": 0.0, "satellites": 0, "altitude_gps_m": 0.3999999761581421, "groundspeed_mps": 0.0529487244784832}, "flight": {"mode": "STABILIZE", "armed": false}, "ekf": {"attitude": {"roll": -0.006008114665746689, "pitch": -0.012955565005540848, "yaw": -0.5423371195793152}, "local_position": {"x": null, "y": null, "z": null}, "status": {"flags": 135, "velocity_variance": 0.0, "pos_horiz_variance": 0.01364226546138525, "pos_vert_variance": 0.007194926962256432}}, "errors": ["PreArm: RC not found", "PreArm: Hardware safety switch", "PreArm: Compasses inconsistent"]}
{"timestamp": "2026-01-25T13:40:23.220062Z", "telemetry": {"lat": 0.0, "lon": 0.0, "satellites": 0, "altitude_gps_m": 0.3999999761581421, "groundspeed_mps": 0.05676836892962456}, "flight": {"mode": "STABILIZE", "armed": false}, "ekf": {"attitude": {"roll": -0.0059482622891664505, "pitch": -0.013178067281842232, "yaw": -0.5436304211616516}, "local_position": {"x": null, "y": null, "z": null}, "status": {"flags": 135, "velocity_variance": 0.0, "pos_horiz_variance": 0.013712181709706783, "pos_vert_variance": 0.029094474390149117}}, "errors": ["PreArm: RC not found", "PreArm: Hardware safety switch", "PreArm: Compasses inconsistent"]}
{"timestamp": "2026-01-25T13:40:24.219788Z", "telemetry": {"lat": 0.0, "lon": 0.0, "satellites": 0, "altitude_gps_m": 0.3999999761581421, "groundspeed_mps": 0.05885646864771843}, "flight": {"mode": "STABILIZE", "armed": false}, "ekf": {"attitude": {"roll": -0.005957800894975662, "pitch": -0.013240985572338104, "yaw": -0.5446360111236572}, "local_position": {"x": null, "y": null, "z": null}, "status": {"flags": 135, "velocity_variance": 0.0, "pos_horiz_variance": 0.013958795927464962, "pos_vert_variance": 0.03944997116923332}}, "errors": ["PreArm: RC not found", "PreArm: Hardware safety switch", "PreArm: Compasses inconsistent"]}
{"timestamp": "2026-01-25T13:40:25.219748Z", "telemetry": {"lat": 0.0, "lon": 0.0, "satellites": 0, "altitude_gps_m": 0.3999999761581421, "groundspeed_mps": 0.060149624943733215}, "flight": {"mode": "STABILIZE", "armed": false}, "ekf": {"attitude": {"roll": -0.0058665890246629715, "pitch": -0.013370785862207413, "yaw": -0.5457178354263306}, "local_position": {"x": null, "y": null, "z": null}, "status": {"flags": 135, "velocity_variance": 0.0, "pos_horiz_variance": 0.014210170134902, "pos_vert_variance": 0.05659716948866844}}, "errors": ["PreArm: RC not found", "PreArm: Hardware safety switch", "PreArm: Compasses inconsistent"]}
{"timestamp": "2026-01-25T13:40:26.219785Z", "telemetry": {"lat": 0.0, "lon": 0.0, "satellites": 0, "altitude_gps_m": 0.3999999761581421, "groundspeed_mps": 0.06327173113822937}, "flight": {"mode": "STABILIZE", "armed": false}, "ekf": {"attitude": {"roll": -0.006410181522369385, "pitch": -0.013257084414362907, "yaw": -0.5470527410507202}, "local_position": {"x": null, "y": null, "z": null}, "status": {"flags": 135, "velocity_variance": 0.0, "pos_horiz_variance": 0.014401453547179699, "pos_vert_variance": 0.0036159974988549948}}, "errors": ["PreArm: RC not found", "PreArm: Hardware safety switch", "PreArm: Compasses inconsistent"]}
{"timestamp": "2026-01-25T13:40:27.220029Z", "telemetry": {"lat": 0.0, "lon": 0.0, "satellites": 0, "altitude_gps_m": 0.3999999761581421, "groundspeed_mps": 0.056401077657938004}, "flight": {"mode": "STABILIZE", "armed": false}, "ekf": {"attitude": {"roll": -0.00617558229714632, "pitch": -0.010362662374973297, "yaw": -0.5475188493728638}, "local_position": {"x": null, "y": null, "z": null}, "status": {"flags": 135, "velocity_variance": 0.0, "pos_horiz_variance": 0.01497446559369564, "pos_vert_variance": 0.007845396175980568}}, "errors": ["PreArm: RC not found", "PreArm: Hardware safety switch", "PreArm: Compasses inconsistent"]}
{"timestamp": "2026-01-25T13:40:28.219632Z", "telemetry": {"lat": 0.0, "lon": 0.0, "satellites": 0, "altitude_gps_m": 0.3999999761581421, "groundspeed_mps": 0.0648782029747963}, "flight": {"mode": "STABILIZE", "armed": false}, "ekf": {"attitude": {"roll": -0.0055976430885493755, "pitch": -0.013226401060819626, "yaw": -0.5486599206924438}, "local_position": {"x": null, "y": null, "z": null}, "status": {"flags": 135, "velocity_variance": 0.0, "pos_horiz_variance": 0.01481284387409687, "pos_vert_variance": 0.053242601454257965}}, "errors": ["PreArm: RC not found", "PreArm: Hardware safety switch", "PreArm: Compasses inconsistent"]}
{"timestamp": "2026-01-25T13:40:29.219773Z", "telemetry": {"lat": 0.0, "lon": 0.0, "satellites": 0, "altitude_gps_m": 0.3999999761581421, "groundspeed_mps": 0.057932086288928986}, "flight": {"mode": "STABILIZE", "armed": false}, "ekf": {"attitude": {"roll": -0.00577792152762413, "pitch": -0.012798072770237923, "yaw": -0.5500149130821228}, "local_position": {"x": null, "y": null, "z": null}, "status": {"flags": 135, "velocity_variance": 0.0, "pos_horiz_variance": 0.014637993648648262, "pos_vert_variance": 0.03942662104964256}}, "errors": ["PreArm: RC not found", "PreArm: Hardware safety switch", "PreArm: Compasses inconsistent"]}
{"timestamp": "2026-01-25T13:40:30.219631Z", "telemetry": {"lat": 0.0, "lon": 0.0, "satellites": 0, "altitude_gps_m": 0.3999999761581421, "groundspeed_mps": 0.054555248469114304}, "flight": {"mode": "STABILIZE", "armed": false}, "ekf": {"attitude": {"roll": -0.005430055316537619, "pitch": -0.01270696148276329, "yaw": -0.5508294105529785}, "local_position": {"x": null, "y": null, "z": null}, "status": {"flags": 135, "velocity_variance": 0.0, "pos_horiz_variance": 0.014077878557145596, "pos_vert_variance": 0.07609046250581741}}, "errors": ["PreArm: RC not found", "PreArm: Hardware safety switch", "PreArm: Compasses inconsistent"]}
{"timestamp": "2026-01-25T13:40:31.220058Z", "telemetry": {"lat": 0.0, "lon": 0.0, "satellites": 0, "altitude_gps_m": 0.3999999761581421, "groundspeed_mps": 0.05606597661972046}, "flight": {"mode": "STABILIZE", "armed": false}, "ekf": {"attitude": {"roll": -0.005192529410123825, "pitch": -0.013070860877633095, "yaw": -0.5518778562545776}, "local_position": {"x": null, "y": null, "z": null}, "status": {"flags": 135, "velocity_variance": 0.0, "pos_horiz_variance": 0.013759881258010864, "pos_vert_variance": 0.08081024140119553}}, "errors": ["PreArm: RC not found", "PreArm: Hardware safety switch", "PreArm: Compasses inconsistent"]}
{"timestamp": "2026-01-25T13:40:32.219685Z", "telemetry": {"lat": 0.0, "lon": 0.0, "satellites": 0, "altitude_gps_m": 0.3999999761581421, "groundspeed_mps": 0.05405481904745102}, "flight": {"mode": "STABILIZE", "armed": false}, "ekf": {"attitude": {"roll": -0.0050214375369250774, "pitch": -0.01305394247174263, "yaw": -0.5530778765678406}, "local_position": {"x": null, "y": null, "z": null}, "status": {"flags": 135, "velocity_variance": 0.0, "pos_horiz_variance": 0.013956351205706596, "pos_vert_variance": 0.001956217223778367}}, "errors": ["PreArm: RC not found", "PreArm: Hardware safety switch", "PreArm: Compasses inconsistent"]}
{"timestamp": "2026-01-25T13:40:33.219778Z", "telemetry": {"lat": 0.0, "lon": 0.0, "satellites": 0, "altitude_gps_m": 0.3999999761581421, "groundspeed_mps": 0.059793781489133835}, "flight": {"mode": "STABILIZE", "armed": false}, "ekf": {"attitude": {"roll": -0.005030282307416201, "pitch": -0.01212397776544094, "yaw": -0.5540639162063599}, "local_position": {"x": null, "y": null, "z": null}, "status": {"flags": 135, "velocity_variance": 0.0, "pos_horiz_variance": 0.01415185071527958, "pos_vert_variance": 0.044371139258146286}}, "errors": ["PreArm: RC not found", "PreArm: Hardware safety switch", "PreArm: Compasses inconsistent"]}
{"timestamp": "2026-01-25T13:40:34.219667Z", "telemetry": {"lat": 0.0, "lon": 0.0, "satellites": 0, "altitude_gps_m": 0.3999999761581421, "groundspeed_mps": 0.06265301257371902}, "flight": {"mode": "STABILIZE", "armed": false}, "ekf": {"attitude": {"roll": -0.004857087507843971, "pitch": -0.012350259348750114, "yaw": -0.5549811124801636}, "local_position": {"x": null, "y": null, "z": null}, "status": {"flags": 135, "velocity_variance": 0.0, "pos_horiz_variance": 0.014671752229332924, "pos_vert_variance": 0.08530861139297485}}, "errors": ["PreArm: RC not found", "PreArm: Hardware safety switch", "PreArm: Compasses inconsistent"]}
{"timestamp": "2026-01-25T13:40:35.220611Z", "telemetry": {"lat": 0.0, "lon": 0.0, "satellites": 0, "altitude_gps_m": 0.3999999761581421, "groundspeed_mps": 0.06157849356532097}, "flight": {"mode": "STABILIZE", "armed": false}, "ekf": {"attitude": {"roll": -0.00494650611653924, "pitch": -0.012394186109304428, "yaw": -0.5558902621269226}, "local_position": {"x": null, "y": null, "z": null}, "status": {"flags": 135, "velocity_variance": 0.0, "pos_horiz_variance": 0.014923428185284138, "pos_vert_variance": 0.019210461527109146}}, "errors": ["PreArm: RC not found", "PreArm: Hardware safety switch", "PreArm: Compasses inconsistent"]}
{"timestamp": "2026-01-25T13:40:36.220741Z", "telemetry": {"lat": 0.0, "lon": 0.0, "satellites": 0, "altitude_gps_m": 0.3999999761581421, "groundspeed_mps": 0.06305231899023056}, "flight": {"mode": "STABILIZE", "armed": false}, "ekf": {"attitude": {"roll": -0.0050157178193330765, "pitch": -0.012338245287537575, "yaw": -0.5568946599960327}, "local_position": {"x": null, "y": null, "z": null}, "status": {"flags": 135, "velocity_variance": 0.0, "pos_horiz_variance": 0.015114336274564266, "pos_vert_variance": 0.017827196046710014}}, "errors": ["PreArm: RC not found", "PreArm: Hardware safety switch", "PreArm: Compasses inconsistent"]}
{"timestamp": "2026-01-25T13:40:37.220659Z", "telemetry": {"lat": 0.0, "lon": 0.0, "satellites": 0, "altitude_gps_m": 0.3999999761581421, "groundspeed_mps": 0.06157675385475159}, "flight": {"mode": "STABILIZE", "armed": false}, "ekf": {"attitude": {"roll": -0.005185564048588276, "pitch": -0.012375965714454651, "yaw": -0.5577167272567749}, "local_position": {"x": null, "y": null, "z": null}, "status": {"flags": 135, "velocity_variance": 0.0, "pos_horiz_variance": 0.015197924338281155, "pos_vert_variance": 0.11583612114191055}}, "errors": ["PreArm: RC not found", "PreArm: Hardware safety switch", "PreArm: Compasses inconsistent"]}
{"timestamp": "2026-01-25T13:40:38.220560Z", "telemetry": {"lat": 0.0, "lon": 0.0, "satellites": 0, "altitude_gps_m": 0.3999999761581421, "groundspeed_mps": 0.06180216744542122}, "flight": {"mode": "STABILIZE", "armed": false}, "ekf": {"attitude": {"roll": -0.005361923016607761, "pitch": -0.012293418869376183, "yaw": -0.5585957169532776}, "local_position": {"x": null, "y": null, "z": null}, "status": {"flags": 135, "velocity_variance": 0.0, "pos_horiz_variance": 0.015138018876314163, "pos_vert_variance": 0.03971683606505394}}, "errors": ["PreArm: RC not found", "PreArm: Hardware safety switch", "PreArm: Compasses inconsistent"]}
{"timestamp": "2026-01-25T13:40:39.219754Z", "telemetry": {"lat": 0.0, "lon": 0.0, "satellites": 0, "altitude_gps_m": 0.3999999761581421, "groundspeed_mps": 0.06116623058915138}, "flight": {"mode": "STABILIZE", "armed": false}, "ekf": {"attitude": {"roll": -0.005492759868502617, "pitch": -0.01216696947813034, "yaw": -0.5595441460609436}, "local_position": {"x": null, "y": null, "z": null}, "status": {"flags": 135, "velocity_variance": 0.0, "pos_horiz_variance": 0.015006214380264282, "pos_vert_variance": 0.05457819998264313}}, "errors": ["PreArm: RC not found", "PreArm: Hardware safety switch", "PreArm: Compasses inconsistent"]}
{"timestamp": "2026-01-25T13:40:40.219751Z", "telemetry": {"lat": 0.0, "lon": 0.0, "satellites": 0, "altitude_gps_m": 0.3999999761581421, "groundspeed_mps": 0.059523530304431915}, "flight": {"mode": "STABILIZE", "armed": false}, "ekf": {"attitude": {"roll": -0.005441789515316486, "pitch": -0.012238949537277222, "yaw": -0.560429573059082}, "local_position": {"x": null, "y": null, "z": null}, "status": {"flags": 135, "velocity_variance": 0.0, "pos_horiz_variance": 0.01481031533330679, "pos_vert_variance": 0.05851742997765541}}, "errors": ["PreArm: RC not found", "PreArm: Hardware safety switch", "PreArm: Compasses inconsistent"]}
{"timestamp": "2026-01-25T13:40:41.220570Z", "telemetry": {"lat": 0.0, "lon": 0.0, "satellites": 0, "altitude_gps_m": 0.3999999761581421, "groundspeed_mps": 0.06255589425563812}, "flight": {"mode": "STABILIZE", "armed": false}, "ekf": {"attitude": {"roll": -0.005213397555053234, "pitch": -0.01323150284588337, "yaw": -0.5613791942596436}, "local_position": {"x": null, "y": null, "z": null}, "status": {"flags": 135, "velocity_variance": 0.0, "pos_horiz_variance": 0.014741984196007252, "pos_vert_variance": 0.007167395204305649}}, "errors": ["PreArm: RC not found", "PreArm: Hardware safety switch", "PreArm: Compasses inconsistent"]}
{"timestamp": "2026-01-25T13:40:42.220570Z", "telemetry": {"lat": 0.0, "lon": 0.0, "satellites": 0, "altitude_gps_m": 0.3999999761581421, "groundspeed_mps": 0.073672816157341}, "flight": {"mode": "STABILIZE", "armed": false}, "ekf": {"attitude": {"roll": -0.005215436685830355, "pitch": -0.01256965845823288, "yaw": -0.5619686841964722}, "local_position": {"x": null, "y": null, "z": null}, "status": {"flags": 135, "velocity_variance": 0.0, "pos_horiz_variance": 0.014658124186098576, "pos_vert_variance": 0.007378420792520046}}, "errors": ["PreArm: RC not found", "PreArm: Hardware safety switch", "PreArm: Compasses inconsistent"]}
{"timestamp": "2026-01-25T13:40:43.220462Z", "telemetry": {"lat": 0.0, "lon": 0.0, "satellites": 0, "altitude_gps_m": 0.3999999761581421, "groundspeed_mps": 0.06287707388401031}, "flight": {"mode": "STABILIZE", "armed": false}, "ekf": {"attitude": {"roll": -0.005192224867641926, "pitch": -0.012476647272706032, "yaw": -0.5629273056983948}, "local_position": {"x": null, "y": null, "z": null}, "status": {"flags": 135, "velocity_variance": 0.0, "pos_horiz_variance": 0.014745572581887245, "pos_vert_variance": 0.008639970794320107}}, "errors": ["PreArm: RC not found", "PreArm: Hardware safety switch", "PreArm: Compasses inconsistent"]}
{"timestamp": "2026-01-25T13:40:44.220145Z", "telemetry": {"lat": 0.0, "lon": 0.0, "satellites": 0, "altitude_gps_m": 0.3999999761581421, "groundspeed_mps": 0.06685669720172882}, "flight": {"mode": "STABILIZE", "armed": false}, "ekf": {"attitude": {"roll": -0.005172323435544968, "pitch": -0.012628894299268723, "yaw": -0.563706636428833}, "local_position": {"x": null, "y": null, "z": null}, "status": {"flags": 135, "velocity_variance": 0.0, "pos_horiz_variance": 0.015181886032223701, "pos_vert_variance": 0.02020680345594883}}, "errors": ["PreArm: RC not found", "PreArm: Hardware safety switch", "PreArm: Compasses inconsistent"]}
{"timestamp": "2026-01-25T13:40:45.220135Z", "telemetry": {"lat": 0.0, "lon": 0.0, "satellites": 0, "altitude_gps_m": 0.3999999761581421, "groundspeed_mps": 0.0690292939543724}, "flight": {"mode": "STABILIZE", "armed": false}, "ekf": {"attitude": {"roll": -0.004824050702154636, "pitch": -0.01354663260281086, "yaw": -0.5644225478172302}, "local_position": {"x": null, "y": null, "z": null}, "status": {"flags": 135, "velocity_variance": 0.0, "pos_horiz_variance": 0.01635025627911091, "pos_vert_variance": 0.0543619766831398}}, "errors": ["PreArm: RC not found", "PreArm: Hardware safety switch", "PreArm: Compasses inconsistent"]}
{"timestamp": "2026-01-25T13:40:46.220192Z", "telemetry": {"lat": 0.0, "lon": 0.0, "satellites": 0, "altitude_gps_m": 0.3999999761581421, "groundspeed_mps": 0.06935342401266098}, "flight": {"mode": "STABILIZE", "armed": false}, "ekf": {"attitude": {"roll": -0.004805206321179867, "pitch": -0.013436943292617798, "yaw": -0.5658209919929504}, "local_position": {"x": null, "y": null, "z": null}, "status": {"flags": 135, "velocity_variance": 0.0, "pos_horiz_variance": 0.0167072806507349, "pos_vert_variance": 0.033530570566654205}}, "errors": ["PreArm: RC not found", "PreArm: Hardware safety switch", "PreArm: Compasses inconsistent"]}
{"timestamp": "2026-01-25T13:40:47.220213Z", "telemetry": {"lat": 0.0, "lon": 0.0, "satellites": 0, "altitude_gps_m": 0.3999999761581421, "groundspeed_mps": 0.06600465625524521}, "flight": {"mode": "STABILIZE", "armed": false}, "ekf": {"attitude": {"roll": -0.004899107851088047, "pitch": -0.013640955090522766, "yaw": -0.5677287578582764}, "local_position": {"x": null, "y": null, "z": null}, "status": {"flags": 135, "velocity_variance": 0.0, "pos_horiz_variance": 0.01649857871234417, "pos_vert_variance": 0.12447933107614517}}, "errors": ["PreArm: RC not found", "PreArm: Hardware safety switch", "PreArm: Compasses inconsistent"]}
{"timestamp": "2026-01-25T13:40:48.220249Z", "telemetry": {"lat": 0.0, "lon": 0.0, "satellites": 0, "altitude_gps_m": 0.3999999761581421, "groundspeed_mps": 0.06335380673408508}, "flight": {"mode": "STABILIZE", "armed": false}, "ekf": {"attitude": {"roll": -0.00494664441794157, "pitch": -0.013361265882849693, "yaw": -0.5696016550064087}, "local_position": {"x": null, "y": null, "z": null}, "status": {"flags": 135, "velocity_variance": 0.0, "pos_horiz_variance": 0.016075683757662773, "pos_vert_variance": 0.038637422025203705}}, "errors": ["PreArm: RC not found", "PreArm: Hardware safety switch", "PreArm: Compasses inconsistent", "PreArm: RC not found", "PreArm: Hardware safety switch", "PreArm: Compasses inconsistent"]}
{"timestamp": "2026-01-25T13:40:49.220329Z", "telemetry": {"lat": 0.0, "lon": 0.0, "satellites": 0, "altitude_gps_m": 0.3999999761581421, "groundspeed_mps": 0.06102313846349716}, "flight": {"mode": "STABILIZE", "armed": false}, "ekf": {"attitude": {"roll": -0.004938353318721056, "pitch": -0.013171294704079628, "yaw": -0.5712490081787109}, "local_position": {"x": null, "y": null, "z": null}, "status": {"flags": 135, "velocity_variance": 0.0, "pos_horiz_variance": 0.015556260012090206, "pos_vert_variance": 0.05461147800087929}}, "errors": ["PreArm: RC not found", "PreArm: Hardware safety switch", "PreArm: Compasses inconsistent", "PreArm: RC not found", "PreArm: Hardware safety switch", "PreArm: Compasses inconsistent"]}
{"timestamp": "2026-01-25T13:40:50.220198Z", "telemetry": {"lat": 0.0, "lon": 0.0, "satellites": 0, "altitude_gps_m": 0.3999999761581421, "groundspeed_mps": 0.05624673515558243}, "flight": {"mode": "STABILIZE", "armed": false}, "ekf": {"attitude": {"roll": -0.004881341941654682, "pitch": -0.01313883624970913, "yaw": -0.5729095935821533}, "local_position": {"x": null, "y": null, "z": null}, "status": {"flags": 135, "velocity_variance": 0.0, "pos_horiz_variance": 0.014758223667740822, "pos_vert_variance": 0.15841969847679138}}, "errors": ["PreArm: RC not found", "PreArm: Hardware safety switch", "PreArm: Compasses inconsistent", "PreArm: RC not found", "PreArm: Hardware safety switch", "PreArm: Compasses inconsistent"]}
{"timestamp": "2026-01-25T13:40:51.220002Z", "telemetry": {"lat": 0.0, "lon": 0.0, "satellites": 0, "altitude_gps_m": 0.3999999761581421, "groundspeed_mps": 0.053279392421245575}, "flight": {"mode": "STABILIZE", "armed": false}, "ekf": {"attitude": {"roll": -0.004828507546335459, "pitch": -0.01313403993844986, "yaw": -0.5746397376060486}, "local_position": {"x": null, "y": null, "z": null}, "status": {"flags": 135, "velocity_variance": 0.0, "pos_horiz_variance": 0.01408116053789854, "pos_vert_variance": 0.03534961864352226}}, "errors": ["PreArm: RC not found", "PreArm: Hardware safety switch", "PreArm: Compasses inconsistent", "PreArm: RC not found", "PreArm: Hardware safety switch", "PreArm: Compasses inconsistent"]}
{"timestamp": "2026-01-25T13:40:52.220162Z", "telemetry": {"lat": 0.0, "lon": 0.0, "satellites": 0, "altitude_gps_m": 0.3999999761581421, "groundspeed_mps": 0.052535008639097214}, "flight": {"mode": "STABILIZE", "armed": false}, "ekf": {"attitude": {"roll": -0.004878985695540905, "pitch": -0.013083618134260178, "yaw": -0.5762938857078552}, "local_position": {"x": null, "y": null, "z": null}, "status": {"flags": 135, "velocity_variance": 0.0, "pos_horiz_variance": 0.013363111764192581, "pos_vert_variance": 0.017174890264868736}}, "errors": ["PreArm: RC not found", "PreArm: Hardware safety switch", "PreArm: Compasses inconsistent", "PreArm: RC not found", "PreArm: Hardware safety switch", "PreArm: Compasses inconsistent"]}
{"timestamp": "2026-01-25T13:40:53.219928Z", "telemetry": {"lat": 0.0, "lon": 0.0, "satellites": 0, "altitude_gps_m": 0.3999999761581421, "groundspeed_mps": 0.05517486482858658}, "flight": {"mode": "STABILIZE", "armed": false}, "ekf": {"attitude": {"roll": -0.004721449688076973, "pitch": -0.013215649873018265, "yaw": -0.5778008699417114}, "local_position": {"x": null, "y": null, "z": null}, "status": {"flags": 135, "velocity_variance": 0.0, "pos_horiz_variance": 0.01325960922986269, "pos_vert_variance": 0.010821366682648659}}, "errors": ["PreArm: RC not found", "PreArm: Hardware safety switch", "PreArm: Compasses inconsistent", "PreArm: RC not found", "PreArm: Hardware safety switch", "PreArm: Compasses inconsistent"]}
{"timestamp": "2026-01-25T13:40:54.220592Z", "telemetry": {"lat": 0.0, "lon": 0.0, "satellites": 0, "altitude_gps_m": 0.3999999761581421, "groundspeed_mps": 0.05591210350394249}, "flight": {"mode": "STABILIZE", "armed": false}, "ekf": {"attitude": {"roll": -0.004683203063905239, "pitch": -0.013284087181091309, "yaw": -0.5795320272445679}, "local_position": {"x": null, "y": null, "z": null}, "status": {"flags": 135, "velocity_variance": 0.0, "pos_horiz_variance": 0.013522734865546227, "pos_vert_variance": 0.08138421177864075}}, "errors": ["PreArm: RC not found", "PreArm: Hardware safety switch", "PreArm: Compasses inconsistent", "PreArm: RC not found", "PreArm: Hardware safety switch", "PreArm: Compasses inconsistent"]}
{"timestamp": "2026-01-25T13:40:55.219758Z", "telemetry": {"lat": 0.0, "lon": 0.0, "satellites": 0, "altitude_gps_m": 0.3999999761581421, "groundspeed_mps": 0.06079670041799545}, "flight": {"mode": "STABILIZE", "armed": false}, "ekf": {"attitude": {"roll": -0.0045535750687122345, "pitch": -0.01351766474545002, "yaw": -0.5811628103256226}, "local_position": {"x": null, "y": null, "z": null}, "status": {"flags": 135, "velocity_variance": 0.0, "pos_horiz_variance": 0.013753625564277172, "pos_vert_variance": 0.05265762656927109}}, "errors": ["PreArm: RC not found", "PreArm: Hardware safety switch", "PreArm: Compasses inconsistent", "PreArm: RC not found", "PreArm: Hardware safety switch", "PreArm: Compasses inconsistent"]}
{"timestamp": "2026-01-25T13:40:56.219809Z", "telemetry": {"lat": 0.0, "lon": 0.0, "satellites": 0, "altitude_gps_m": 0.3999999761581421, "groundspeed_mps": 0.06470837444067001}, "flight": {"mode": "STABILIZE", "armed": false}, "ekf": {"attitude": {"roll": -0.004602914676070213, "pitch": -0.013610955327749252, "yaw": -0.582483172416687}, "local_position": {"x": null, "y": null, "z": null}, "status": {"flags": 135, "velocity_variance": 0.0, "pos_horiz_variance": 0.014635378494858742, "pos_vert_variance": 0.11031240969896317}}, "errors": ["PreArm: RC not found", "PreArm: Hardware safety switch", "PreArm: Compasses inconsistent", "PreArm: RC not found", "PreArm: Hardware safety switch", "PreArm: Compasses inconsistent"]}
{"timestamp": "2026-01-25T13:40:57.220061Z", "telemetry": {"lat": 0.0, "lon": 0.0, "satellites": 0, "altitude_gps_m": 0.3999999761581421, "groundspeed_mps": 0.06578291207551956}, "flight": {"mode": "STABILIZE", "armed": false}, "ekf": {"attitude": {"roll": -0.005125700030475855, "pitch": -0.012159334495663643, "yaw": -0.5841463208198547}, "local_position": {"x": null, "y": null, "z": null}, "status": {"flags": 135, "velocity_variance": 0.0, "pos_horiz_variance": 0.015324501320719719, "pos_vert_variance": 0.0025114971213042736}}, "errors": ["PreArm: RC not found", "PreArm: Hardware safety switch", "PreArm: Compasses inconsistent", "PreArm: RC not found", "PreArm: Hardware safety switch", "PreArm: Compasses inconsistent"]}
{"timestamp": "2026-01-25T13:40:58.220130Z", "telemetry": {"lat": 0.0, "lon": 0.0, "satellites": 0, "altitude_gps_m": 0.3999999761581421, "groundspeed_mps": 0.060537148267030716}, "flight": {"mode": "STABILIZE", "armed": false}, "ekf": {"attitude": {"roll": -0.005056409165263176, "pitch": -0.013533907011151314, "yaw": -0.5850238800048828}, "local_position": {"x": null, "y": null, "z": null}, "status": {"flags": 135, "velocity_variance": 0.0, "pos_horiz_variance": 0.01582699827849865, "pos_vert_variance": 0.011732795275747776}}, "errors": ["PreArm: RC not found", "PreArm: Hardware safety switch", "PreArm: Compasses inconsistent", "PreArm: RC not found", "PreArm: Hardware safety switch", "PreArm: Compasses inconsistent"]}
{"timestamp": "2026-01-25T13:40:59.220597Z", "telemetry": {"lat": 0.0, "lon": 0.0, "satellites": 0, "altitude_gps_m": 0.3999999761581421, "groundspeed_mps": 0.06215241923928261}, "flight": {"mode": "STABILIZE", "armed": false}, "ekf": {"attitude": {"roll": -0.005035390146076679, "pitch": -0.013393102213740349, "yaw": -0.5863897204399109}, "local_position": {"x": null, "y": null, "z": null}, "status": {"flags": 135, "velocity_variance": 0.0, "pos_horiz_variance": 0.01582370512187481, "pos_vert_variance": 0.04200268164277077}}, "errors": ["PreArm: RC not found", "PreArm: Hardware safety switch", "PreArm: Compasses inconsistent", "PreArm: RC not found", "PreArm: Hardware safety switch", "PreArm: Compasses inconsistent"]}
{"timestamp": "2026-01-25T13:41:00.219825Z", "telemetry": {"lat": 0.0, "lon": 0.0, "satellites": 0, "altitude_gps_m": 0.3999999761581421, "groundspeed_mps": 0.06078070029616356}, "flight": {"mode": "STABILIZE", "armed": false}, "ekf": {"attitude": {"roll": -0.005567807704210281, "pitch": -0.012313148006796837, "yaw": -0.5875979661941528}, "local_position": {"x": null, "y": null, "z": null}, "status": {"flags": 135, "velocity_variance": 0.0, "pos_horiz_variance": 0.015232554636895657, "pos_vert_variance": 0.12460369616746902}}, "errors": ["PreArm: RC not found", "PreArm: Hardware safety switch", "PreArm: Compasses inconsistent", "PreArm: RC not found", "PreArm: Hardware safety switch", "PreArm: Compasses inconsistent"]}
{"timestamp": "2026-01-25T13:41:01.220661Z", "telemetry": {"lat": 0.0, "lon": 0.0, "satellites": 0, "altitude_gps_m": 0.3999999761581421, "groundspeed_mps": 0.05978570133447647}, "flight": {"mode": "ALT_HOLD", "armed": false}, "ekf": {"attitude": {"roll": -0.005599938798695803, "pitch": -0.012099236249923706, "yaw": -0.5890272855758667}, "local_position": {"x": null, "y": null, "z": null}, "status": {"flags": 135, "velocity_variance": 0.0, "pos_horiz_variance": 0.015019253827631474, "pos_vert_variance": 0.038880206644535065}}, "errors": ["PreArm: RC not found", "PreArm: Hardware safety switch", "PreArm: Compasses inconsistent", "PreArm: RC not found", "PreArm: Hardware safety switch", "PreArm: Compasses inconsistent"]}
{"timestamp": "2026-01-25T13:41:02.219763Z", "telemetry": {"lat": 0.0, "lon": 0.0, "satellites": 0, "altitude_gps_m": 0.3999999761581421, "groundspeed_mps": 0.06111466884613037}, "flight": {"mode": "STABILIZE", "armed": false}, "ekf": {"attitude": {"roll": -0.00560985691845417, "pitch": -0.012023288756608963, "yaw": -0.5902765393257141}, "local_position": {"x": null, "y": null, "z": null}, "status": {"flags": 135, "velocity_variance": 0.0, "pos_horiz_variance": 0.014884873293340206, "pos_vert_variance": 0.005647558718919754}}, "errors": ["PreArm: RC not found", "PreArm: Hardware safety switch", "PreArm: Compasses inconsistent", "PreArm: RC not found", "PreArm: Hardware safety switch", "PreArm: Compasses inconsistent"]}
{"timestamp": "2026-01-25T13:41:03.220729Z", "telemetry": {"lat": 0.0, "lon": 0.0, "satellites": 0, "altitude_gps_m": 0.3999999761581421, "groundspeed_mps": 0.05778435245156288}, "flight": {"mode": "STABILIZE", "armed": false}, "ekf": {"attitude": {"roll": -0.005508202128112316, "pitch": -0.011961577460169792, "yaw": -0.5914934873580933}, "local_position": {"x": null, "y": null, "z": null}, "status": {"flags": 135, "velocity_variance": 0.0, "pos_horiz_variance": 0.014839663170278072, "pos_vert_variance": 0.02428239956498146}}, "errors": ["PreArm: RC not found", "PreArm: Hardware safety switch", "PreArm: Compasses inconsistent", "PreArm: RC not found", "PreArm: Hardware safety switch", "PreArm: Compasses inconsistent"]}
{"timestamp": "2026-01-25T13:41:04.219688Z", "telemetry": {"lat": 0.0, "lon": 0.0, "satellites": 0, "altitude_gps_m": 0.3999999761581421, "groundspeed_mps": 0.05884021893143654}, "flight": {"mode": "STABILIZE", "armed": false}, "ekf": {"attitude": {"roll": -0.005175419617444277, "pitch": -0.012357298284769058, "yaw": -0.5924986600875854}, "local_position": {"x": null, "y": null, "z": null}, "status": {"flags": 135, "velocity_variance": 0.0, "pos_horiz_variance": 0.014085713773965836, "pos_vert_variance": 0.002731999848037958}}, "errors": ["PreArm: RC not found", "PreArm: Hardware safety switch", "PreArm: Compasses inconsistent", "PreArm: RC not found", "PreArm: Hardware safety switch", "PreArm: Compasses inconsistent"]}
{"timestamp": "2026-01-25T13:41:05.220648Z", "telemetry": {"lat": 0.0, "lon": 0.0, "satellites": 0, "altitude_gps_m": 0.3999999761581421, "groundspeed_mps": 0.05350567400455475}, "flight": {"mode": "STABILIZE", "armed": false}, "ekf": {"attitude": {"roll": -0.004805512726306915, "pitch": -0.013157915323972702, "yaw": -0.5935953855514526}, "local_position": {"x": null, "y": null, "z": null}, "status": {"flags": 135, "velocity_variance": 0.0, "pos_horiz_variance": 0.013938579708337784, "pos_vert_variance": 0.009841104969382286}}, "errors": ["PreArm: RC not found", "PreArm: Hardware safety switch", "PreArm: Compasses inconsistent", "PreArm: RC not found", "PreArm: Hardware safety switch", "PreArm: Compasses inconsistent"]}
{"timestamp": "2026-01-25T13:41:06.220283Z", "telemetry": {"lat": 0.0, "lon": 0.0, "satellites": 0, "altitude_gps_m": 0.3999999761581421, "groundspeed_mps": 0.05364726111292839}, "flight": {"mode": "STABILIZE", "armed": false}, "ekf": {"attitude": {"roll": -0.004687672480940819, "pitch": -0.01321466639637947, "yaw": -0.5948328971862793}, "local_position": {"x": null, "y": null, "z": null}, "status": {"flags": 135, "velocity_variance": 0.0, "pos_horiz_variance": 0.013354875147342682, "pos_vert_variance": 0.07074230164289474}}, "errors": ["PreArm: RC not found", "PreArm: Hardware safety switch", "PreArm: Compasses inconsistent", "PreArm: RC not found", "PreArm: Hardware safety switch", "PreArm: Compasses inconsistent"]}
{"timestamp": "2026-01-25T13:41:07.220668Z", "telemetry": {"lat": 0.0, "lon": 0.0, "satellites": 0, "altitude_gps_m": 0.3999999761581421, "groundspeed_mps": 0.05509263649582863}, "flight": {"mode": "STABILIZE", "armed": false}, "ekf": {"attitude": {"roll": -0.004598165396600962, "pitch": -0.01321769505739212, "yaw": -0.5962094068527222}, "local_position": {"x": null, "y": null, "z": null}, "status": {"flags": 135, "velocity_variance": 0.0, "pos_horiz_variance": 0.013108751736581326, "pos_vert_variance": 0.002209539758041501}}, "errors": ["PreArm: RC not found", "PreArm: Hardware safety switch", "PreArm: Compasses inconsistent", "PreArm: RC not found", "PreArm: Hardware safety switch", "PreArm: Compasses inconsistent"]}
{"timestamp": "2026-01-25T13:41:08.220450Z", "telemetry": {"lat": 0.0, "lon": 0.0, "satellites": 0, "altitude_gps_m": 0.3999999761581421, "groundspeed_mps": 0.0563746839761734}, "flight": {"mode": "STABILIZE", "armed": false}, "ekf": {"attitude": {"roll": -0.004795651882886887, "pitch": -0.012168856337666512, "yaw": -0.597378134727478}, "local_position": {"x": null, "y": null, "z": null}, "status": {"flags": 135, "velocity_variance": 0.0, "pos_horiz_variance": 0.01326341088861227, "pos_vert_variance": 0.03403833881020546}}, "errors": ["PreArm: RC not found", "PreArm: Hardware safety switch", "PreArm: Compasses inconsistent", "PreArm: RC not found", "PreArm: Hardware safety switch", "PreArm: Compasses inconsistent"]}
{"timestamp": "2026-01-25T13:41:09.220190Z", "telemetry": {"lat": 0.0, "lon": 0.0, "satellites": 0, "altitude_gps_m": 0.3999999761581421, "groundspeed_mps": 0.06083781644701958}, "flight": {"mode": "STABILIZE", "armed": false}, "ekf": {"attitude": {"roll": -0.004663052968680859, "pitch": -0.012958699837327003, "yaw": -0.5984386205673218}, "local_position": {"x": null, "y": null, "z": null}, "status": {"flags": 135, "velocity_variance": 0.0, "pos_horiz_variance": 0.014328802935779095, "pos_vert_variance": 0.05924588814377785}}, "errors": ["PreArm: RC not found", "PreArm: Hardware safety switch", "PreArm: Compasses inconsistent", "PreArm: RC not found", "PreArm: Hardware safety switch", "PreArm: Compasses inconsistent"]}
{"timestamp": "2026-01-25T13:41:10.220357Z", "telemetry": {"lat": 0.0, "lon": 0.0, "satellites": 0, "altitude_gps_m": 0.3999999761581421, "groundspeed_mps": 0.06110299378633499}, "flight": {"mode": "STABILIZE", "armed": false}, "ekf": {"attitude": {"roll": -0.004846779629588127, "pitch": -0.01239335723221302, "yaw": -0.5986246466636658}, "local_position": {"x": null, "y": null, "z": null}, "status": {"flags": 135, "velocity_variance": 0.0, "pos_horiz_variance": 0.014651104807853699, "pos_vert_variance": 0.03380656987428665}}, "errors": ["PreArm: RC not found", "PreArm: Hardware safety switch", "PreArm: Compasses inconsistent", "PreArm: RC not found", "PreArm: Hardware safety switch", "PreArm: Compasses inconsistent"]}
{"timestamp": "2026-01-25T13:41:11.220459Z", "telemetry": {"lat": 0.0, "lon": 0.0, "satellites": 0, "altitude_gps_m": 0.3999999761581421, "groundspeed_mps": 0.05818498879671097}, "flight": {"mode": "STABILIZE", "armed": false}, "ekf": {"attitude": {"roll": -0.004724989645183086, "pitch": -0.012821335345506668, "yaw": -0.599544107913971}, "local_position": {"x": null, "y": null, "z": null}, "status": {"flags": 135, "velocity_variance": 0.0, "pos_horiz_variance": 0.014692398719489574, "pos_vert_variance": 0.07814374566078186}}, "errors": ["PreArm: RC not found", "PreArm: Hardware safety switch", "PreArm: Compasses inconsistent", "PreArm: RC not found", "PreArm: Hardware safety switch", "PreArm: Compasses inconsistent"]}
{"timestamp": "2026-01-25T13:41:12.220352Z", "telemetry": {"lat": 0.0, "lon": 0.0, "satellites": 0, "altitude_gps_m": 0.3999999761581421, "groundspeed_mps": 0.05852935090661049}, "flight": {"mode": "STABILIZE", "armed": false}, "ekf": {"attitude": {"roll": -0.004643468651920557, "pitch": -0.013176985085010529, "yaw": -0.5998229384422302}, "local_position": {"x": null, "y": null, "z": null}, "status": {"flags": 135, "velocity_variance": 0.0, "pos_horiz_variance": 0.014014563523232937, "pos_vert_variance": 0.09134601056575775}}, "errors": ["PreArm: RC not found", "PreArm: Hardware safety switch", "PreArm: Compasses inconsistent", "PreArm: RC not found", "PreArm: Hardware safety switch", "PreArm: Compasses inconsistent"]}
{"timestamp": "2026-01-25T13:41:13.220209Z", "telemetry": {"lat": 0.0, "lon": 0.0, "satellites": 0, "altitude_gps_m": 0.3999999761581421, "groundspeed_mps": 0.051453061401844025}, "flight": {"mode": "STABILIZE", "armed": false}, "ekf": {"attitude": {"roll": -0.004808770027011633, "pitch": -0.0140328798443079, "yaw": -0.5995936989784241}, "local_position": {"x": null, "y": null, "z": null}, "status": {"flags": 135, "velocity_variance": 0.0, "pos_horiz_variance": 0.013508843258023262, "pos_vert_variance": 0.10226956754922867}}, "errors": ["PreArm: RC not found", "PreArm: Hardware safety switch", "PreArm: Compasses inconsistent", "PreArm: RC not found", "PreArm: Hardware safety switch", "PreArm: Compasses inconsistent"]}
{"timestamp": "2026-01-25T13:41:14.220350Z", "telemetry": {"lat": 0.0, "lon": 0.0, "satellites": 0, "altitude_gps_m": 0.3999999761581421, "groundspeed_mps": 0.05311474949121475}, "flight": {"mode": "STABILIZE", "armed": false}, "ekf": {"attitude": {"roll": -0.0049380655400455, "pitch": -0.01294538751244545, "yaw": -0.5991755127906799}, "local_position": {"x": null, "y": null, "z": null}, "status": {"flags": 135, "velocity_variance": 0.0, "pos_horiz_variance": 0.012902836315333843, "pos_vert_variance": 0.035561453551054}}, "errors": ["PreArm: RC not found", "PreArm: Hardware safety switch", "PreArm: Compasses inconsistent", "PreArm: RC not found", "PreArm: Hardware safety switch", "PreArm: Compasses inconsistent"]}
{"timestamp": "2026-01-25T13:41:15.220213Z", "telemetry": {"lat": 0.0, "lon": 0.0, "satellites": 0, "altitude_gps_m": 0.3999999761581421, "groundspeed_mps": 0.05234101042151451}, "flight": {"mode": "STABILIZE", "armed": false}, "ekf": {"attitude": {"roll": -0.00464511476457119, "pitch": -0.012836841866374016, "yaw": -0.5990540385246277}, "local_position": {"x": null, "y": null, "z": null}, "status": {"flags": 135, "velocity_variance": 0.0, "pos_horiz_variance": 0.012930374592542648, "pos_vert_variance": 0.029475919902324677}}, "errors": ["PreArm: RC not found", "PreArm: Hardware safety switch", "PreArm: Compasses inconsistent", "PreArm: RC not found", "PreArm: Hardware safety switch", "PreArm: Compasses inconsistent"]}
{"timestamp": "2026-01-25T13:41:16.220551Z", "telemetry": {"lat": 0.0, "lon": 0.0, "satellites": 0, "altitude_gps_m": 0.3999999761581421, "groundspeed_mps": 0.05605011433362961}, "flight": {"mode": "STABILIZE", "armed": false}, "ekf": {"attitude": {"roll": -0.004355031065642834, "pitch": -0.01333375833928585, "yaw": -0.5987820029258728}, "local_position": {"x": null, "y": null, "z": null}, "status": {"flags": 135, "velocity_variance": 0.0, "pos_horiz_variance": 0.012999771162867546, "pos_vert_variance": 0.028038427233695984}}, "errors": ["PreArm: RC not found", "PreArm: Hardware safety switch", "PreArm: Compasses inconsistent", "PreArm: RC not found", "PreArm: Hardware safety switch", "PreArm: Compasses inconsistent"]}
{"timestamp": "2026-01-25T13:41:17.220078Z", "telemetry": {"lat": 0.0, "lon": 0.0, "satellites": 0, "altitude_gps_m": 0.3999999761581421, "groundspeed_mps": 0.053065892308950424}, "flight": {"mode": "STABILIZE", "armed": false}, "ekf": {"attitude": {"roll": -0.004656090401113033, "pitch": -0.012291189283132553, "yaw": -0.5973085165023804}, "local_position": {"x": null, "y": null, "z": null}, "status": {"flags": 135, "velocity_variance": 0.0, "pos_horiz_variance": 0.013028859160840511, "pos_vert_variance": 0.033261071890592575}}, "errors": ["PreArm: RC not found", "PreArm: Hardware safety switch", "PreArm: Compasses inconsistent", "PreArm: RC not found", "PreArm: Hardware safety switch", "PreArm: Compasses inconsistent"]}
{"timestamp": "2026-01-25T13:41:18.219801Z", "telemetry": {"lat": 0.0, "lon": 0.0, "satellites": 0, "altitude_gps_m": 0.3999999761581421, "groundspeed_mps": 0.056833963841199875}, "flight": {"mode": "STABILIZE", "armed": false}, "ekf": {"attitude": {"roll": -0.0045948633924126625, "pitch": -0.012698041275143623, "yaw": -0.5967701077461243}, "local_position": {"x": null, "y": null, "z": null}, "status": {"flags": 135, "velocity_variance": 0.0, "pos_horiz_variance": 0.013298825360834599, "pos_vert_variance": 0.018570320680737495}}, "errors": ["PreArm: RC not found", "PreArm: Hardware safety switch", "PreArm: Compasses inconsistent", "PreArm: RC not found", "PreArm: Hardware safety switch", "PreArm: Compasses inconsistent"]}
{"timestamp": "2026-01-25T13:41:19.219867Z", "telemetry": {"lat": 0.0, "lon": 0.0, "satellites": 0, "altitude_gps_m": 0.3999999761581421, "groundspeed_mps": 0.06132517755031586}, "flight": {"mode": "STABILIZE", "armed": false}, "ekf": {"attitude": {"roll": -0.004109092988073826, "pitch": -0.013302512466907501, "yaw": -0.596281886100769}, "local_position": {"x": null, "y": null, "z": null}, "status": {"flags": 135, "velocity_variance": 0.0, "pos_horiz_variance": 0.014058524742722511, "pos_vert_variance": 0.006350348237901926}}, "errors": ["PreArm: RC not found", "PreArm: Hardware safety switch", "PreArm: Compasses inconsistent", "PreArm: RC not found", "PreArm: Hardware safety switch", "PreArm: Compasses inconsistent", "PreArm: RC not found", "PreArm: Hardware safety switch", "PreArm: Compasses inconsistent"]}
{"timestamp": "2026-01-25T13:41:20.219803Z", "telemetry": {"lat": 0.0, "lon": 0.0, "satellites": 0, "altitude_gps_m": 0.3999999761581421, "groundspeed_mps": 0.05987044796347618}, "flight": {"mode": "STABILIZE", "armed": false}, "ekf": {"attitude": {"roll": -0.005067850463092327, "pitch": -0.013437649235129356, "yaw": -0.5945410132408142}, "local_position": {"x": null, "y": null, "z": null}, "status": {"flags": 135, "velocity_variance": 0.0, "pos_horiz_variance": 0.014504944905638695, "pos_vert_variance": 0.04985908791422844}}, "errors": ["PreArm: RC not found", "PreArm: Hardware safety switch", "PreArm: Compasses inconsistent", "PreArm: RC not found", "PreArm: Hardware safety switch", "PreArm: Compasses inconsistent", "PreArm: RC not found", "PreArm: Hardware safety switch", "PreArm: Compasses inconsistent"]}
{"timestamp": "2026-01-25T13:41:21.219834Z", "telemetry": {"lat": 0.0, "lon": 0.0, "satellites": 0, "altitude_gps_m": 0.3999999761581421, "groundspeed_mps": 0.05914747342467308}, "flight": {"mode": "STABILIZE", "armed": false}, "ekf": {"attitude": {"roll": -0.0038028222043067217, "pitch": -0.01304817758500576, "yaw": -0.594290018081665}, "local_position": {"x": null, "y": null, "z": null}, "status": {"flags": 135, "velocity_variance": 0.0, "pos_horiz_variance": 0.014409421011805534, "pos_vert_variance": 0.04592198505997658}}, "errors": ["PreArm: RC not found", "PreArm: Hardware safety switch", "PreArm: Compasses inconsistent", "PreArm: RC not found", "PreArm: Hardware safety switch", "PreArm: Compasses inconsistent", "PreArm: RC not found", "PreArm: Hardware safety switch", "PreArm: Compasses inconsistent"]}
{"timestamp": "2026-01-25T13:41:22.220673Z", "telemetry": {"lat": 0.0, "lon": 0.0, "satellites": 0, "altitude_gps_m": 0.3999999761581421, "groundspeed_mps": 0.057374510914087296}, "flight": {"mode": "STABILIZE", "armed": false}, "ekf": {"attitude": {"roll": -0.004433534108102322, "pitch": -0.0127833541482687, "yaw": -0.5931541919708252}, "local_position": {"x": null, "y": null, "z": null}, "status": {"flags": 135, "velocity_variance": 0.0, "pos_horiz_variance": 0.014415818266570568, "pos_vert_variance": 0.029271317645907402}}, "errors": ["PreArm: RC not found", "PreArm: Hardware safety switch", "PreArm: Compasses inconsistent", "PreArm: RC not found", "PreArm: Hardware safety switch", "PreArm: Compasses inconsistent", "PreArm: RC not found", "PreArm: Hardware safety switch", "PreArm: Compasses inconsistent"]}
{"timestamp": "2026-01-25T13:41:23.219983Z", "telemetry": {"lat": 0.0, "lon": 0.0, "satellites": 0, "altitude_gps_m": 0.3999999761581421, "groundspeed_mps": 0.05194013938307762}, "flight": {"mode": "STABILIZE", "armed": false}, "ekf": {"attitude": {"roll": -0.0044156708754599094, "pitch": -0.012773081660270691, "yaw": -0.5923337340354919}, "local_position": {"x": null, "y": null, "z": null}, "status": {"flags": 135, "velocity_variance": 0.0, "pos_horiz_variance": 0.013820264488458633, "pos_vert_variance": 0.03615240752696991}}, "errors": ["PreArm: RC not found", "PreArm: Hardware safety switch", "PreArm: Compasses inconsistent", "PreArm: RC not found", "PreArm: Hardware safety switch", "PreArm: Compasses inconsistent", "PreArm: RC not found", "PreArm: Hardware safety switch", "PreArm: Compasses inconsistent"]}
{"timestamp": "2026-01-25T13:41:24.219911Z", "telemetry": {"lat": 0.0, "lon": 0.0, "satellites": 0, "altitude_gps_m": 0.3999999761581421, "groundspeed_mps": 0.04888968914747238}, "flight": {"mode": "STABILIZE", "armed": false}, "ekf": {"attitude": {"roll": -0.0047043245285749435, "pitch": -0.01287580095231533, "yaw": -0.5915025472640991}, "local_position": {"x": null, "y": null, "z": null}, "status": {"flags": 135, "velocity_variance": 0.0, "pos_horiz_variance": 0.012957502156496048, "pos_vert_variance": 0.05199367180466652}}, "errors": ["PreArm: RC not found", "PreArm: Hardware safety switch", "PreArm: Compasses inconsistent", "PreArm: RC not found", "PreArm: Hardware safety switch", "PreArm: Compasses inconsistent", "PreArm: RC not found", "PreArm: Hardware safety switch", "PreArm: Compasses inconsistent"]}
{"timestamp": "2026-01-25T13:41:25.219663Z", "telemetry": {"lat": 0.0, "lon": 0.0, "satellites": 0, "altitude_gps_m": 0.3999999761581421, "groundspeed_mps": 0.051411502063274384}, "flight": {"mode": "STABILIZE", "armed": false}, "ekf": {"attitude": {"roll": -0.004964048508554697, "pitch": -0.012330342084169388, "yaw": -0.5906287431716919}, "local_position": {"x": null, "y": null, "z": null}, "status": {"flags": 135, "velocity_variance": 0.0, "pos_horiz_variance": 0.012319919653236866, "pos_vert_variance": 0.006268154364079237}}, "errors": ["PreArm: RC not found", "PreArm: Hardware safety switch", "PreArm: Compasses inconsistent", "PreArm: RC not found", "PreArm: Hardware safety switch", "PreArm: Compasses inconsistent", "PreArm: RC not found", "PreArm: Hardware safety switch", "PreArm: Compasses inconsistent"]}
{"timestamp": "2026-01-25T13:41:26.219765Z", "telemetry": {"lat": 0.0, "lon": 0.0, "satellites": 0, "altitude_gps_m": 0.3999999761581421, "groundspeed_mps": 0.043447136878967285}, "flight": {"mode": "STABILIZE", "armed": false}, "ekf": {"attitude": {"roll": -0.0049998462200164795, "pitch": -0.011829543858766556, "yaw": -0.5900919437408447}, "local_position": {"x": null, "y": null, "z": null}, "status": {"flags": 135, "velocity_variance": 0.0, "pos_horiz_variance": 0.012041682377457619, "pos_vert_variance": 0.04681188985705376}}, "errors": ["PreArm: RC not found", "PreArm: Hardware safety switch", "PreArm: Compasses inconsistent", "PreArm: RC not found", "PreArm: Hardware safety switch", "PreArm: Compasses inconsistent", "PreArm: RC not found", "PreArm: Hardware safety switch", "PreArm: Compasses inconsistent"]}
{"timestamp": "2026-01-25T13:41:27.219898Z", "telemetry": {"lat": 0.0, "lon": 0.0, "satellites": 0, "altitude_gps_m": 0.3999999761581421, "groundspeed_mps": 0.04269193112850189}, "flight": {"mode": "STABILIZE", "armed": false}, "ekf": {"attitude": {"roll": -0.0049951402470469475, "pitch": -0.012027505785226822, "yaw": -0.5893110036849976}, "local_position": {"x": null, "y": null, "z": null}, "status": {"flags": 135, "velocity_variance": 0.0, "pos_horiz_variance": 0.011471020989120007, "pos_vert_variance": 0.03486945480108261}}, "errors": ["PreArm: RC not found", "PreArm: Hardware safety switch", "PreArm: Compasses inconsistent", "PreArm: RC not found", "PreArm: Hardware safety switch", "PreArm: Compasses inconsistent", "PreArm: RC not found", "PreArm: Hardware safety switch", "PreArm: Compasses inconsistent"]}
