{"timestamp": "2026-01-31T07:31:48.273768Z", "telemetry": {"lat": 13.3545943, "lon": 74.8648229, "satellites": 13, "altitude_gps_m": 43.119998931884766, "groundspeed_mps": 0.10249216854572296}, "flight": {"mode": "ALT_HOLD", "armed": false}, "ekf": {"attitude": {"roll": -0.036527086049318314, "pitch": -0.03152677044272423, "yaw": 2.3061654567718506}, "local_position": {"x": -0.8497182726860046, "y": -0.9723123908042908, "z": -1.31867516040802}, "status": {"flags": 831, "velocity_variance": 0.0641009584069252, "pos_horiz_variance": 0.011113486252725124, "pos_vert_variance": 0.010033255442976952}}, "errors": []}
{"timestamp": "2026-01-31T07:31:49.230220Z", "telemetry": {"lat": 13.354594, "lon": 74.8648231, "satellites": 13, "altitude_gps_m": 43.099998474121094, "groundspeed_mps": 0.09700372070074081}, "flight": {"mode": "ALT_HOLD", "armed": false}, "ekf": {"attitude": {"roll": -0.03638806566596031, "pitch": -0.03159499540925026, "yaw": 2.306175708770752}, "local_position": {"x": -0.8550004363059998, "y": -0.9397701621055603, "z": -1.2967301607131958}, "status": {"flags": 831, "velocity_variance": 0.038708049803972244, "pos_horiz_variance": 0.008013486862182617, "pos_vert_variance": 0.009309524670243263}}, "errors": []}
{"timestamp": "2026-01-31T07:31:50.230094Z", "telemetry": {"lat": 13.3545942, "lon": 74.8648232, "satellites": 13, "altitude_gps_m": 43.07999801635742, "groundspeed_mps": 0.08664923906326294}, "flight": {"mode": "ALT_HOLD", "armed": false}, "ekf": {"attitude": {"roll": -0.036289412528276443, "pitch": -0.031284626573324203, "yaw": 2.3059844970703125}, "local_position": {"x": -0.8364167809486389, "y": -0.9309893846511841, "z": -1.2777940034866333}, "status": {"flags": 831, "velocity_variance": 0.0747554749250412, "pos_horiz_variance": 0.008356019854545593, "pos_vert_variance": 0.005743569694459438}}, "errors": []}
{"timestamp": "2026-01-31T07:31:51.194558Z", "telemetry": {"lat": 13.354594, "lon": 74.864823, "satellites": 13, "altitude_gps_m": 43.029998779296875, "groundspeed_mps": 0.0664912536740303}, "flight": {"mode": "ALT_HOLD", "armed": false}, "ekf": {"attitude": {"roll": -0.03604516014456749, "pitch": -0.030991284176707268, "yaw": 2.305995464324951}, "local_position": {"x": -0.8198513388633728, "y": -0.9420008659362793, "z": -1.2230730056762695}, "status": {"flags": 831, "velocity_variance": 0.04415736719965935, "pos_horiz_variance": 0.004188330844044685, "pos_vert_variance": 0.0013302474981173873}}, "errors": []}
{"timestamp": "2026-01-31T07:31:52.187751Z", "telemetry": {"lat": 13.354594, "lon": 74.8648231, "satellites": 13, "altitude_gps_m": 42.98999786376953, "groundspeed_mps": 0.05902308225631714}, "flight": {"mode": "ALT_HOLD", "armed": false}, "ekf": {"attitude": {"roll": -0.03624892607331276, "pitch": -0.03106621652841568, "yaw": 2.305919647216797}, "local_position": {"x": -0.7886586785316467, "y": -0.9300599694252014, "z": -1.1700485944747925}, "status": {"flags": 831, "velocity_variance": 0.043367087841033936, "pos_horiz_variance": 0.002473085653036833, "pos_vert_variance": 0.0061971526592969894}}, "errors": []}
{"timestamp": "2026-01-31T07:31:53.181108Z", "telemetry": {"lat": 13.3545934, "lon": 74.8648234, "satellites": 13, "altitude_gps_m": 42.89999771118164, "groundspeed_mps": 0.07684191316366196}, "flight": {"mode": "ALT_HOLD", "armed": false}, "ekf": {"attitude": {"roll": -0.036305513232946396, "pitch": -0.03164364770054817, "yaw": 2.3057971000671387}, "local_position": {"x": -0.8108609914779663, "y": -0.8940784931182861, "z": -1.089050054550171}, "status": {"flags": 831, "velocity_variance": 0.0448046512901783, "pos_horiz_variance": 0.0041238549165427685, "pos_vert_variance": 0.012722605839371681}}, "errors": []}
{"timestamp": "2026-01-31T07:31:54.187222Z", "telemetry": {"lat": 13.354593, "lon": 74.8648234, "satellites": 13, "altitude_gps_m": 42.779998779296875, "groundspeed_mps": 0.08921349048614502}, "flight": {"mode": "ALT_HOLD", "armed": false}, "ekf": {"attitude": {"roll": -0.0363868772983551, "pitch": -0.03170417994260788, "yaw": 2.3055498600006104}, "local_position": {"x": -0.8426012992858887, "y": -0.8779531717300415, "z": -1.022247314453125}, "status": {"flags": 831, "velocity_variance": 0.05470200628042221, "pos_horiz_variance": 0.005557054188102484, "pos_vert_variance": 0.016470303758978844}}, "errors": []}
{"timestamp": "2026-01-31T07:31:55.206936Z", "telemetry": {"lat": 13.3545925, "lon": 74.8648236, "satellites": 13, "altitude_gps_m": 42.71999740600586, "groundspeed_mps": 0.09919196367263794}, "flight": {"mode": "ALT_HOLD", "armed": false}, "ekf": {"attitude": {"roll": -0.03632885217666626, "pitch": -0.03193916380405426, "yaw": 2.3054773807525635}, "local_position": {"x": -0.8977850079536438, "y": -0.8399084210395813, "z": -0.9135177135467529}, "status": {"flags": 831, "velocity_variance": 0.04776444658637047, "pos_horiz_variance": 0.006191586144268513, "pos_vert_variance": 0.018420523032546043}}, "errors": []}
{"timestamp": "2026-01-31T07:31:56.206132Z", "telemetry": {"lat": 13.3545925, "lon": 74.8648237, "satellites": 13, "altitude_gps_m": 42.599998474121094, "groundspeed_mps": 0.10467037558555603}, "flight": {"mode": "ALT_HOLD", "armed": false}, "ekf": {"attitude": {"roll": -0.03673889860510826, "pitch": -0.03192564472556114, "yaw": 2.3052895069122314}, "local_position": {"x": -0.9128258228302002, "y": -0.8174991011619568, "z": -0.8130402565002441}, "status": {"flags": 831, "velocity_variance": 0.022087300196290016, "pos_horiz_variance": 0.00575282284989953, "pos_vert_variance": 0.017228521406650543}}, "errors": []}
{"timestamp": "2026-01-31T07:31:57.205826Z", "telemetry": {"lat": 13.3545923, "lon": 74.8648239, "satellites": 13, "altitude_gps_m": 42.529998779296875, "groundspeed_mps": 0.10937417298555374}, "flight": {"mode": "ALT_HOLD", "armed": false}, "ekf": {"attitude": {"roll": -0.03667353093624115, "pitch": -0.031893856823444366, "yaw": 2.3049447536468506}, "local_position": {"x": -0.9375409483909607, "y": -0.7832371592521667, "z": -0.7581141591072083}, "status": {"flags": 831, "velocity_variance": 0.03978672996163368, "pos_horiz_variance": 0.005199989769607782, "pos_vert_variance": 0.017481399700045586}}, "errors": []}
{"timestamp": "2026-01-31T07:31:58.205232Z", "telemetry": {"lat": 13.3545923, "lon": 74.864824, "satellites": 13, "altitude_gps_m": 42.48999786376953, "groundspeed_mps": 0.105338454246521}, "flight": {"mode": "ALT_HOLD", "armed": false}, "ekf": {"attitude": {"roll": -0.03643612563610077, "pitch": -0.03177952021360397, "yaw": 2.304771900177002}, "local_position": {"x": -0.9656987190246582, "y": -0.7737942337989807, "z": -0.6802278757095337}, "status": {"flags": 831, "velocity_variance": 0.041427649557590485, "pos_horiz_variance": 0.0036104132886976004, "pos_vert_variance": 0.01980847492814064}}, "errors": []}
{"timestamp": "2026-01-31T07:31:59.205564Z", "telemetry": {"lat": 13.3545922, "lon": 74.8648243, "satellites": 13, "altitude_gps_m": 42.43000030517578, "groundspeed_mps": 0.11221461743116379}, "flight": {"mode": "ALT_HOLD", "armed": false}, "ekf": {"attitude": {"roll": -0.036476947367191315, "pitch": -0.03190885856747627, "yaw": 2.304716110229492}, "local_position": {"x": -0.994427502155304, "y": -0.7413579821586609, "z": -0.6336337924003601}, "status": {"flags": 831, "velocity_variance": 0.033757638186216354, "pos_horiz_variance": 0.0033326384145766497, "pos_vert_variance": 0.019774384796619415}}, "errors": []}
{"timestamp": "2026-01-31T07:32:00.204613Z", "telemetry": {"lat": 13.3545923, "lon": 74.8648243, "satellites": 13, "altitude_gps_m": 42.36000061035156, "groundspeed_mps": 0.09667149186134338}, "flight": {"mode": "ALT_HOLD", "armed": false}, "ekf": {"attitude": {"roll": -0.03615625575184822, "pitch": -0.031512219458818436, "yaw": 2.3046536445617676}, "local_position": {"x": -1.0049134492874146, "y": -0.7436205148696899, "z": -0.571609616279602}, "status": {"flags": 831, "velocity_variance": 0.022225772961974144, "pos_horiz_variance": 0.003201449057087302, "pos_vert_variance": 0.02233731746673584}}, "errors": []}
{"timestamp": "2026-01-31T07:32:01.210652Z", "telemetry": {"lat": 13.3545923, "lon": 74.8648245, "satellites": 13, "altitude_gps_m": 42.31999969482422, "groundspeed_mps": 0.09542444348335266}, "flight": {"mode": "ALT_HOLD", "armed": false}, "ekf": {"attitude": {"roll": -0.03606776148080826, "pitch": -0.03134601563215256, "yaw": 2.3046486377716064}, "local_position": {"x": -1.0105149745941162, "y": -0.7157851457595825, "z": -0.5106438398361206}, "status": {"flags": 831, "velocity_variance": 0.04150675982236862, "pos_horiz_variance": 0.004974998999387026, "pos_vert_variance": 0.026821540668606758}}, "errors": []}
{"timestamp": "2026-01-31T07:32:02.194818Z", "telemetry": {"lat": 13.3545923, "lon": 74.8648245, "satellites": 13, "altitude_gps_m": 42.21999740600586, "groundspeed_mps": 0.0902208536863327}, "flight": {"mode": "ALT_HOLD", "armed": false}, "ekf": {"attitude": {"roll": -0.03622554987668991, "pitch": -0.03094553016126156, "yaw": 2.3043408393859863}, "local_position": {"x": -1.0016623735427856, "y": -0.6957781910896301, "z": -0.43354225158691406}, "status": {"flags": 831, "velocity_variance": 0.051588330417871475, "pos_horiz_variance": 0.006893467623740435, "pos_vert_variance": 0.024038294330239296}}, "errors": []}
{"timestamp": "2026-01-31T07:32:03.183598Z", "telemetry": {"lat": 13.3545922, "lon": 74.8648244, "satellites": 13, "altitude_gps_m": 42.13999938964844, "groundspeed_mps": 0.0848822146654129}, "flight": {"mode": "ALT_HOLD", "armed": false}, "ekf": {"attitude": {"roll": -0.03606443107128143, "pitch": -0.03076516091823578, "yaw": 2.304191827774048}, "local_position": {"x": -1.0116764307022095, "y": -0.6873742341995239, "z": -0.3323030471801758}, "status": {"flags": 831, "velocity_variance": 0.012196816504001617, "pos_horiz_variance": 0.007720222231000662, "pos_vert_variance": 0.026137543842196465}}, "errors": []}
{"timestamp": "2026-01-31T07:32:04.196191Z", "telemetry": {"lat": 13.3545919, "lon": 74.8648241, "satellites": 13, "altitude_gps_m": 42.029998779296875, "groundspeed_mps": 0.08244909346103668}, "flight": {"mode": "ALT_HOLD", "armed": false}, "ekf": {"attitude": {"roll": -0.035618994385004044, "pitch": -0.030635248869657516, "yaw": 2.304009437561035}, "local_position": {"x": -1.0462037324905396, "y": -0.6935956478118896, "z": -0.22862032055854797}, "status": {"flags": 831, "velocity_variance": 0.06747940927743912, "pos_horiz_variance": 0.010981602594256401, "pos_vert_variance": 0.022672567516565323}}, "errors": []}
{"timestamp": "2026-01-31T07:32:05.184110Z", "telemetry": {"lat": 13.3545919, "lon": 74.8648241, "satellites": 13, "altitude_gps_m": 41.939998626708984, "groundspeed_mps": 0.06922362744808197}, "flight": {"mode": "ALT_HOLD", "armed": false}, "ekf": {"attitude": {"roll": -0.035702165216207504, "pitch": -0.030513092875480652, "yaw": 2.303924560546875}, "local_position": {"x": -1.0475291013717651, "y": -0.7076507806777954, "z": -0.16459350287914276}, "status": {"flags": 831, "velocity_variance": 0.03963809460401535, "pos_horiz_variance": 0.010131503455340862, "pos_vert_variance": 0.024464616551995277}}, "errors": []}
{"timestamp": "2026-01-31T07:32:06.193516Z", "telemetry": {"lat": 13.354592, "lon": 74.8648239, "satellites": 13, "altitude_gps_m": 41.79999923706055, "groundspeed_mps": 0.06449030339717865}, "flight": {"mode": "ALT_HOLD", "armed": false}, "ekf": {"attitude": {"roll": -0.035811200737953186, "pitch": -0.030485495924949646, "yaw": 2.303925037384033}, "local_position": {"x": -1.033493161201477, "y": -0.7248346209526062, "z": 0.0030917376279830933}, "status": {"flags": 831, "velocity_variance": 0.05946069210767746, "pos_horiz_variance": 0.010357427410781384, "pos_vert_variance": 0.030362999066710472}}, "errors": []}
{"timestamp": "2026-01-31T07:32:07.186107Z", "telemetry": {"lat": 13.3545919, "lon": 74.8648237, "satellites": 13, "altitude_gps_m": 41.689998626708984, "groundspeed_mps": 0.057173121720552444}, "flight": {"mode": "ALT_HOLD", "armed": false}, "ekf": {"attitude": {"roll": -0.03573149815201759, "pitch": -0.030293099582195282, "yaw": 2.3037285804748535}, "local_position": {"x": -1.038716435432434, "y": -0.7559660077095032, "z": 0.11790781468153}, "status": {"flags": 831, "velocity_variance": 0.03744553029537201, "pos_horiz_variance": 0.009163818322122097, "pos_vert_variance": 0.028676234185695648}}, "errors": []}
{"timestamp": "2026-01-31T07:32:08.192356Z", "telemetry": {"lat": 13.3545917, "lon": 74.8648239, "satellites": 13, "altitude_gps_m": 41.61000061035156, "groundspeed_mps": 0.07220184057950974}, "flight": {"mode": "ALT_HOLD", "armed": false}, "ekf": {"attitude": {"roll": -0.035742804408073425, "pitch": -0.03065609186887741, "yaw": 2.3036305904388428}, "local_position": {"x": -1.056434154510498, "y": -0.7517881989479065, "z": 0.1801457554101944}, "status": {"flags": 831, "velocity_variance": 0.01689775288105011, "pos_horiz_variance": 0.008378393948078156, "pos_vert_variance": 0.027882497757673264}}, "errors": []}
{"timestamp": "2026-01-31T07:32:09.186798Z", "telemetry": {"lat": 13.3545916, "lon": 74.8648239, "satellites": 13, "altitude_gps_m": 41.48999786376953, "groundspeed_mps": 0.0822078138589859}, "flight": {"mode": "ALT_HOLD", "armed": false}, "ekf": {"attitude": {"roll": -0.036002013832330704, "pitch": -0.030793610960245132, "yaw": 2.303366184234619}, "local_position": {"x": -1.0902291536331177, "y": -0.7256502509117126, "z": 0.3129161298274994}, "status": {"flags": 831, "velocity_variance": 0.009383736178278923, "pos_horiz_variance": 0.009258382022380829, "pos_vert_variance": 0.026308804750442505}}, "errors": []}
{"timestamp": "2026-01-31T07:32:10.192048Z", "telemetry": {"lat": 13.3545916, "lon": 74.864824, "satellites": 13, "altitude_gps_m": 41.38999938964844, "groundspeed_mps": 0.08603652566671371}, "flight": {"mode": "ALT_HOLD", "armed": false}, "ekf": {"attitude": {"roll": -0.03609377518296242, "pitch": -0.03079260140657425, "yaw": 2.3033201694488525}, "local_position": {"x": -1.1017433404922485, "y": -0.7126238346099854, "z": 0.38814181089401245}, "status": {"flags": 831, "velocity_variance": 0.05137363821268082, "pos_horiz_variance": 0.009904764592647552, "pos_vert_variance": 0.02874303050339222}}, "errors": []}
{"timestamp": "2026-01-31T07:32:11.199622Z", "telemetry": {"lat": 13.3545913, "lon": 74.864824, "satellites": 13, "altitude_gps_m": 41.279998779296875, "groundspeed_mps": 0.08145446330308914}, "flight": {"mode": "ALT_HOLD", "armed": false}, "ekf": {"attitude": {"roll": -0.03610909357666969, "pitch": -0.03064185567200184, "yaw": 2.3032660484313965}, "local_position": {"x": -1.1187585592269897, "y": -0.7141414284706116, "z": 0.48891836404800415}, "status": {"flags": 831, "velocity_variance": 0.04712294042110443, "pos_horiz_variance": 0.00925062969326973, "pos_vert_variance": 0.025817254558205605}}, "errors": []}
{"timestamp": "2026-01-31T07:32:12.207040Z", "telemetry": {"lat": 13.3545912, "lon": 74.864824, "satellites": 13, "altitude_gps_m": 41.21999740600586, "groundspeed_mps": 0.08820804208517075}, "flight": {"mode": "ALT_HOLD", "armed": false}, "ekf": {"attitude": {"roll": -0.03630398213863373, "pitch": -0.03088209219276905, "yaw": 2.3031086921691895}, "local_position": {"x": -1.126572608947754, "y": -0.7131312489509583, "z": 0.5862082839012146}, "status": {"flags": 831, "velocity_variance": 0.051448363810777664, "pos_horiz_variance": 0.009540094062685966, "pos_vert_variance": 0.015741299837827682}}, "errors": []}
{"timestamp": "2026-01-31T07:32:13.213169Z", "telemetry": {"lat": 13.3545913, "lon": 74.8648238, "satellites": 13, "altitude_gps_m": 41.16999816894531, "groundspeed_mps": 0.07734904438257217}, "flight": {"mode": "ALT_HOLD", "armed": false}, "ekf": {"attitude": {"roll": -0.0364421047270298, "pitch": -0.03055618703365326, "yaw": 2.3029141426086426}, "local_position": {"x": -1.1270173788070679, "y": -0.7272534966468811, "z": 0.640252411365509}, "status": {"flags": 831, "velocity_variance": 0.02691335789859295, "pos_horiz_variance": 0.010126873850822449, "pos_vert_variance": 0.012020881287753582}}, "errors": []}
{"timestamp": "2026-01-31T07:32:14.198488Z", "telemetry": {"lat": 13.3545913, "lon": 74.8648238, "satellites": 13, "altitude_gps_m": 41.11000061035156, "groundspeed_mps": 0.07932155579328537}, "flight": {"mode": "ALT_HOLD", "armed": false}, "ekf": {"attitude": {"roll": -0.036351803690195084, "pitch": -0.030575383454561234, "yaw": 2.3029041290283203}, "local_position": {"x": -1.1265416145324707, "y": -0.7306536436080933, "z": 0.6505712270736694}, "status": {"flags": 831, "velocity_variance": 0.02868490479886532, "pos_horiz_variance": 0.009909958578646183, "pos_vert_variance": 0.01295698992908001}}, "errors": []}
{"timestamp": "2026-01-31T07:32:15.204297Z", "telemetry": {"lat": 13.3545915, "lon": 74.8648237, "satellites": 13, "altitude_gps_m": 41.040000915527344, "groundspeed_mps": 0.07452364265918732}, "flight": {"mode": "ALT_HOLD", "armed": false}, "ekf": {"attitude": {"roll": -0.036216896027326584, "pitch": -0.030494101345539093, "yaw": 2.302744150161743}, "local_position": {"x": -1.1382486820220947, "y": -0.7275955677032471, "z": 0.760508120059967}, "status": {"flags": 831, "velocity_variance": 0.03889097645878792, "pos_horiz_variance": 0.012373610399663448, "pos_vert_variance": 0.0040716263465583324}}, "errors": []}
{"timestamp": "2026-01-31T07:32:16.230363Z", "telemetry": {"lat": 13.3545915, "lon": 74.8648233, "satellites": 13, "altitude_gps_m": 41.0, "groundspeed_mps": 0.06596868485212326}, "flight": {"mode": "ALT_HOLD", "armed": false}, "ekf": {"attitude": {"roll": -0.035991568118333817, "pitch": -0.030384793877601624, "yaw": 2.3027865886688232}, "local_position": {"x": -1.1292967796325684, "y": -0.7681290507316589, "z": 0.8034080862998962}, "status": {"flags": 831, "velocity_variance": 0.030188381671905518, "pos_horiz_variance": 0.012486988678574562, "pos_vert_variance": 0.0015890353824943304}}, "errors": []}
{"timestamp": "2026-01-31T07:32:17.191949Z", "telemetry": {"lat": 13.3545913, "lon": 74.8648231, "satellites": 13, "altitude_gps_m": 40.98999786376953, "groundspeed_mps": 0.0708342045545578}, "flight": {"mode": "ALT_HOLD", "armed": false}, "ekf": {"attitude": {"roll": -0.03592989966273308, "pitch": -0.030477482825517654, "yaw": 2.3026509284973145}, "local_position": {"x": -1.15192449092865, "y": -0.7745028734207153, "z": 0.8142919540405273}, "status": {"flags": 831, "velocity_variance": 0.0415673591196537, "pos_horiz_variance": 0.012541205622255802, "pos_vert_variance": 0.004453843459486961}}, "errors": []}
{"timestamp": "2026-01-31T07:32:18.195074Z", "telemetry": {"lat": 13.3545917, "lon": 74.8648227, "satellites": 13, "altitude_gps_m": 40.97999954223633, "groundspeed_mps": 0.05620989203453064}, "flight": {"mode": "ALT_HOLD", "armed": false}, "ekf": {"attitude": {"roll": -0.03596988320350647, "pitch": -0.030457619577646255, "yaw": 2.302654266357422}, "local_position": {"x": -1.135056972503662, "y": -0.8191704154014587, "z": 0.829192042350769}, "status": {"flags": 831, "velocity_variance": 0.026504218578338623, "pos_horiz_variance": 0.015252805314958096, "pos_vert_variance": 0.009650342166423798}}, "errors": []}
{"timestamp": "2026-01-31T07:32:19.187624Z", "telemetry": {"lat": 13.3545917, "lon": 74.8648223, "satellites": 13, "altitude_gps_m": 40.97999954223633, "groundspeed_mps": 0.05586491897702217}, "flight": {"mode": "ALT_HOLD", "armed": false}, "ekf": {"attitude": {"roll": -0.03601594641804695, "pitch": -0.0305638387799263, "yaw": 2.302642345428467}, "local_position": {"x": -1.1189844608306885, "y": -0.837796151638031, "z": 0.800740122795105}, "status": {"flags": 831, "velocity_variance": 0.023566924035549164, "pos_horiz_variance": 0.01604447141289711, "pos_vert_variance": 0.01384247187525034}}, "errors": []}
{"timestamp": "2026-01-31T07:32:20.185716Z", "telemetry": {"lat": 13.3545919, "lon": 74.8648217, "satellites": 13, "altitude_gps_m": 41.06999969482422, "groundspeed_mps": 0.036997970193624496}, "flight": {"mode": "ALT_HOLD", "armed": false}, "ekf": {"attitude": {"roll": -0.0360969714820385, "pitch": -0.029861031100153923, "yaw": 2.3025095462799072}, "local_position": {"x": -1.1038157939910889, "y": -0.8775941133499146, "z": 0.7507461309432983}, "status": {"flags": 831, "velocity_variance": 0.06480139493942261, "pos_horiz_variance": 0.018883975222706795, "pos_vert_variance": 0.01762969233095646}}, "errors": []}
{"timestamp": "2026-01-31T07:32:21.197529Z", "telemetry": {"lat": 13.3545923, "lon": 74.8648208, "satellites": 13, "altitude_gps_m": 41.12999725341797, "groundspeed_mps": 0.010598338209092617}, "flight": {"mode": "ALT_HOLD", "armed": false}, "ekf": {"attitude": {"roll": -0.036226093769073486, "pitch": -0.029324909672141075, "yaw": 2.3024206161499023}, "local_position": {"x": -1.0502903461456299, "y": -0.9544702768325806, "z": 0.6925605535507202}, "status": {"flags": 831, "velocity_variance": 0.0340031161904335, "pos_horiz_variance": 0.0205501951277256, "pos_vert_variance": 0.027785034850239754}}, "errors": []}
{"timestamp": "2026-01-31T07:32:22.186567Z", "telemetry": {"lat": 13.3545924, "lon": 74.8648205, "satellites": 13, "altitude_gps_m": 41.16999816894531, "groundspeed_mps": 0.00663865078240633}, "flight": {"mode": "ALT_HOLD", "armed": false}, "ekf": {"attitude": {"roll": -0.036258675158023834, "pitch": -0.02926640771329403, "yaw": 2.302419900894165}, "local_position": {"x": -1.016655445098877, "y": -1.0132935047149658, "z": 0.6464853286743164}, "status": {"flags": 831, "velocity_variance": 0.04324449226260185, "pos_horiz_variance": 0.019895657896995544, "pos_vert_variance": 0.0242439154535532}}, "errors": []}
{"timestamp": "2026-01-31T07:32:23.189034Z", "telemetry": {"lat": 13.3545927, "lon": 74.8648198, "satellites": 13, "altitude_gps_m": 41.209999084472656, "groundspeed_mps": 0.007835548371076584}, "flight": {"mode": "ALT_HOLD", "armed": false}, "ekf": {"attitude": {"roll": -0.03609241172671318, "pitch": -0.02952725626528263, "yaw": 2.3023881912231445}, "local_position": {"x": -0.9907388687133789, "y": -1.054603099822998, "z": 0.6142691969871521}, "status": {"flags": 831, "velocity_variance": 0.03526683151721954, "pos_horiz_variance": 0.02016104944050312, "pos_vert_variance": 0.025057578459382057}}, "errors": []}
{"timestamp": "2026-01-31T07:32:24.194723Z", "telemetry": {"lat": 13.3545929, "lon": 74.8648195, "satellites": 13, "altitude_gps_m": 41.2599983215332, "groundspeed_mps": 0.016928285360336304}, "flight": {"mode": "ALT_HOLD", "armed": false}, "ekf": {"attitude": {"roll": -0.03611316904425621, "pitch": -0.029723793268203735, "yaw": 2.3021721839904785}, "local_position": {"x": -0.9816712141036987, "y": -1.1180460453033447, "z": 0.5551576018333435}, "status": {"flags": 831, "velocity_variance": 0.051627594977617264, "pos_horiz_variance": 0.018485177308321, "pos_vert_variance": 0.02990305982530117}}, "errors": []}
{"timestamp": "2026-01-31T07:32:25.191039Z", "telemetry": {"lat": 13.3545927, "lon": 74.8648191, "satellites": 13, "altitude_gps_m": 41.32999801635742, "groundspeed_mps": 0.02470475062727928}, "flight": {"mode": "ALT_HOLD", "armed": false}, "ekf": {"attitude": {"roll": -0.03605736419558525, "pitch": -0.029861710965633392, "yaw": 2.302046775817871}, "local_position": {"x": -0.9743157029151917, "y": -1.1568148136138916, "z": 0.4960370659828186}, "status": {"flags": 831, "velocity_variance": 0.04185211658477783, "pos_horiz_variance": 0.018286870792508125, "pos_vert_variance": 0.032991256564855576}}, "errors": []}
{"timestamp": "2026-01-31T07:32:26.193630Z", "telemetry": {"lat": 13.3545928, "lon": 74.8648188, "satellites": 13, "altitude_gps_m": 41.37999725341797, "groundspeed_mps": 0.024383004754781723}, "flight": {"mode": "ALT_HOLD", "armed": false}, "ekf": {"attitude": {"roll": -0.03582609444856644, "pitch": -0.029825029894709587, "yaw": 2.3019468784332275}, "local_position": {"x": -0.9591068029403687, "y": -1.1982083320617676, "z": 0.44644254446029663}, "status": {"flags": 831, "velocity_variance": 0.05202271416783333, "pos_horiz_variance": 0.01799987070262432, "pos_vert_variance": 0.032757457345724106}}, "errors": []}
{"timestamp": "2026-01-31T07:32:27.193941Z", "telemetry": {"lat": 13.3545926, "lon": 74.8648182, "satellites": 13, "altitude_gps_m": 41.48999786376953, "groundspeed_mps": 0.0339534655213356}, "flight": {"mode": "ALT_HOLD", "armed": false}, "ekf": {"attitude": {"roll": -0.036094944924116135, "pitch": -0.03036678209900856, "yaw": 2.3018481731414795}, "local_position": {"x": -0.9686011672019958, "y": -1.2789108753204346, "z": 0.3407745957374573}, "status": {"flags": 831, "velocity_variance": 0.02717003971338272, "pos_horiz_variance": 0.016046391800045967, "pos_vert_variance": 0.0352877639234066}}, "errors": []}
{"timestamp": "2026-01-31T07:32:28.195553Z", "telemetry": {"lat": 13.3545921, "lon": 74.8648179, "satellites": 13, "altitude_gps_m": 41.56999969482422, "groundspeed_mps": 0.045858077704906464}, "flight": {"mode": "ALT_HOLD", "armed": false}, "ekf": {"attitude": {"roll": -0.03635261580348015, "pitch": -0.030574150383472443, "yaw": 2.301649808883667}, "local_position": {"x": -0.9733680486679077, "y": -1.3111450672149658, "z": 0.23068149387836456}, "status": {"flags": 831, "velocity_variance": 0.009720788337290287, "pos_horiz_variance": 0.01561629120260477, "pos_vert_variance": 0.03643408790230751}}, "errors": []}
{"timestamp": "2026-01-31T07:32:29.197318Z", "telemetry": {"lat": 13.3545919, "lon": 74.8648177, "satellites": 13, "altitude_gps_m": 41.68000030517578, "groundspeed_mps": 0.045984406024217606}, "flight": {"mode": "ALT_HOLD", "armed": false}, "ekf": {"attitude": {"roll": -0.03643393889069557, "pitch": -0.030497726052999496, "yaw": 2.3015189170837402}, "local_position": {"x": -0.985593855381012, "y": -1.3333792686462402, "z": 0.15100207924842834}, "status": {"flags": 831, "velocity_variance": 0.03797128424048424, "pos_horiz_variance": 0.01505159493535757, "pos_vert_variance": 0.039468102157115936}}, "errors": []}
{"timestamp": "2026-01-31T07:32:30.197726Z", "telemetry": {"lat": 13.3545921, "lon": 74.8648172, "satellites": 13, "altitude_gps_m": 41.81999969482422, "groundspeed_mps": 0.034005306661129}, "flight": {"mode": "ALT_HOLD", "armed": false}, "ekf": {"attitude": {"roll": -0.03652525693178177, "pitch": -0.030249711126089096, "yaw": 2.3013758659362793}, "local_position": {"x": -0.9801058769226074, "y": -1.4447330236434937, "z": -0.014435853809118271}, "status": {"flags": 831, "velocity_variance": 0.030967852100729942, "pos_horiz_variance": 0.01095173042267561, "pos_vert_variance": 0.038358286023139954}}, "errors": []}
