{"timestamp": "2026-01-31T07:27:22.580982Z", "telemetry": {"lat": 13.3545992, "lon": 74.8648283, "satellites": 11, "altitude_gps_m": 42.16999816894531, "groundspeed_mps": 0.028858838602900505}, "flight": {"mode": "LOITER", "armed": false}, "ekf": {"attitude": {"roll": -0.020450880751013756, "pitch": -0.059205904603004456, "yaw": -0.6625673770904541}, "local_position": {"x": null, "y": null, "z": null}, "status": {"flags": 135, "velocity_variance": 0.0, "pos_horiz_variance": 0.003696356900036335, "pos_vert_variance": 0.03352563455700874}}, "errors": []}
{"timestamp": "2026-01-31T07:27:23.630876Z", "telemetry": {"lat": 13.3545992, "lon": 74.8648283, "satellites": 11, "altitude_gps_m": 42.16999816894531, "groundspeed_mps": 0.028858838602900505}, "flight": {"mode": "LOITER", "armed": false}, "ekf": {"attitude": {"roll": -0.020450880751013756, "pitch": -0.059205904603004456, "yaw": -0.6625673770904541}, "local_position": {"x": null, "y": null, "z": null}, "status": {"flags": 135, "velocity_variance": 0.0, "pos_horiz_variance": 0.003696356900036335, "pos_vert_variance": 0.03352563455700874}}, "errors": []}
{"timestamp": "2026-01-31T07:27:24.685110Z", "telemetry": {"lat": 13.3545992, "lon": 74.8648283, "satellites": 11, "altitude_gps_m": 42.16999816894531, "groundspeed_mps": 0.028858838602900505}, "flight": {"mode": "LOITER", "armed": false}, "ekf": {"attitude": {"roll": -0.020450880751013756, "pitch": -0.059205904603004456, "yaw": -0.6625673770904541}, "local_position": {"x": null, "y": null, "z": null}, "status": {"flags": 135, "velocity_variance": 0.0, "pos_horiz_variance": 0.003696356900036335, "pos_vert_variance": 0.03352563455700874}}, "errors": []}
{"timestamp": "2026-01-31T07:27:25.688199Z", "telemetry": {"lat": 13.3545992, "lon": 74.8648283, "satellites": 11, "altitude_gps_m": 42.16999816894531, "groundspeed_mps": 0.028858838602900505}, "flight": {"mode": "LOITER", "armed": false}, "ekf": {"attitude": {"roll": -0.020450880751013756, "pitch": -0.059205904603004456, "yaw": -0.6625673770904541}, "local_position": {"x": null, "y": null, "z": null}, "status": {"flags": 135, "velocity_variance": 0.0, "pos_horiz_variance": 0.003696356900036335, "pos_vert_variance": 0.03352563455700874}}, "errors": []}
{"timestamp": "2026-01-31T07:27:26.687550Z", "telemetry": {"lat": 13.3545992, "lon": 74.8648283, "satellites": 11, "altitude_gps_m": 42.16999816894531, "groundspeed_mps": 0.028858838602900505}, "flight": {"mode": "LOITER", "armed": false}, "ekf": {"attitude": {"roll": -0.020450880751013756, "pitch": -0.059205904603004456, "yaw": -0.6625673770904541}, "local_position": {"x": null, "y": null, "z": null}, "status": {"flags": 135, "velocity_variance": 0.0, "pos_horiz_variance": 0.003696356900036335, "pos_vert_variance": 0.03352563455700874}}, "errors": []}
{"timestamp": "2026-01-31T07:27:27.686893Z", "telemetry": {"lat": 13.3545992, "lon": 74.8648283, "satellites": 11, "altitude_gps_m": 42.16999816894531, "groundspeed_mps": 0.028858838602900505}, "flight": {"mode": "LOITER", "armed": false}, "ekf": {"attitude": {"roll": -0.020450880751013756, "pitch": -0.059205904603004456, "yaw": -0.6625673770904541}, "local_position": {"x": null, "y": null, "z": null}, "status": {"flags": 135, "velocity_variance": 0.0, "pos_horiz_variance": 0.003696356900036335, "pos_vert_variance": 0.03352563455700874}}, "errors": []}
{"timestamp": "2026-01-31T07:27:28.690293Z", "telemetry": {"lat": 13.3545992, "lon": 74.8648283, "satellites": 11, "altitude_gps_m": 42.16999816894531, "groundspeed_mps": 0.028858838602900505}, "flight": {"mode": "LOITER", "armed": false}, "ekf": {"attitude": {"roll": -0.020450880751013756, "pitch": -0.059205904603004456, "yaw": -0.6625673770904541}, "local_position": {"x": null, "y": null, "z": null}, "status": {"flags": 135, "velocity_variance": 0.0, "pos_horiz_variance": 0.003696356900036335, "pos_vert_variance": 0.03352563455700874}}, "errors": []}
{"timestamp": "2026-01-31T07:27:29.702304Z", "telemetry": {"lat": 13.3546016, "lon": 74.8648323, "satellites": 11, "altitude_gps_m": 41.87999725341797, "groundspeed_mps": 0.12498684227466583}, "flight": {"mode": "LOITER", "armed": false}, "ekf": {"attitude": {"roll": -0.020475344732403755, "pitch": -0.06411159038543701, "yaw": -0.6649419069290161}, "local_position": {"x": null, "y": null, "z": null}, "status": {"flags": 167, "velocity_variance": 0.0, "pos_horiz_variance": 0.02727387472987175, "pos_vert_variance": 0.015121995471417904}}, "errors": []}
{"timestamp": "2026-01-31T07:27:30.686626Z", "telemetry": {"lat": 13.3546018, "lon": 74.864833, "satellites": 11, "altitude_gps_m": 42.06999969482422, "groundspeed_mps": 0.13935670256614685}, "flight": {"mode": "LOITER", "armed": false}, "ekf": {"attitude": {"roll": -0.02047894522547722, "pitch": -0.06366165727376938, "yaw": -0.6652683019638062}, "local_position": {"x": null, "y": null, "z": null}, "status": {"flags": 167, "velocity_variance": 0.0, "pos_horiz_variance": 0.0317499078810215, "pos_vert_variance": 0.014011220075190067}}, "errors": []}
{"timestamp": "2026-01-31T07:27:31.685394Z", "telemetry": {"lat": 13.3546021, "lon": 74.8648335, "satellites": 11, "altitude_gps_m": 42.06999969482422, "groundspeed_mps": 0.13935670256614685}, "flight": {"mode": "LOITER", "armed": false}, "ekf": {"attitude": {"roll": -0.02047894522547722, "pitch": -0.06366165727376938, "yaw": -0.6652683019638062}, "local_position": {"x": null, "y": null, "z": null}, "status": {"flags": 167, "velocity_variance": 0.0, "pos_horiz_variance": 0.03657633438706398, "pos_vert_variance": 0.013167408294975758}}, "errors": []}
{"timestamp": "2026-01-31T07:27:32.688907Z", "telemetry": {"lat": 13.3546021, "lon": 74.8648335, "satellites": 11, "altitude_gps_m": 42.06999969482422, "groundspeed_mps": 0.13935670256614685}, "flight": {"mode": "LOITER", "armed": false}, "ekf": {"attitude": {"roll": -0.02047894522547722, "pitch": -0.06366165727376938, "yaw": -0.6652683019638062}, "local_position": {"x": null, "y": null, "z": null}, "status": {"flags": 167, "velocity_variance": 0.0, "pos_horiz_variance": 0.03657633438706398, "pos_vert_variance": 0.013167408294975758}}, "errors": []}
{"timestamp": "2026-01-31T07:27:33.719964Z", "telemetry": {"lat": 13.3546017, "lon": 74.8648315, "satellites": 11, "altitude_gps_m": 42.06999969482422, "groundspeed_mps": 0.13935670256614685}, "flight": {"mode": "LOITER", "armed": false}, "ekf": {"attitude": {"roll": -0.02047894522547722, "pitch": -0.06366165727376938, "yaw": -0.6652683019638062}, "local_position": {"x": null, "y": null, "z": null}, "status": {"flags": 167, "velocity_variance": 0.0, "pos_horiz_variance": 0.0453353226184845, "pos_vert_variance": 0.032743632793426514}}, "errors": []}
{"timestamp": "2026-01-31T07:27:34.688525Z", "telemetry": {"lat": 13.3546019, "lon": 74.8648325, "satellites": 11, "altitude_gps_m": 42.27000045776367, "groundspeed_mps": 0.19207489490509033}, "flight": {"mode": "ALT_HOLD", "armed": false}, "ekf": {"attitude": {"roll": -0.02045379765331745, "pitch": -0.06553897261619568, "yaw": -0.6637545228004456}, "local_position": {"x": null, "y": null, "z": null}, "status": {"flags": 167, "velocity_variance": 0.0, "pos_horiz_variance": 0.0453353226184845, "pos_vert_variance": 0.032743632793426514}}, "errors": []}
{"timestamp": "2026-01-31T07:27:35.688161Z", "telemetry": {"lat": 13.3546019, "lon": 74.8648325, "satellites": 11, "altitude_gps_m": 42.55999755859375, "groundspeed_mps": 0.20052728056907654}, "flight": {"mode": "ALT_HOLD", "armed": false}, "ekf": {"attitude": {"roll": -0.02045379765331745, "pitch": -0.06553897261619568, "yaw": -0.6637545228004456}, "local_position": {"x": null, "y": null, "z": null}, "status": {"flags": 167, "velocity_variance": 0.0, "pos_horiz_variance": 0.05273028463125229, "pos_vert_variance": 0.023107949644327164}}, "errors": []}
{"timestamp": "2026-01-31T07:27:36.686563Z", "telemetry": {"lat": 13.3546019, "lon": 74.8648325, "satellites": 11, "altitude_gps_m": 42.71999740600586, "groundspeed_mps": 0.2079443335533142}, "flight": {"mode": "ALT_HOLD", "armed": false}, "ekf": {"attitude": {"roll": -0.020177321508526802, "pitch": -0.06573718786239624, "yaw": -0.6640034914016724}, "local_position": {"x": null, "y": null, "z": null}, "status": {"flags": 167, "velocity_variance": 0.0, "pos_horiz_variance": 0.05273028463125229, "pos_vert_variance": 0.023107949644327164}}, "errors": []}
{"timestamp": "2026-01-31T07:27:37.687640Z", "telemetry": {"lat": 13.3546028, "lon": 74.8648367, "satellites": 11, "altitude_gps_m": 42.89999771118164, "groundspeed_mps": 0.21591722965240479}, "flight": {"mode": "ALT_HOLD", "armed": false}, "ekf": {"attitude": {"roll": -0.020077554509043694, "pitch": -0.06603561341762543, "yaw": -0.6636004447937012}, "local_position": {"x": null, "y": null, "z": null}, "status": {"flags": 167, "velocity_variance": 0.0, "pos_horiz_variance": 0.05842708423733711, "pos_vert_variance": 0.02567937970161438}}, "errors": []}
{"timestamp": "2026-01-31T07:27:38.683626Z", "telemetry": {"lat": 13.3546028, "lon": 74.8648367, "satellites": 11, "altitude_gps_m": 42.89999771118164, "groundspeed_mps": 0.21591722965240479}, "flight": {"mode": "ALT_HOLD", "armed": false}, "ekf": {"attitude": {"roll": -0.020077554509043694, "pitch": -0.06603561341762543, "yaw": -0.6636004447937012}, "local_position": {"x": null, "y": null, "z": null}, "status": {"flags": 167, "velocity_variance": 0.0, "pos_horiz_variance": 0.05842708423733711, "pos_vert_variance": 0.02567937970161438}}, "errors": []}
{"timestamp": "2026-01-31T07:27:39.681702Z", "telemetry": {"lat": 13.3546028, "lon": 74.8648367, "satellites": 11, "altitude_gps_m": 42.89999771118164, "groundspeed_mps": 0.21591722965240479}, "flight": {"mode": "ALT_HOLD", "armed": false}, "ekf": {"attitude": {"roll": -0.020077554509043694, "pitch": -0.06603561341762543, "yaw": -0.6636004447937012}, "local_position": {"x": null, "y": null, "z": null}, "status": {"flags": 167, "velocity_variance": 0.0, "pos_horiz_variance": 0.05842708423733711, "pos_vert_variance": 0.02567937970161438}}, "errors": []}
{"timestamp": "2026-01-31T07:27:40.681432Z", "telemetry": {"lat": 13.3546028, "lon": 74.8648367, "satellites": 11, "altitude_gps_m": 42.89999771118164, "groundspeed_mps": 0.21591722965240479}, "flight": {"mode": "ALT_HOLD", "armed": false}, "ekf": {"attitude": {"roll": -0.020204050466418266, "pitch": -0.0666164979338646, "yaw": -0.6647092700004578}, "local_position": {"x": null, "y": null, "z": null}, "status": {"flags": 167, "velocity_variance": 0.0, "pos_horiz_variance": 0.06696511059999466, "pos_vert_variance": 0.018762221559882164}}, "errors": []}
{"timestamp": "2026-01-31T07:27:41.676861Z", "telemetry": {"lat": 13.3546045, "lon": 74.8648424, "satellites": 11, "altitude_gps_m": 44.21999740600586, "groundspeed_mps": 0.25432640314102173}, "flight": {"mode": "ALT_HOLD", "armed": false}, "ekf": {"attitude": {"roll": -0.020204050466418266, "pitch": -0.0666164979338646, "yaw": -0.6647092700004578}, "local_position": {"x": null, "y": null, "z": null}, "status": {"flags": 167, "velocity_variance": 0.0, "pos_horiz_variance": 0.06984448432922363, "pos_vert_variance": 0.01613631658256054}}, "errors": []}
{"timestamp": "2026-01-31T07:27:42.683422Z", "telemetry": {"lat": 13.3546045, "lon": 74.8648424, "satellites": 11, "altitude_gps_m": 44.31999969482422, "groundspeed_mps": 0.26073727011680603}, "flight": {"mode": "ALT_HOLD", "armed": false}, "ekf": {"attitude": {"roll": -0.020017169415950775, "pitch": -0.06770829856395721, "yaw": -0.6700889468193054}, "local_position": {"x": null, "y": null, "z": null}, "status": {"flags": 167, "velocity_variance": 0.0, "pos_horiz_variance": 0.06984448432922363, "pos_vert_variance": 0.01613631658256054}}, "errors": []}
{"timestamp": "2026-01-31T07:27:43.696522Z", "telemetry": {"lat": 13.3546045, "lon": 74.8648424, "satellites": 11, "altitude_gps_m": 44.31999969482422, "groundspeed_mps": 0.26073727011680603}, "flight": {"mode": "ALT_HOLD", "armed": false}, "ekf": {"attitude": {"roll": -0.020017169415950775, "pitch": -0.06770829856395721, "yaw": -0.6700889468193054}, "local_position": {"x": null, "y": null, "z": null}, "status": {"flags": 167, "velocity_variance": 0.0, "pos_horiz_variance": 0.06984448432922363, "pos_vert_variance": 0.01613631658256054}}, "errors": []}
{"timestamp": "2026-01-31T07:27:44.677143Z", "telemetry": {"lat": 13.3546048, "lon": 74.8648457, "satellites": 12, "altitude_gps_m": 44.29999923706055, "groundspeed_mps": 0.2791936993598938}, "flight": {"mode": "ALT_HOLD", "armed": false}, "ekf": {"attitude": {"roll": -0.01986982300877571, "pitch": -0.06812486052513123, "yaw": -0.6725717782974243}, "local_position": {"x": null, "y": null, "z": null}, "status": {"flags": 167, "velocity_variance": 0.0, "pos_horiz_variance": 0.07727975398302078, "pos_vert_variance": 0.05263020843267441}}, "errors": []}
{"timestamp": "2026-01-31T07:27:45.683292Z", "telemetry": {"lat": 13.3546048, "lon": 74.8648457, "satellites": 12, "altitude_gps_m": 44.709999084472656, "groundspeed_mps": 0.2809489667415619}, "flight": {"mode": "ALT_HOLD", "armed": false}, "ekf": {"attitude": {"roll": -0.019493544474244118, "pitch": -0.06761662662029266, "yaw": -0.6736599206924438}, "local_position": {"x": null, "y": null, "z": null}, "status": {"flags": 167, "velocity_variance": 0.0, "pos_horiz_variance": 0.07727975398302078, "pos_vert_variance": 0.05263020843267441}}, "errors": []}
{"timestamp": "2026-01-31T07:27:46.689492Z", "telemetry": {"lat": 13.3546054, "lon": 74.8648448, "satellites": 11, "altitude_gps_m": 44.86000061035156, "groundspeed_mps": 0.2806791663169861}, "flight": {"mode": "ALT_HOLD", "armed": false}, "ekf": {"attitude": {"roll": -0.01954042725265026, "pitch": -0.06807542592287064, "yaw": -0.6740726232528687}, "local_position": {"x": null, "y": null, "z": null}, "status": {"flags": 167, "velocity_variance": 0.0, "pos_horiz_variance": 0.08088325709104538, "pos_vert_variance": 0.05030051991343498}}, "errors": ["EKF3 IMU0 is using GPS"]}
{"timestamp": "2026-01-31T07:27:47.684355Z", "telemetry": {"lat": 13.3546057, "lon": 74.8648429, "satellites": 11, "altitude_gps_m": 44.86000061035156, "groundspeed_mps": 0.2806791663169861}, "flight": {"mode": "ALT_HOLD", "armed": false}, "ekf": {"attitude": {"roll": -0.019804244861006737, "pitch": -0.06835466623306274, "yaw": -0.6745898127555847}, "local_position": {"x": 0.45458632707595825, "y": 1.2637525796890259, "z": -4.219454288482666}, "status": {"flags": 831, "velocity_variance": 0.14698167145252228, "pos_horiz_variance": 0.0010153905022889376, "pos_vert_variance": 0.06819553673267365}}, "errors": ["EKF3 IMU0 is using GPS", "EKF3 IMU1 is using GPS"]}
{"timestamp": "2026-01-31T07:27:48.669363Z", "telemetry": {"lat": 13.3546057, "lon": 74.8648429, "satellites": 11, "altitude_gps_m": 44.86000061035156, "groundspeed_mps": 0.2806791663169861}, "flight": {"mode": "ALT_HOLD", "armed": false}, "ekf": {"attitude": {"roll": -0.019804244861006737, "pitch": -0.06835466623306274, "yaw": -0.6745898127555847}, "local_position": {"x": 0.45458632707595825, "y": 1.2637525796890259, "z": -4.219454288482666}, "status": {"flags": 831, "velocity_variance": 0.14698167145252228, "pos_horiz_variance": 0.0010153905022889376, "pos_vert_variance": 0.06819553673267365}}, "errors": ["EKF3 IMU0 is using GPS", "EKF3 IMU1 is using GPS"]}
{"timestamp": "2026-01-31T07:27:49.692786Z", "telemetry": {"lat": 13.3546057, "lon": 74.8648429, "satellites": 11, "altitude_gps_m": 44.86000061035156, "groundspeed_mps": 0.2806791663169861}, "flight": {"mode": "ALT_HOLD", "armed": false}, "ekf": {"attitude": {"roll": -0.01988387107849121, "pitch": -0.07199026644229889, "yaw": -0.6753284931182861}, "local_position": {"x": 0.45458632707595825, "y": 1.2637525796890259, "z": -4.219454288482666}, "status": {"flags": 831, "velocity_variance": 0.14698167145252228, "pos_horiz_variance": 0.0010153905022889376, "pos_vert_variance": 0.06819553673267365}}, "errors": ["EKF3 IMU0 is using GPS", "EKF3 IMU1 is using GPS"]}
{"timestamp": "2026-01-31T07:27:50.692128Z", "telemetry": {"lat": 13.3546057, "lon": 74.8648429, "satellites": 11, "altitude_gps_m": 44.14999771118164, "groundspeed_mps": 0.2591798007488251}, "flight": {"mode": "ALT_HOLD", "armed": false}, "ekf": {"attitude": {"roll": -0.020606709644198418, "pitch": -0.07323109358549118, "yaw": -0.6756337881088257}, "local_position": {"x": 0.45458632707595825, "y": 1.2637525796890259, "z": -4.219454288482666}, "status": {"flags": 831, "velocity_variance": 0.14698167145252228, "pos_horiz_variance": 0.0010153905022889376, "pos_vert_variance": 0.06819553673267365}}, "errors": ["EKF3 IMU0 is using GPS", "EKF3 IMU1 is using GPS"]}
{"timestamp": "2026-01-31T07:27:51.691933Z", "telemetry": {"lat": 13.3546071, "lon": 74.8648383, "satellites": 12, "altitude_gps_m": 44.14999771118164, "groundspeed_mps": 0.2591798007488251}, "flight": {"mode": "ALT_HOLD", "armed": false}, "ekf": {"attitude": {"roll": -0.020606709644198418, "pitch": -0.07323109358549118, "yaw": -0.6756337881088257}, "local_position": {"x": 0.7043821215629578, "y": 0.6696385145187378, "z": -2.1258394718170166}, "status": {"flags": 831, "velocity_variance": 0.11658456921577454, "pos_horiz_variance": 0.002280954970046878, "pos_vert_variance": 0.0039128391072154045}}, "errors": ["EKF3 IMU0 is using GPS", "EKF3 IMU1 is using GPS"]}
{"timestamp": "2026-01-31T07:27:52.692316Z", "telemetry": {"lat": 13.3546074, "lon": 74.8648379, "satellites": 12, "altitude_gps_m": 44.14999771118164, "groundspeed_mps": 0.2591798007488251}, "flight": {"mode": "ALT_HOLD", "armed": false}, "ekf": {"attitude": {"roll": -0.020606709644198418, "pitch": -0.07323109358549118, "yaw": -0.6756337881088257}, "local_position": {"x": 0.742179811000824, "y": 0.519233763217926, "z": -1.9572224617004395}, "status": {"flags": 831, "velocity_variance": 0.13062705099582672, "pos_horiz_variance": 0.009008731693029404, "pos_vert_variance": 0.014925234951078892}}, "errors": ["EKF3 IMU0 is using GPS", "EKF3 IMU1 is using GPS"]}
{"timestamp": "2026-01-31T07:27:53.691934Z", "telemetry": {"lat": 13.3546077, "lon": 74.8648382, "satellites": 12, "altitude_gps_m": 43.68000030517578, "groundspeed_mps": 0.3123590052127838}, "flight": {"mode": "ALT_HOLD", "armed": false}, "ekf": {"attitude": {"roll": -0.020005900412797928, "pitch": -0.07011529058218002, "yaw": -0.6765093207359314}, "local_position": {"x": 0.7598640322685242, "y": 0.4637751579284668, "z": -1.8752862215042114}, "status": {"flags": 831, "velocity_variance": 0.10031136870384216, "pos_horiz_variance": 0.015895575284957886, "pos_vert_variance": 0.02900916151702404}}, "errors": ["EKF3 IMU0 is using GPS", "EKF3 IMU1 is using GPS"]}
{"timestamp": "2026-01-31T07:27:54.690675Z", "telemetry": {"lat": 13.3546075, "lon": 74.864838, "satellites": 12, "altitude_gps_m": 43.61000061035156, "groundspeed_mps": 0.280385822057724}, "flight": {"mode": "ALT_HOLD", "armed": false}, "ekf": {"attitude": {"roll": -0.019818130880594254, "pitch": -0.06859394907951355, "yaw": -0.6762685775756836}, "local_position": {"x": 0.7598341107368469, "y": 0.4266403019428253, "z": -1.8000030517578125}, "status": {"flags": 831, "velocity_variance": 0.09512098133563995, "pos_horiz_variance": 0.018111763522028923, "pos_vert_variance": 0.03570994734764099}}, "errors": ["EKF3 IMU0 is using GPS", "EKF3 IMU1 is using GPS"]}
{"timestamp": "2026-01-31T07:27:55.710006Z", "telemetry": {"lat": 13.354607, "lon": 74.8648373, "satellites": 12, "altitude_gps_m": 43.52000045776367, "groundspeed_mps": 0.2316083312034607}, "flight": {"mode": "ALT_HOLD", "armed": false}, "ekf": {"attitude": {"roll": -0.01904984377324581, "pitch": -0.06719441711902618, "yaw": -0.6768417954444885}, "local_position": {"x": 0.7158269882202148, "y": 0.3882838785648346, "z": -1.7178022861480713}, "status": {"flags": 831, "velocity_variance": 0.1045558750629425, "pos_horiz_variance": 0.017033101990818977, "pos_vert_variance": 0.044703155755996704}}, "errors": ["EKF3 IMU0 is using GPS", "EKF3 IMU1 is using GPS"]}
{"timestamp": "2026-01-31T07:27:56.693704Z", "telemetry": {"lat": 13.3546068, "lon": 74.8648372, "satellites": 12, "altitude_gps_m": 43.52000045776367, "groundspeed_mps": 0.2316083312034607}, "flight": {"mode": "ALT_HOLD", "armed": false}, "ekf": {"attitude": {"roll": -0.01904984377324581, "pitch": -0.06719441711902618, "yaw": -0.6768417954444885}, "local_position": {"x": 0.6942589282989502, "y": 0.3541070818901062, "z": -1.6918275356292725}, "status": {"flags": 831, "velocity_variance": 0.07037093490362167, "pos_horiz_variance": 0.01629023626446724, "pos_vert_variance": 0.04315676912665367}}, "errors": ["EKF3 IMU0 is using GPS", "EKF3 IMU1 is using GPS", "ArduCopter V4.6.1 (57591cb8)", "ChibiOS: 88b84600", "fmuv3 00240032 33385119 36353030", "IOMCU: 420 1001 411FC231", "RCOut: PWM:1-14", "IMU0: fast sampling enabled 8.0kHz/1.0kHz", "Frame: QUAD/X"]}
{"timestamp": "2026-01-31T07:27:57.709133Z", "telemetry": {"lat": 13.3546053, "lon": 74.8648357, "satellites": 12, "altitude_gps_m": 43.38999938964844, "groundspeed_mps": 0.22808696329593658}, "flight": {"mode": "ALT_HOLD", "armed": false}, "ekf": {"attitude": {"roll": -0.019824741408228874, "pitch": -0.06711260974407196, "yaw": -0.6775218844413757}, "local_position": {"x": 0.6377217769622803, "y": 0.27241963148117065, "z": -1.5868229866027832}, "status": {"flags": 831, "velocity_variance": 0.06834008544683456, "pos_horiz_variance": 0.01779102347791195, "pos_vert_variance": 0.04241868481040001}}, "errors": ["EKF3 IMU0 is using GPS", "EKF3 IMU1 is using GPS", "ArduCopter V4.6.1 (57591cb8)", "ChibiOS: 88b84600", "fmuv3 00240032 33385119 36353030", "IOMCU: 420 1001 411FC231", "RCOut: PWM:1-14", "IMU0: fast sampling enabled 8.0kHz/1.0kHz", "Frame: QUAD/X"]}
{"timestamp": "2026-01-31T07:27:58.709183Z", "telemetry": {"lat": 13.3546053, "lon": 74.8648357, "satellites": 12, "altitude_gps_m": 43.38999938964844, "groundspeed_mps": 0.22808696329593658}, "flight": {"mode": "ALT_HOLD", "armed": false}, "ekf": {"attitude": {"roll": -0.019824741408228874, "pitch": -0.06711260974407196, "yaw": -0.6775218844413757}, "local_position": {"x": 0.6377217769622803, "y": 0.27241963148117065, "z": -1.5868229866027832}, "status": {"flags": 831, "velocity_variance": 0.06834008544683456, "pos_horiz_variance": 0.01779102347791195, "pos_vert_variance": 0.04241868481040001}}, "errors": ["EKF3 IMU0 is using GPS", "EKF3 IMU1 is using GPS", "ArduCopter V4.6.1 (57591cb8)", "ChibiOS: 88b84600", "fmuv3 00240032 33385119 36353030", "IOMCU: 420 1001 411FC231", "RCOut: PWM:1-14", "IMU0: fast sampling enabled 8.0kHz/1.0kHz", "Frame: QUAD/X"]}
{"timestamp": "2026-01-31T07:27:59.709245Z", "telemetry": {"lat": 13.3546053, "lon": 74.8648357, "satellites": 12, "altitude_gps_m": 43.38999938964844, "groundspeed_mps": 0.22808696329593658}, "flight": {"mode": "ALT_HOLD", "armed": false}, "ekf": {"attitude": {"roll": -0.019824741408228874, "pitch": -0.06711260974407196, "yaw": -0.6775218844413757}, "local_position": {"x": 0.6377217769622803, "y": 0.27241963148117065, "z": -1.5868229866027832}, "status": {"flags": 831, "velocity_variance": 0.06834008544683456, "pos_horiz_variance": 0.01779102347791195, "pos_vert_variance": 0.04241868481040001}}, "errors": ["EKF3 IMU0 is using GPS", "EKF3 IMU1 is using GPS", "ArduCopter V4.6.1 (57591cb8)", "ChibiOS: 88b84600", "fmuv3 00240032 33385119 36353030", "IOMCU: 420 1001 411FC231", "RCOut: PWM:1-14", "IMU0: fast sampling enabled 8.0kHz/1.0kHz", "Frame: QUAD/X"]}
{"timestamp": "2026-01-31T07:28:00.663892Z", "telemetry": {"lat": 13.3546053, "lon": 74.8648357, "satellites": 12, "altitude_gps_m": 43.38999938964844, "groundspeed_mps": 0.22808696329593658}, "flight": {"mode": "ALT_HOLD", "armed": false}, "ekf": {"attitude": {"roll": -0.019824741408228874, "pitch": -0.06711260974407196, "yaw": -0.6775218844413757}, "local_position": {"x": 0.4933917224407196, "y": 0.19085952639579773, "z": -1.4278253316879272}, "status": {"flags": 831, "velocity_variance": 0.061584487557411194, "pos_horiz_variance": 0.027243277058005333, "pos_vert_variance": 0.07142344862222672}}, "errors": ["EKF3 IMU0 is using GPS", "EKF3 IMU1 is using GPS", "ArduCopter V4.6.1 (57591cb8)", "ChibiOS: 88b84600", "fmuv3 00240032 33385119 36353030", "IOMCU: 420 1001 411FC231", "RCOut: PWM:1-14", "IMU0: fast sampling enabled 8.0kHz/1.0kHz", "Frame: QUAD/X"]}
{"timestamp": "2026-01-31T07:28:01.674979Z", "telemetry": {"lat": 13.3546053, "lon": 74.8648357, "satellites": 12, "altitude_gps_m": 43.38999938964844, "groundspeed_mps": 0.22808696329593658}, "flight": {"mode": "ALT_HOLD", "armed": false}, "ekf": {"attitude": {"roll": -0.019469263032078743, "pitch": -0.06578131020069122, "yaw": -0.6770466566085815}, "local_position": {"x": 0.4663327634334564, "y": 0.1781875044107437, "z": -1.4435991048812866}, "status": {"flags": 831, "velocity_variance": 0.09998046606779099, "pos_horiz_variance": 0.029901651665568352, "pos_vert_variance": 0.08077675849199295}}, "errors": ["EKF3 IMU0 is using GPS", "EKF3 IMU1 is using GPS", "ArduCopter V4.6.1 (57591cb8)", "ChibiOS: 88b84600", "fmuv3 00240032 33385119 36353030", "IOMCU: 420 1001 411FC231", "RCOut: PWM:1-14", "IMU0: fast sampling enabled 8.0kHz/1.0kHz", "Frame: QUAD/X"]}
{"timestamp": "2026-01-31T07:28:02.706870Z", "telemetry": {"lat": 13.3546033, "lon": 74.8648369, "satellites": 12, "altitude_gps_m": 43.30999755859375, "groundspeed_mps": 0.1984863132238388}, "flight": {"mode": "ALT_HOLD", "armed": false}, "ekf": {"attitude": {"roll": -0.019091127440333366, "pitch": -0.06547732651233673, "yaw": -0.6769813895225525}, "local_position": {"x": 0.43461817502975464, "y": 0.2032564878463745, "z": -1.5023856163024902}, "status": {"flags": 831, "velocity_variance": 0.06699231266975403, "pos_horiz_variance": 0.031302064657211304, "pos_vert_variance": 0.09022035449743271}}, "errors": ["EKF3 IMU0 is using GPS", "EKF3 IMU1 is using GPS", "ArduCopter V4.6.1 (57591cb8)", "ChibiOS: 88b84600", "fmuv3 00240032 33385119 36353030", "IOMCU: 420 1001 411FC231", "RCOut: PWM:1-14", "IMU0: fast sampling enabled 8.0kHz/1.0kHz", "Frame: QUAD/X"]}
{"timestamp": "2026-01-31T07:28:03.707413Z", "telemetry": {"lat": 13.3546029, "lon": 74.8648369, "satellites": 12, "altitude_gps_m": 43.43000030517578, "groundspeed_mps": 0.19638387858867645}, "flight": {"mode": "ALT_HOLD", "armed": false}, "ekf": {"attitude": {"roll": -0.01843538135290146, "pitch": -0.06732391566038132, "yaw": -0.6786167025566101}, "local_position": {"x": 0.37918180227279663, "y": 0.2191481590270996, "z": -1.6254500150680542}, "status": {"flags": 831, "velocity_variance": 0.05784856155514717, "pos_horiz_variance": 0.030589161440730095, "pos_vert_variance": 0.09752622991800308}}, "errors": ["EKF3 IMU0 is using GPS", "EKF3 IMU1 is using GPS", "ArduCopter V4.6.1 (57591cb8)", "ChibiOS: 88b84600", "fmuv3 00240032 33385119 36353030", "IOMCU: 420 1001 411FC231", "RCOut: PWM:1-14", "IMU0: fast sampling enabled 8.0kHz/1.0kHz", "Frame: QUAD/X"]}
{"timestamp": "2026-01-31T07:28:04.706320Z", "telemetry": {"lat": 13.3546028, "lon": 74.8648375, "satellites": 12, "altitude_gps_m": 43.540000915527344, "groundspeed_mps": 0.20275592803955078}, "flight": {"mode": "ALT_HOLD", "armed": false}, "ekf": {"attitude": {"roll": -0.01825704798102379, "pitch": -0.06702613085508347, "yaw": -0.6786229014396667}, "local_position": {"x": 0.356339693069458, "y": 0.2228393256664276, "z": -1.7322523593902588}, "status": {"flags": 831, "velocity_variance": 0.07121218740940094, "pos_horiz_variance": 0.0342111773788929, "pos_vert_variance": 0.10331369936466217}}, "errors": ["EKF3 IMU0 is using GPS", "EKF3 IMU1 is using GPS", "ArduCopter V4.6.1 (57591cb8)", "ChibiOS: 88b84600", "fmuv3 00240032 33385119 36353030", "IOMCU: 420 1001 411FC231", "RCOut: PWM:1-14", "IMU0: fast sampling enabled 8.0kHz/1.0kHz", "Frame: QUAD/X", "PreArm: Hardware safety switch", "PreArm: Compasses inconsistent"]}
{"timestamp": "2026-01-31T07:28:05.708894Z", "telemetry": {"lat": 13.3546028, "lon": 74.8648379, "satellites": 12, "altitude_gps_m": 43.709999084472656, "groundspeed_mps": 0.20473386347293854}, "flight": {"mode": "ALT_HOLD", "armed": false}, "ekf": {"attitude": {"roll": -0.018118560314178467, "pitch": -0.06695222854614258, "yaw": -0.6778878569602966}, "local_position": {"x": 0.3523337244987488, "y": 0.2522939443588257, "z": -1.903619408607483}, "status": {"flags": 831, "velocity_variance": 0.0703541710972786, "pos_horiz_variance": 0.034839242696762085, "pos_vert_variance": 0.10556217283010483}}, "errors": ["EKF3 IMU0 is using GPS", "EKF3 IMU1 is using GPS", "ArduCopter V4.6.1 (57591cb8)", "ChibiOS: 88b84600", "fmuv3 00240032 33385119 36353030", "IOMCU: 420 1001 411FC231", "RCOut: PWM:1-14", "IMU0: fast sampling enabled 8.0kHz/1.0kHz", "Frame: QUAD/X", "PreArm: Hardware safety switch", "PreArm: Compasses inconsistent"]}
{"timestamp": "2026-01-31T07:28:06.705933Z", "telemetry": {"lat": 13.3546033, "lon": 74.8648385, "satellites": 12, "altitude_gps_m": 43.709999084472656, "groundspeed_mps": 0.20473386347293854}, "flight": {"mode": "ALT_HOLD", "armed": false}, "ekf": {"attitude": {"roll": -0.018118560314178467, "pitch": -0.06695222854614258, "yaw": -0.6778878569602966}, "local_position": {"x": 0.3435269594192505, "y": 0.2992095947265625, "z": -2.1261534690856934}, "status": {"flags": 831, "velocity_variance": 0.07551603019237518, "pos_horiz_variance": 0.03580120950937271, "pos_vert_variance": 0.11905960738658905}}, "errors": ["EKF3 IMU0 is using GPS", "EKF3 IMU1 is using GPS", "ArduCopter V4.6.1 (57591cb8)", "ChibiOS: 88b84600", "fmuv3 00240032 33385119 36353030", "IOMCU: 420 1001 411FC231", "RCOut: PWM:1-14", "IMU0: fast sampling enabled 8.0kHz/1.0kHz", "Frame: QUAD/X", "PreArm: Hardware safety switch", "PreArm: Compasses inconsistent"]}
