{"timestamp": "2026-01-31T12:49:56.446000Z", "telemetry": {"lat": 13.3525237, "lon": 74.8647375, "satellites": 0, "altitude_rel_m": null, "groundspeed_mps": 0.012681839056313038}, "flight": {"mode": "STABILIZE", "armed": false}, "ekf": {"attitude": {"roll": -0.022067198529839516, "pitch": -0.01054474338889122, "yaw": -2.8954784870147705}, "local_position": {"x": null, "y": null, "z": null}, "status": {"flags": 135, "velocity_variance": 0.0, "pos_horiz_variance": 0.0024682015646249056, "pos_vert_variance": 0.02070525661110878}}, "errors": []}
{"timestamp": "2026-01-31T12:49:57.446820Z", "telemetry": {"lat": 13.3525237, "lon": 74.8647375, "satellites": 0, "altitude_rel_m": null, "groundspeed_mps": 0.013998135924339294}, "flight": {"mode": "STABILIZE", "armed": false}, "ekf": {"attitude": {"roll": -0.02201256901025772, "pitch": -0.01061783917248249, "yaw": -2.8956785202026367}, "local_position": {"x": null, "y": null, "z": null}, "status": {"flags": 135, "velocity_variance": 0.0, "pos_horiz_variance": 0.002901880769059062, "pos_vert_variance": 0.0004228440811857581}}, "errors": []}
{"timestamp": "2026-01-31T12:49:58.446750Z", "telemetry": {"lat": 13.3525237, "lon": 74.8647375, "satellites": 0, "altitude_rel_m": null, "groundspeed_mps": 0.012504901736974716}, "flight": {"mode": "STABILIZE", "armed": false}, "ekf": {"attitude": {"roll": -0.02204105444252491, "pitch": -0.010538550093770027, "yaw": -2.8957061767578125}, "local_position": {"x": null, "y": null, "z": null}, "status": {"flags": 135, "velocity_variance": 0.0, "pos_horiz_variance": 0.0030996419955044985, "pos_vert_variance": 0.06062637269496918}}, "errors": []}
{"timestamp": "2026-01-31T12:49:59.446323Z", "telemetry": {"lat": 13.3525237, "lon": 74.8647375, "satellites": 0, "altitude_rel_m": null, "groundspeed_mps": 0.011379959993064404}, "flight": {"mode": "STABILIZE", "armed": false}, "ekf": {"attitude": {"roll": -0.022000407800078392, "pitch": -0.010531799867749214, "yaw": -2.8957502841949463}, "local_position": {"x": null, "y": null, "z": null}, "status": {"flags": 135, "velocity_variance": 0.0, "pos_horiz_variance": 0.0029348675161600113, "pos_vert_variance": 0.07057595998048782}}, "errors": []}
{"timestamp": "2026-01-31T12:50:00.446846Z", "telemetry": {"lat": 13.3525237, "lon": 74.8647375, "satellites": 0, "altitude_rel_m": null, "groundspeed_mps": 0.010675773024559021}, "flight": {"mode": "STABILIZE", "armed": false}, "ekf": {"attitude": {"roll": -0.02201330102980137, "pitch": -0.010540030896663666, "yaw": -2.8955490589141846}, "local_position": {"x": null, "y": null, "z": null}, "status": {"flags": 135, "velocity_variance": 0.0, "pos_horiz_variance": 0.002769786398857832, "pos_vert_variance": 0.04644160717725754}}, "errors": []}
{"timestamp": "2026-01-31T12:50:01.446580Z", "telemetry": {"lat": 13.3525237, "lon": 74.8647375, "satellites": 0, "altitude_rel_m": null, "groundspeed_mps": 0.010409346781671047}, "flight": {"mode": "STABILIZE", "armed": false}, "ekf": {"attitude": {"roll": -0.021903203800320625, "pitch": -0.010649790987372398, "yaw": -2.8954436779022217}, "local_position": {"x": null, "y": null, "z": null}, "status": {"flags": 135, "velocity_variance": 0.0, "pos_horiz_variance": 0.0025819719303399324, "pos_vert_variance": 0.02875492535531521}}, "errors": ["PreArm: RC not found", "PreArm: Hardware safety switch", "PreArm: Compasses inconsistent"]}
{"timestamp": "2026-01-31T12:50:02.446396Z", "telemetry": {"lat": 13.3525237, "lon": 74.8647375, "satellites": 0, "altitude_rel_m": null, "groundspeed_mps": 0.012994677759706974}, "flight": {"mode": "STABILIZE", "armed": false}, "ekf": {"attitude": {"roll": -0.021856769919395447, "pitch": -0.010704921558499336, "yaw": -2.8953158855438232}, "local_position": {"x": null, "y": null, "z": null}, "status": {"flags": 135, "velocity_variance": 0.0, "pos_horiz_variance": 0.0027009083423763514, "pos_vert_variance": 0.06302641332149506}}, "errors": ["PreArm: RC not found", "PreArm: Hardware safety switch", "PreArm: Compasses inconsistent"]}
{"timestamp": "2026-01-31T12:50:03.445906Z", "telemetry": {"lat": 13.3525237, "lon": 74.8647375, "satellites": 0, "altitude_rel_m": null, "groundspeed_mps": 0.01357960794121027}, "flight": {"mode": "STABILIZE", "armed": false}, "ekf": {"attitude": {"roll": -0.021850090473890305, "pitch": -0.010576901957392693, "yaw": -2.8953657150268555}, "local_position": {"x": null, "y": null, "z": null}, "status": {"flags": 135, "velocity_variance": 0.0, "pos_horiz_variance": 0.0029960041865706444, "pos_vert_variance": 0.025774303823709488}}, "errors": ["PreArm: RC not found", "PreArm: Hardware safety switch", "PreArm: Compasses inconsistent"]}
{"timestamp": "2026-01-31T12:50:04.446913Z", "telemetry": {"lat": 13.3525237, "lon": 74.8647375, "satellites": 0, "altitude_rel_m": null, "groundspeed_mps": 0.01177266426384449}, "flight": {"mode": "STABILIZE", "armed": false}, "ekf": {"attitude": {"roll": -0.02200094610452652, "pitch": -0.010465530678629875, "yaw": -2.895320177078247}, "local_position": {"x": null, "y": null, "z": null}, "status": {"flags": 135, "velocity_variance": 0.0, "pos_horiz_variance": 0.0031346401665359735, "pos_vert_variance": 0.07088164240121841}}, "errors": ["PreArm: RC not found", "PreArm: Hardware safety switch", "PreArm: Compasses inconsistent"]}
{"timestamp": "2026-01-31T12:50:05.446428Z", "telemetry": {"lat": 13.3525237, "lon": 74.8647375, "satellites": 0, "altitude_rel_m": null, "groundspeed_mps": 0.012840764597058296}, "flight": {"mode": "STABILIZE", "armed": false}, "ekf": {"attitude": {"roll": -0.022026119753718376, "pitch": -0.010415365919470787, "yaw": -2.8951785564422607}, "local_position": {"x": null, "y": null, "z": null}, "status": {"flags": 135, "velocity_variance": 0.0, "pos_horiz_variance": 0.0030411379411816597, "pos_vert_variance": 0.032107897102832794}}, "errors": ["PreArm: RC not found", "PreArm: Hardware safety switch", "PreArm: Compasses inconsistent"]}
{"timestamp": "2026-01-31T12:50:06.446937Z", "telemetry": {"lat": 13.3525237, "lon": 74.8647375, "satellites": 0, "altitude_rel_m": null, "groundspeed_mps": 0.011080322787165642}, "flight": {"mode": "STABILIZE", "armed": false}, "ekf": {"attitude": {"roll": -0.02203887328505516, "pitch": -0.010385701432824135, "yaw": -2.8950395584106445}, "local_position": {"x": null, "y": null, "z": null}, "status": {"flags": 135, "velocity_variance": 0.0, "pos_horiz_variance": 0.0028102402575314045, "pos_vert_variance": 0.0638267770409584}}, "errors": ["PreArm: RC not found", "PreArm: Hardware safety switch", "PreArm: Compasses inconsistent"]}
{"timestamp": "2026-01-31T12:50:07.446785Z", "telemetry": {"lat": 13.3525237, "lon": 74.8647375, "satellites": 0, "altitude_rel_m": null, "groundspeed_mps": 0.008557023480534554}, "flight": {"mode": "STABILIZE", "armed": false}, "ekf": {"attitude": {"roll": -0.02194317802786827, "pitch": -0.010358912870287895, "yaw": -2.8948609828948975}, "local_position": {"x": null, "y": null, "z": null}, "status": {"flags": 135, "velocity_variance": 0.0, "pos_horiz_variance": 0.0024980083107948303, "pos_vert_variance": 0.004470574203878641}}, "errors": ["PreArm: RC not found", "PreArm: Hardware safety switch", "PreArm: Compasses inconsistent"]}
{"timestamp": "2026-01-31T12:50:08.446919Z", "telemetry": {"lat": 13.3525237, "lon": 74.8647375, "satellites": 0, "altitude_rel_m": null, "groundspeed_mps": 0.007250579074025154}, "flight": {"mode": "STABILIZE", "armed": false}, "ekf": {"attitude": {"roll": -0.021866556257009506, "pitch": -0.010269895195960999, "yaw": -2.8947291374206543}, "local_position": {"x": null, "y": null, "z": null}, "status": {"flags": 135, "velocity_variance": 0.0, "pos_horiz_variance": 0.0021640390623360872, "pos_vert_variance": 0.10782009363174438}}, "errors": ["PreArm: RC not found", "PreArm: Hardware safety switch", "PreArm: Compasses inconsistent"]}
{"timestamp": "2026-01-31T12:50:09.446407Z", "telemetry": {"lat": 13.3525237, "lon": 74.8647375, "satellites": 0, "altitude_rel_m": null, "groundspeed_mps": 0.007046387996524572}, "flight": {"mode": "STABILIZE", "armed": false}, "ekf": {"attitude": {"roll": -0.021819492802023888, "pitch": -0.010221140459179878, "yaw": -2.8947649002075195}, "local_position": {"x": null, "y": null, "z": null}, "status": {"flags": 135, "velocity_variance": 0.0, "pos_horiz_variance": 0.0018697621999308467, "pos_vert_variance": 0.005745642818510532}}, "errors": ["PreArm: RC not found", "PreArm: Hardware safety switch", "PreArm: Compasses inconsistent"]}
{"timestamp": "2026-01-31T12:50:10.446527Z", "telemetry": {"lat": 13.3525237, "lon": 74.8647375, "satellites": 0, "altitude_rel_m": null, "groundspeed_mps": 0.005602257326245308}, "flight": {"mode": "STABILIZE", "armed": false}, "ekf": {"attitude": {"roll": -0.02196899987757206, "pitch": -0.0101400725543499, "yaw": -2.8948891162872314}, "local_position": {"x": null, "y": null, "z": null}, "status": {"flags": 135, "velocity_variance": 0.0, "pos_horiz_variance": 0.0018182512139901519, "pos_vert_variance": 0.047877151519060135}}, "errors": ["PreArm: RC not found", "PreArm: Hardware safety switch", "PreArm: Compasses inconsistent"]}
{"timestamp": "2026-01-31T12:50:11.446503Z", "telemetry": {"lat": 13.3525237, "lon": 74.8647375, "satellites": 0, "altitude_rel_m": null, "groundspeed_mps": 0.004281227011233568}, "flight": {"mode": "STABILIZE", "armed": false}, "ekf": {"attitude": {"roll": -0.021984323859214783, "pitch": -0.010085878893733025, "yaw": -2.8947741985321045}, "local_position": {"x": null, "y": null, "z": null}, "status": {"flags": 135, "velocity_variance": 0.0, "pos_horiz_variance": 0.0015052843373268843, "pos_vert_variance": 0.05294422432780266}}, "errors": ["PreArm: RC not found", "PreArm: Hardware safety switch", "PreArm: Compasses inconsistent"]}
{"timestamp": "2026-01-31T12:50:12.446797Z", "telemetry": {"lat": 13.3525237, "lon": 74.8647375, "satellites": 0, "altitude_rel_m": null, "groundspeed_mps": 0.0022288255859166384}, "flight": {"mode": "STABILIZE", "armed": false}, "ekf": {"attitude": {"roll": -0.021999666467308998, "pitch": -0.009984184056520462, "yaw": -2.89473295211792}, "local_position": {"x": null, "y": null, "z": null}, "status": {"flags": 135, "velocity_variance": 0.0, "pos_horiz_variance": 0.001109100878238678, "pos_vert_variance": 0.0016953498125076294}}, "errors": ["PreArm: RC not found", "PreArm: Hardware safety switch", "PreArm: Compasses inconsistent"]}
{"timestamp": "2026-01-31T12:50:13.446657Z", "telemetry": {"lat": 13.3525237, "lon": 74.8647375, "satellites": 0, "altitude_rel_m": null, "groundspeed_mps": 0.0026456243358552456}, "flight": {"mode": "STABILIZE", "armed": false}, "ekf": {"attitude": {"roll": -0.02196640521287918, "pitch": -0.010112248361110687, "yaw": -2.8946712017059326}, "local_position": {"x": null, "y": null, "z": null}, "status": {"flags": 135, "velocity_variance": 0.0, "pos_horiz_variance": 0.0006894438993185759, "pos_vert_variance": 0.015944872051477432}}, "errors": ["PreArm: RC not found", "PreArm: Hardware safety switch", "PreArm: Compasses inconsistent"]}
{"timestamp": "2026-01-31T12:50:14.446131Z", "telemetry": {"lat": 13.3525237, "lon": 74.8647375, "satellites": 0, "altitude_rel_m": null, "groundspeed_mps": 0.005299463868141174}, "flight": {"mode": "STABILIZE", "armed": false}, "ekf": {"attitude": {"roll": -0.022049224004149437, "pitch": -0.010079549625515938, "yaw": -2.894578456878662}, "local_position": {"x": null, "y": null, "z": null}, "status": {"flags": 135, "velocity_variance": 0.0, "pos_horiz_variance": 0.0007896344759501517, "pos_vert_variance": 0.07145613431930542}}, "errors": ["PreArm: RC not found", "PreArm: Hardware safety switch", "PreArm: Compasses inconsistent"]}
{"timestamp": "2026-01-31T12:50:15.446589Z", "telemetry": {"lat": 13.3525237, "lon": 74.8647375, "satellites": 0, "altitude_rel_m": null, "groundspeed_mps": 0.004442610312253237}, "flight": {"mode": "STABILIZE", "armed": false}, "ekf": {"attitude": {"roll": -0.022135188803076744, "pitch": -0.010019050911068916, "yaw": -2.8945021629333496}, "local_position": {"x": null, "y": null, "z": null}, "status": {"flags": 135, "velocity_variance": 0.0, "pos_horiz_variance": 0.0010674628429114819, "pos_vert_variance": 0.017081277444958687}}, "errors": ["PreArm: RC not found", "PreArm: Hardware safety switch", "PreArm: Compasses inconsistent"]}
{"timestamp": "2026-01-31T12:50:16.446702Z", "telemetry": {"lat": 13.3525237, "lon": 74.8647375, "satellites": 0, "altitude_rel_m": null, "groundspeed_mps": 0.0029358044266700745}, "flight": {"mode": "STABILIZE", "armed": false}, "ekf": {"attitude": {"roll": -0.022252067923545837, "pitch": -0.009944237768650055, "yaw": -2.8944427967071533}, "local_position": {"x": null, "y": null, "z": null}, "status": {"flags": 135, "velocity_variance": 0.0, "pos_horiz_variance": 0.0009869415080174804, "pos_vert_variance": 0.0014472464099526405}}, "errors": ["PreArm: RC not found", "PreArm: Hardware safety switch", "PreArm: Compasses inconsistent"]}
{"timestamp": "2026-01-31T12:50:17.446154Z", "telemetry": {"lat": 13.3525237, "lon": 74.8647375, "satellites": 0, "altitude_rel_m": null, "groundspeed_mps": 0.0014005366247147322}, "flight": {"mode": "STABILIZE", "armed": false}, "ekf": {"attitude": {"roll": -0.022328713908791542, "pitch": -0.010007288306951523, "yaw": -2.89443039894104}, "local_position": {"x": null, "y": null, "z": null}, "status": {"flags": 135, "velocity_variance": 0.0, "pos_horiz_variance": 0.000571537297219038, "pos_vert_variance": 0.014469264075160027}}, "errors": ["PreArm: RC not found", "PreArm: Hardware safety switch", "PreArm: Compasses inconsistent"]}
{"timestamp": "2026-01-31T12:50:18.446721Z", "telemetry": {"lat": 13.3525237, "lon": 74.8647375, "satellites": 0, "altitude_rel_m": null, "groundspeed_mps": 0.0037012286484241486}, "flight": {"mode": "STABILIZE", "armed": false}, "ekf": {"attitude": {"roll": -0.022257627919316292, "pitch": -0.01002928800880909, "yaw": -2.8943521976470947}, "local_position": {"x": null, "y": null, "z": null}, "status": {"flags": 135, "velocity_variance": 0.0, "pos_horiz_variance": 0.0004375971620902419, "pos_vert_variance": 0.0668574720621109}}, "errors": ["PreArm: RC not found", "PreArm: Hardware safety switch", "PreArm: Compasses inconsistent"]}
{"timestamp": "2026-01-31T12:50:19.446710Z", "telemetry": {"lat": 13.3525237, "lon": 74.8647375, "satellites": 0, "altitude_rel_m": null, "groundspeed_mps": 0.004452121909707785}, "flight": {"mode": "STABILIZE", "armed": false}, "ekf": {"attitude": {"roll": -0.022304309532046318, "pitch": -0.010103954002261162, "yaw": -2.894390344619751}, "local_position": {"x": null, "y": null, "z": null}, "status": {"flags": 135, "velocity_variance": 0.0, "pos_horiz_variance": 0.0006614858866669238, "pos_vert_variance": 0.0034012217074632645}}, "errors": ["PreArm: RC not found", "PreArm: Hardware safety switch", "PreArm: Compasses inconsistent"]}
{"timestamp": "2026-01-31T12:50:20.446863Z", "telemetry": {"lat": 13.3525237, "lon": 74.8647375, "satellites": 0, "altitude_rel_m": null, "groundspeed_mps": 0.004988760221749544}, "flight": {"mode": "STABILIZE", "armed": false}, "ekf": {"attitude": {"roll": -0.022179123014211655, "pitch": -0.010173315182328224, "yaw": -2.894395351409912}, "local_position": {"x": null, "y": null, "z": null}, "status": {"flags": 135, "velocity_variance": 0.0, "pos_horiz_variance": 0.0009899046272039413, "pos_vert_variance": 0.01764451339840889}}, "errors": ["PreArm: RC not found", "PreArm: Hardware safety switch", "PreArm: Compasses inconsistent"]}
{"timestamp": "2026-01-31T12:50:21.446253Z", "telemetry": {"lat": 13.3525237, "lon": 74.8647375, "satellites": 0, "altitude_rel_m": null, "groundspeed_mps": 0.006213096901774406}, "flight": {"mode": "STABILIZE", "armed": false}, "ekf": {"attitude": {"roll": -0.022208334878087044, "pitch": -0.010133946314454079, "yaw": -2.8943793773651123}, "local_position": {"x": null, "y": null, "z": null}, "status": {"flags": 135, "velocity_variance": 0.0, "pos_horiz_variance": 0.0012820024276152253, "pos_vert_variance": 0.0027413214556872845}}, "errors": ["PreArm: RC not found", "PreArm: Hardware safety switch", "PreArm: Compasses inconsistent"]}
{"timestamp": "2026-01-31T12:50:22.446218Z", "telemetry": {"lat": 13.3525237, "lon": 74.8647375, "satellites": 0, "altitude_rel_m": null, "groundspeed_mps": 0.004211693070828915}, "flight": {"mode": "STABILIZE", "armed": false}, "ekf": {"attitude": {"roll": -0.022253884002566338, "pitch": -0.010160883888602257, "yaw": -2.8945460319519043}, "local_position": {"x": null, "y": null, "z": null}, "status": {"flags": 135, "velocity_variance": 0.0, "pos_horiz_variance": 0.0012581999180838466, "pos_vert_variance": 0.010439470410346985}}, "errors": ["PreArm: RC not found", "PreArm: Hardware safety switch", "PreArm: Compasses inconsistent"]}
{"timestamp": "2026-01-31T12:50:23.446633Z", "telemetry": {"lat": 13.3525237, "lon": 74.8647375, "satellites": 0, "altitude_rel_m": null, "groundspeed_mps": 0.005884988233447075}, "flight": {"mode": "STABILIZE", "armed": false}, "ekf": {"attitude": {"roll": -0.022239992395043373, "pitch": -0.010167969390749931, "yaw": -2.894670009613037}, "local_position": {"x": null, "y": null, "z": null}, "status": {"flags": 135, "velocity_variance": 0.0, "pos_horiz_variance": 0.0012290276354178786, "pos_vert_variance": 0.031150998547673225}}, "errors": ["PreArm: RC not found", "PreArm: Hardware safety switch", "PreArm: Compasses inconsistent"]}
{"timestamp": "2026-01-31T12:50:24.446607Z", "telemetry": {"lat": 13.3525237, "lon": 74.8647375, "satellites": 0, "altitude_rel_m": null, "groundspeed_mps": 0.004191726911813021}, "flight": {"mode": "STABILIZE", "armed": false}, "ekf": {"attitude": {"roll": -0.02224079519510269, "pitch": -0.010155167430639267, "yaw": -2.8947644233703613}, "local_position": {"x": null, "y": null, "z": null}, "status": {"flags": 135, "velocity_variance": 0.0, "pos_horiz_variance": 0.001203165273182094, "pos_vert_variance": 0.02446345053613186}}, "errors": ["PreArm: RC not found", "PreArm: Hardware safety switch", "PreArm: Compasses inconsistent"]}
{"timestamp": "2026-01-31T12:50:25.445986Z", "telemetry": {"lat": 13.3525237, "lon": 74.8647375, "satellites": 0, "altitude_rel_m": null, "groundspeed_mps": 0.0026797049213200808}, "flight": {"mode": "STABILIZE", "armed": false}, "ekf": {"attitude": {"roll": -0.022144511342048645, "pitch": -0.010165441781282425, "yaw": -2.894861936569214}, "local_position": {"x": null, "y": null, "z": null}, "status": {"flags": 135, "velocity_variance": 0.0, "pos_horiz_variance": 0.0009577726596035063, "pos_vert_variance": 0.016600608825683594}}, "errors": ["PreArm: RC not found", "PreArm: Hardware safety switch", "PreArm: Compasses inconsistent"]}
{"timestamp": "2026-01-31T12:50:26.446669Z", "telemetry": {"lat": 13.3525237, "lon": 74.8647375, "satellites": 0, "altitude_rel_m": null, "groundspeed_mps": 0.0014531364431604743}, "flight": {"mode": "STABILIZE", "armed": false}, "ekf": {"attitude": {"roll": -0.022079220041632652, "pitch": -0.01023435965180397, "yaw": -2.8950130939483643}, "local_position": {"x": null, "y": null, "z": null}, "status": {"flags": 135, "velocity_variance": 0.0, "pos_horiz_variance": 0.0006040906300768256, "pos_vert_variance": 0.014841403812170029}}, "errors": ["PreArm: RC not found", "PreArm: Hardware safety switch", "PreArm: Compasses inconsistent"]}
{"timestamp": "2026-01-31T12:50:27.446142Z", "telemetry": {"lat": 13.3525237, "lon": 74.8647375, "satellites": 0, "altitude_rel_m": null, "groundspeed_mps": 0.0033496180549263954}, "flight": {"mode": "STABILIZE", "armed": false}, "ekf": {"attitude": {"roll": -0.022072874009609222, "pitch": -0.010322697460651398, "yaw": -2.89505934715271}, "local_position": {"x": null, "y": null, "z": null}, "status": {"flags": 135, "velocity_variance": 0.0, "pos_horiz_variance": 0.0005004411796107888, "pos_vert_variance": 0.04708012938499451}}, "errors": ["PreArm: RC not found", "PreArm: Hardware safety switch", "PreArm: Compasses inconsistent"]}
{"timestamp": "2026-01-31T12:50:28.446033Z", "telemetry": {"lat": 13.3525237, "lon": 74.8647375, "satellites": 0, "altitude_rel_m": null, "groundspeed_mps": 0.005947310011833906}, "flight": {"mode": "STABILIZE", "armed": false}, "ekf": {"attitude": {"roll": -0.02193620428442955, "pitch": -0.010395828634500504, "yaw": -2.8951399326324463}, "local_position": {"x": null, "y": null, "z": null}, "status": {"flags": 135, "velocity_variance": 0.0, "pos_horiz_variance": 0.0008628019131720066, "pos_vert_variance": 0.002247671829536557}}, "errors": ["PreArm: RC not found", "PreArm: Hardware safety switch", "PreArm: Compasses inconsistent"]}
{"timestamp": "2026-01-31T12:50:29.446405Z", "telemetry": {"lat": 13.3525237, "lon": 74.8647375, "satellites": 0, "altitude_rel_m": null, "groundspeed_mps": 0.011301188729703426}, "flight": {"mode": "STABILIZE", "armed": false}, "ekf": {"attitude": {"roll": -0.021861225366592407, "pitch": -0.01030365377664566, "yaw": -2.8951752185821533}, "local_position": {"x": null, "y": null, "z": null}, "status": {"flags": 135, "velocity_variance": 0.0, "pos_horiz_variance": 0.0016403362387791276, "pos_vert_variance": 0.03483201935887337}}, "errors": ["PreArm: RC not found", "PreArm: Hardware safety switch", "PreArm: Compasses inconsistent"]}
{"timestamp": "2026-01-31T12:50:30.446458Z", "telemetry": {"lat": 13.3525237, "lon": 74.8647375, "satellites": 0, "altitude_rel_m": null, "groundspeed_mps": 0.009723770432174206}, "flight": {"mode": "STABILIZE", "armed": false}, "ekf": {"attitude": {"roll": -0.022081008180975914, "pitch": -0.01035413146018982, "yaw": -2.895098924636841}, "local_position": {"x": null, "y": null, "z": null}, "status": {"flags": 135, "velocity_variance": 0.0, "pos_horiz_variance": 0.0022415081039071083, "pos_vert_variance": 0.05296553671360016}}, "errors": ["PreArm: RC not found", "PreArm: Hardware safety switch", "PreArm: Compasses inconsistent", "PreArm: RC not found", "PreArm: Hardware safety switch", "PreArm: Compasses inconsistent"]}
{"timestamp": "2026-01-31T12:50:31.446122Z", "telemetry": {"lat": 13.3525237, "lon": 74.8647375, "satellites": 0, "altitude_rel_m": null, "groundspeed_mps": 0.009705446660518646}, "flight": {"mode": "STABILIZE", "armed": false}, "ekf": {"attitude": {"roll": -0.022068213671445847, "pitch": -0.010261459276080132, "yaw": -2.8952324390411377}, "local_position": {"x": null, "y": null, "z": null}, "status": {"flags": 135, "velocity_variance": 0.0, "pos_horiz_variance": 0.0021898893173784018, "pos_vert_variance": 0.03301745280623436}}, "errors": ["PreArm: RC not found", "PreArm: Hardware safety switch", "PreArm: Compasses inconsistent", "PreArm: RC not found", "PreArm: Hardware safety switch", "PreArm: Compasses inconsistent"]}
{"timestamp": "2026-01-31T12:50:32.446062Z", "telemetry": {"lat": 13.3525237, "lon": 74.8647375, "satellites": 0, "altitude_rel_m": null, "groundspeed_mps": 0.007752211764454842}, "flight": {"mode": "STABILIZE", "armed": false}, "ekf": {"attitude": {"roll": -0.022112462669610977, "pitch": -0.010241463780403137, "yaw": -2.895282506942749}, "local_position": {"x": null, "y": null, "z": null}, "status": {"flags": 135, "velocity_variance": 0.0, "pos_horiz_variance": 0.002124763559550047, "pos_vert_variance": 0.011223305016756058}}, "errors": ["PreArm: RC not found", "PreArm: Hardware safety switch", "PreArm: Compasses inconsistent", "PreArm: RC not found", "PreArm: Hardware safety switch", "PreArm: Compasses inconsistent"]}
{"timestamp": "2026-01-31T12:50:33.446088Z", "telemetry": {"lat": 13.3525237, "lon": 74.8647375, "satellites": 0, "altitude_rel_m": null, "groundspeed_mps": 0.007095649838447571}, "flight": {"mode": "STABILIZE", "armed": false}, "ekf": {"attitude": {"roll": -0.02228992059826851, "pitch": -0.010310392826795578, "yaw": -2.8953661918640137}, "local_position": {"x": null, "y": null, "z": null}, "status": {"flags": 135, "velocity_variance": 0.0, "pos_horiz_variance": 0.0018514266703277826, "pos_vert_variance": 0.005984586197882891}}, "errors": ["PreArm: RC not found", "PreArm: Hardware safety switch", "PreArm: Compasses inconsistent", "PreArm: RC not found", "PreArm: Hardware safety switch", "PreArm: Compasses inconsistent"]}
{"timestamp": "2026-01-31T12:50:34.446110Z", "telemetry": {"lat": 13.3525237, "lon": 74.8647375, "satellites": 0, "altitude_rel_m": null, "groundspeed_mps": 0.007684970740228891}, "flight": {"mode": "STABILIZE", "armed": false}, "ekf": {"attitude": {"roll": -0.02231421135365963, "pitch": -0.010202724486589432, "yaw": -2.8954200744628906}, "local_position": {"x": null, "y": null, "z": null}, "status": {"flags": 135, "velocity_variance": 0.0, "pos_horiz_variance": 0.001787438872270286, "pos_vert_variance": 0.048966627568006516}}, "errors": ["PreArm: RC not found", "PreArm: Hardware safety switch", "PreArm: Compasses inconsistent", "PreArm: RC not found", "PreArm: Hardware safety switch", "PreArm: Compasses inconsistent"]}
{"timestamp": "2026-01-31T12:50:35.446425Z", "telemetry": {"lat": 13.3525237, "lon": 74.8647375, "satellites": 0, "altitude_rel_m": null, "groundspeed_mps": 0.008877331390976906}, "flight": {"mode": "STABILIZE", "armed": false}, "ekf": {"attitude": {"roll": -0.02224224992096424, "pitch": -0.010211408138275146, "yaw": -2.8954532146453857}, "local_position": {"x": null, "y": null, "z": null}, "status": {"flags": 135, "velocity_variance": 0.0, "pos_horiz_variance": 0.001824449747800827, "pos_vert_variance": 0.0008954612421803176}}, "errors": ["PreArm: RC not found", "PreArm: Hardware safety switch", "PreArm: Compasses inconsistent", "PreArm: RC not found", "PreArm: Hardware safety switch", "PreArm: Compasses inconsistent"]}
{"timestamp": "2026-01-31T12:50:36.446190Z", "telemetry": {"lat": 13.3525237, "lon": 74.8647375, "satellites": 0, "altitude_rel_m": null, "groundspeed_mps": 0.009306663647294044}, "flight": {"mode": "STABILIZE", "armed": false}, "ekf": {"attitude": {"roll": -0.022190941497683525, "pitch": -0.01014658436179161, "yaw": -2.8955490589141846}, "local_position": {"x": null, "y": null, "z": null}, "status": {"flags": 135, "velocity_variance": 0.0, "pos_horiz_variance": 0.0020828742999583483, "pos_vert_variance": 0.006256838329136372}}, "errors": ["PreArm: RC not found", "PreArm: Hardware safety switch", "PreArm: Compasses inconsistent", "PreArm: RC not found", "PreArm: Hardware safety switch", "PreArm: Compasses inconsistent"]}
{"timestamp": "2026-01-31T12:50:37.446786Z", "telemetry": {"lat": 13.3525237, "lon": 74.8647375, "satellites": 0, "altitude_rel_m": null, "groundspeed_mps": 0.00689199473708868}, "flight": {"mode": "STABILIZE", "armed": false}, "ekf": {"attitude": {"roll": -0.0220952145755291, "pitch": -0.01004824973642826, "yaw": -2.895480155944824}, "local_position": {"x": null, "y": null, "z": null}, "status": {"flags": 135, "velocity_variance": 0.0, "pos_horiz_variance": 0.002034853445366025, "pos_vert_variance": 0.010945579037070274}}, "errors": ["PreArm: RC not found", "PreArm: Hardware safety switch", "PreArm: Compasses inconsistent", "PreArm: RC not found", "PreArm: Hardware safety switch", "PreArm: Compasses inconsistent"]}
{"timestamp": "2026-01-31T12:50:38.446082Z", "telemetry": {"lat": 13.3525237, "lon": 74.8647375, "satellites": 0, "altitude_rel_m": null, "groundspeed_mps": 0.004537535365670919}, "flight": {"mode": "STABILIZE", "armed": false}, "ekf": {"attitude": {"roll": -0.022053055465221405, "pitch": -0.010085590183734894, "yaw": -2.895298957824707}, "local_position": {"x": null, "y": null, "z": null}, "status": {"flags": 135, "velocity_variance": 0.0, "pos_horiz_variance": 0.0016433278797194362, "pos_vert_variance": 0.08223332464694977}}, "errors": ["PreArm: RC not found", "PreArm: Hardware safety switch", "PreArm: Compasses inconsistent", "PreArm: RC not found", "PreArm: Hardware safety switch", "PreArm: Compasses inconsistent"]}
{"timestamp": "2026-01-31T12:50:39.446142Z", "telemetry": {"lat": 13.3525237, "lon": 74.8647375, "satellites": 0, "altitude_rel_m": null, "groundspeed_mps": 0.0016565041150897741}, "flight": {"mode": "STABILIZE", "armed": false}, "ekf": {"attitude": {"roll": -0.021958429366350174, "pitch": -0.010125542059540749, "yaw": -2.895498275756836}, "local_position": {"x": null, "y": null, "z": null}, "status": {"flags": 135, "velocity_variance": 0.0, "pos_horiz_variance": 0.0008828779100440443, "pos_vert_variance": 0.010435674339532852}}, "errors": ["PreArm: RC not found", "PreArm: Hardware safety switch", "PreArm: Compasses inconsistent", "PreArm: RC not found", "PreArm: Hardware safety switch", "PreArm: Compasses inconsistent"]}
{"timestamp": "2026-01-31T12:50:40.445969Z", "telemetry": {"lat": 13.3525237, "lon": 74.8647375, "satellites": 0, "altitude_rel_m": null, "groundspeed_mps": 0.0037795037496834993}, "flight": {"mode": "STABILIZE", "armed": false}, "ekf": {"attitude": {"roll": -0.02196669764816761, "pitch": -0.010111328214406967, "yaw": -2.8954782485961914}, "local_position": {"x": null, "y": null, "z": null}, "status": {"flags": 135, "velocity_variance": 0.0, "pos_horiz_variance": 0.0006618619081564248, "pos_vert_variance": 0.06185122951865196}}, "errors": ["PreArm: RC not found", "PreArm: Hardware safety switch", "PreArm: Compasses inconsistent", "PreArm: RC not found", "PreArm: Hardware safety switch", "PreArm: Compasses inconsistent"]}
{"timestamp": "2026-01-31T12:50:41.446699Z", "telemetry": {"lat": 13.3525237, "lon": 74.8647375, "satellites": 0, "altitude_rel_m": null, "groundspeed_mps": 0.0036233842838555574}, "flight": {"mode": "STABILIZE", "armed": false}, "ekf": {"attitude": {"roll": -0.021930040791630745, "pitch": -0.010107655078172684, "yaw": -2.8954055309295654}, "local_position": {"x": null, "y": null, "z": null}, "status": {"flags": 135, "velocity_variance": 0.0, "pos_horiz_variance": 0.0008717435994185507, "pos_vert_variance": 0.0664391964673996}}, "errors": ["PreArm: RC not found", "PreArm: Hardware safety switch", "PreArm: Compasses inconsistent", "PreArm: RC not found", "PreArm: Hardware safety switch", "PreArm: Compasses inconsistent"]}
{"timestamp": "2026-01-31T12:50:42.446778Z", "telemetry": {"lat": 13.3525237, "lon": 74.8647375, "satellites": 0, "altitude_rel_m": null, "groundspeed_mps": 0.0054528117179870605}, "flight": {"mode": "STABILIZE", "armed": false}, "ekf": {"attitude": {"roll": -0.021849211305379868, "pitch": -0.010240988805890083, "yaw": -2.895535469055176}, "local_position": {"x": null, "y": null, "z": null}, "status": {"flags": 135, "velocity_variance": 0.0, "pos_horiz_variance": 0.0009129116660915315, "pos_vert_variance": 0.018987100571393967}}, "errors": ["PreArm: RC not found", "PreArm: Hardware safety switch", "PreArm: Compasses inconsistent", "PreArm: RC not found", "PreArm: Hardware safety switch", "PreArm: Compasses inconsistent"]}
{"timestamp": "2026-01-31T12:50:43.446462Z", "telemetry": {"lat": 13.3525237, "lon": 74.8647375, "satellites": 0, "altitude_rel_m": null, "groundspeed_mps": 0.0085712606087327}, "flight": {"mode": "STABILIZE", "armed": false}, "ekf": {"attitude": {"roll": -0.02194814383983612, "pitch": -0.01025899313390255, "yaw": -2.895824670791626}, "local_position": {"x": null, "y": null, "z": null}, "status": {"flags": 135, "velocity_variance": 0.0, "pos_horiz_variance": 0.0013319530989974737, "pos_vert_variance": 0.04108158499002457}}, "errors": ["PreArm: RC not found", "PreArm: Hardware safety switch", "PreArm: Compasses inconsistent", "PreArm: RC not found", "PreArm: Hardware safety switch", "PreArm: Compasses inconsistent"]}
{"timestamp": "2026-01-31T12:50:44.446296Z", "telemetry": {"lat": 13.3525237, "lon": 74.8647375, "satellites": 0, "altitude_rel_m": null, "groundspeed_mps": 0.007378754671663046}, "flight": {"mode": "STABILIZE", "armed": false}, "ekf": {"attitude": {"roll": -0.021937130019068718, "pitch": -0.010317271575331688, "yaw": -2.895933151245117}, "local_position": {"x": null, "y": null, "z": null}, "status": {"flags": 135, "velocity_variance": 0.0, "pos_horiz_variance": 0.0017799093620851636, "pos_vert_variance": 0.024814313277602196}}, "errors": ["PreArm: RC not found", "PreArm: Hardware safety switch", "PreArm: Compasses inconsistent", "PreArm: RC not found", "PreArm: Hardware safety switch", "PreArm: Compasses inconsistent"]}
{"timestamp": "2026-01-31T12:50:45.446799Z", "telemetry": {"lat": 13.3525237, "lon": 74.8647375, "satellites": 0, "altitude_rel_m": null, "groundspeed_mps": 0.009394004009664059}, "flight": {"mode": "STABILIZE", "armed": false}, "ekf": {"attitude": {"roll": -0.021876603364944458, "pitch": -0.010356483981013298, "yaw": -2.8960068225860596}, "local_position": {"x": null, "y": null, "z": null}, "status": {"flags": 135, "velocity_variance": 0.0, "pos_horiz_variance": 0.0018464630702510476, "pos_vert_variance": 0.08095446974039078}}, "errors": ["PreArm: RC not found", "PreArm: Hardware safety switch", "PreArm: Compasses inconsistent", "PreArm: RC not found", "PreArm: Hardware safety switch", "PreArm: Compasses inconsistent"]}
{"timestamp": "2026-01-31T12:50:46.446996Z", "telemetry": {"lat": 13.3525237, "lon": 74.8647375, "satellites": 0, "altitude_rel_m": null, "groundspeed_mps": 0.010167659260332584}, "flight": {"mode": "STABILIZE", "armed": false}, "ekf": {"attitude": {"roll": -0.021832846105098724, "pitch": -0.01039939746260643, "yaw": -2.896146059036255}, "local_position": {"x": null, "y": null, "z": null}, "status": {"flags": 135, "velocity_variance": 0.0, "pos_horiz_variance": 0.002108893357217312, "pos_vert_variance": 0.014864231459796429}}, "errors": ["PreArm: RC not found", "PreArm: Hardware safety switch", "PreArm: Compasses inconsistent", "PreArm: RC not found", "PreArm: Hardware safety switch", "PreArm: Compasses inconsistent"]}
{"timestamp": "2026-01-31T12:50:47.446576Z", "telemetry": {"lat": 13.3525237, "lon": 74.8647375, "satellites": 0, "altitude_rel_m": null, "groundspeed_mps": 0.012173914350569248}, "flight": {"mode": "STABILIZE", "armed": false}, "ekf": {"attitude": {"roll": -0.021908266469836235, "pitch": -0.010388115420937538, "yaw": -2.8962364196777344}, "local_position": {"x": null, "y": null, "z": null}, "status": {"flags": 135, "velocity_variance": 0.0, "pos_horiz_variance": 0.0023950848262757063, "pos_vert_variance": 0.06008275970816612}}, "errors": ["PreArm: RC not found", "PreArm: Hardware safety switch", "PreArm: Compasses inconsistent", "PreArm: RC not found", "PreArm: Hardware safety switch", "PreArm: Compasses inconsistent"]}
{"timestamp": "2026-01-31T12:50:48.446503Z", "telemetry": {"lat": 13.3525237, "lon": 74.8647375, "satellites": 0, "altitude_rel_m": null, "groundspeed_mps": 0.011205686256289482}, "flight": {"mode": "STABILIZE", "armed": false}, "ekf": {"attitude": {"roll": -0.021935781463980675, "pitch": -0.010392697528004646, "yaw": -2.896219491958618}, "local_position": {"x": null, "y": null, "z": null}, "status": {"flags": 135, "velocity_variance": 0.0, "pos_horiz_variance": 0.002740326803177595, "pos_vert_variance": 0.014238093048334122}}, "errors": ["PreArm: RC not found", "PreArm: Hardware safety switch", "PreArm: Compasses inconsistent", "PreArm: RC not found", "PreArm: Hardware safety switch", "PreArm: Compasses inconsistent"]}
{"timestamp": "2026-01-31T12:50:49.445940Z", "telemetry": {"lat": 13.3525237, "lon": 74.8647375, "satellites": 0, "altitude_rel_m": null, "groundspeed_mps": 0.008446555584669113}, "flight": {"mode": "STABILIZE", "armed": false}, "ekf": {"attitude": {"roll": -0.021915245801210403, "pitch": -0.010462643578648567, "yaw": -2.8962152004241943}, "local_position": {"x": null, "y": null, "z": null}, "status": {"flags": 135, "velocity_variance": 0.0, "pos_horiz_variance": 0.0024092281237244606, "pos_vert_variance": 0.04142113775014877}}, "errors": ["PreArm: RC not found", "PreArm: Hardware safety switch", "PreArm: Compasses inconsistent", "PreArm: RC not found", "PreArm: Hardware safety switch", "PreArm: Compasses inconsistent"]}
{"timestamp": "2026-01-31T12:50:50.446762Z", "telemetry": {"lat": 13.3525237, "lon": 74.8647375, "satellites": 0, "altitude_rel_m": null, "groundspeed_mps": 0.009142687544226646}, "flight": {"mode": "STABILIZE", "armed": false}, "ekf": {"attitude": {"roll": -0.022042369470000267, "pitch": -0.010403603315353394, "yaw": -2.896369218826294}, "local_position": {"x": null, "y": null, "z": null}, "status": {"flags": 135, "velocity_variance": 0.0, "pos_horiz_variance": 0.002232413273304701, "pos_vert_variance": 0.006769993342459202}}, "errors": ["PreArm: RC not found", "PreArm: Hardware safety switch", "PreArm: Compasses inconsistent", "PreArm: RC not found", "PreArm: Hardware safety switch", "PreArm: Compasses inconsistent"]}
{"timestamp": "2026-01-31T12:50:51.447003Z", "telemetry": {"lat": 13.3525237, "lon": 74.8647375, "satellites": 0, "altitude_rel_m": null, "groundspeed_mps": 0.011307007633149624}, "flight": {"mode": "STABILIZE", "armed": false}, "ekf": {"attitude": {"roll": -0.02216915972530842, "pitch": -0.010507255792617798, "yaw": -2.8964531421661377}, "local_position": {"x": null, "y": null, "z": null}, "status": {"flags": 135, "velocity_variance": 0.0, "pos_horiz_variance": 0.002334254328161478, "pos_vert_variance": 0.03360293060541153}}, "errors": ["PreArm: RC not found", "PreArm: Hardware safety switch", "PreArm: Compasses inconsistent", "PreArm: RC not found", "PreArm: Hardware safety switch", "PreArm: Compasses inconsistent"]}
{"timestamp": "2026-01-31T12:50:52.446183Z", "telemetry": {"lat": 13.3525237, "lon": 74.8647375, "satellites": 0, "altitude_rel_m": null, "groundspeed_mps": 0.013744205236434937}, "flight": {"mode": "STABILIZE", "armed": false}, "ekf": {"attitude": {"roll": -0.02220471017062664, "pitch": -0.010451193898916245, "yaw": -2.8964529037475586}, "local_position": {"x": null, "y": null, "z": null}, "status": {"flags": 135, "velocity_variance": 0.0, "pos_horiz_variance": 0.002616755897179246, "pos_vert_variance": 0.023771023377776146}}, "errors": ["PreArm: RC not found", "PreArm: Hardware safety switch", "PreArm: Compasses inconsistent", "PreArm: RC not found", "PreArm: Hardware safety switch", "PreArm: Compasses inconsistent"]}
{"timestamp": "2026-01-31T12:50:53.446209Z", "telemetry": {"lat": 13.3525237, "lon": 74.8647375, "satellites": 0, "altitude_rel_m": null, "groundspeed_mps": 0.009528223425149918}, "flight": {"mode": "STABILIZE", "armed": false}, "ekf": {"attitude": {"roll": -0.022280529141426086, "pitch": -0.010236812755465508, "yaw": -2.896486282348633}, "local_position": {"x": null, "y": null, "z": null}, "status": {"flags": 135, "velocity_variance": 0.0, "pos_horiz_variance": 0.0026914170011878014, "pos_vert_variance": 0.08811734616756439}}, "errors": ["PreArm: RC not found", "PreArm: Hardware safety switch", "PreArm: Compasses inconsistent", "PreArm: RC not found", "PreArm: Hardware safety switch", "PreArm: Compasses inconsistent"]}
{"timestamp": "2026-01-31T12:50:54.445949Z", "telemetry": {"lat": 13.3525237, "lon": 74.8647375, "satellites": 0, "altitude_rel_m": null, "groundspeed_mps": 0.007871238514780998}, "flight": {"mode": "STABILIZE", "armed": false}, "ekf": {"attitude": {"roll": -0.02212817780673504, "pitch": -0.010285714641213417, "yaw": -2.896361827850342}, "local_position": {"x": null, "y": null, "z": null}, "status": {"flags": 135, "velocity_variance": 0.0, "pos_horiz_variance": 0.002073569456115365, "pos_vert_variance": 0.07428967952728271}}, "errors": ["PreArm: RC not found", "PreArm: Hardware safety switch", "PreArm: Compasses inconsistent", "PreArm: RC not found", "PreArm: Hardware safety switch", "PreArm: Compasses inconsistent"]}
{"timestamp": "2026-01-31T12:50:55.446817Z", "telemetry": {"lat": 13.3525237, "lon": 74.8647375, "satellites": 0, "altitude_rel_m": null, "groundspeed_mps": 0.0072205811738967896}, "flight": {"mode": "STABILIZE", "armed": false}, "ekf": {"attitude": {"roll": -0.021943414583802223, "pitch": -0.010243844240903854, "yaw": -2.8963072299957275}, "local_position": {"x": null, "y": null, "z": null}, "status": {"flags": 135, "velocity_variance": 0.0, "pos_horiz_variance": 0.001959339017048478, "pos_vert_variance": 0.005673137027770281}}, "errors": ["PreArm: RC not found", "PreArm: Hardware safety switch", "PreArm: Compasses inconsistent", "PreArm: RC not found", "PreArm: Hardware safety switch", "PreArm: Compasses inconsistent"]}
{"timestamp": "2026-01-31T12:50:56.446686Z", "telemetry": {"lat": 13.3525237, "lon": 74.8647375, "satellites": 0, "altitude_rel_m": null, "groundspeed_mps": 0.0084219416603446}, "flight": {"mode": "STABILIZE", "armed": false}, "ekf": {"attitude": {"roll": -0.021952927112579346, "pitch": -0.010154260322451591, "yaw": -2.8963444232940674}, "local_position": {"x": null, "y": null, "z": null}, "status": {"flags": 135, "velocity_variance": 0.0, "pos_horiz_variance": 0.0019574782345443964, "pos_vert_variance": 0.0012903207680210471}}, "errors": ["PreArm: RC not found", "PreArm: Hardware safety switch", "PreArm: Compasses inconsistent", "PreArm: RC not found", "PreArm: Hardware safety switch", "PreArm: Compasses inconsistent"]}
{"timestamp": "2026-01-31T12:50:57.446514Z", "telemetry": {"lat": 13.3525237, "lon": 74.8647375, "satellites": 0, "altitude_rel_m": null, "groundspeed_mps": 0.007790998090058565}, "flight": {"mode": "STABILIZE", "armed": false}, "ekf": {"attitude": {"roll": -0.022014731541275978, "pitch": -0.010100556537508965, "yaw": -2.8963775634765625}, "local_position": {"x": null, "y": null, "z": null}, "status": {"flags": 135, "velocity_variance": 0.0, "pos_horiz_variance": 0.0021570762619376183, "pos_vert_variance": 0.002047383924946189}}, "errors": ["PreArm: RC not found", "PreArm: Hardware safety switch", "PreArm: Compasses inconsistent", "PreArm: RC not found", "PreArm: Hardware safety switch", "PreArm: Compasses inconsistent"]}
{"timestamp": "2026-01-31T12:50:58.446599Z", "telemetry": {"lat": 13.3525237, "lon": 74.8647375, "satellites": 0, "altitude_rel_m": null, "groundspeed_mps": 0.004823296330869198}, "flight": {"mode": "STABILIZE", "armed": false}, "ekf": {"attitude": {"roll": -0.021930577233433723, "pitch": -0.009988432750105858, "yaw": -2.8964388370513916}, "local_position": {"x": null, "y": null, "z": null}, "status": {"flags": 135, "velocity_variance": 0.0, "pos_horiz_variance": 0.0019589292351156473, "pos_vert_variance": 0.010829637758433819}}, "errors": ["PreArm: RC not found", "PreArm: Hardware safety switch", "PreArm: Compasses inconsistent", "PreArm: RC not found", "PreArm: Hardware safety switch", "PreArm: Compasses inconsistent"]}
{"timestamp": "2026-01-31T12:50:59.446828Z", "telemetry": {"lat": 13.3525237, "lon": 74.8647375, "satellites": 0, "altitude_rel_m": null, "groundspeed_mps": 0.004618679638952017}, "flight": {"mode": "STABILIZE", "armed": false}, "ekf": {"attitude": {"roll": -0.021906789392232895, "pitch": -0.01001688651740551, "yaw": -2.8965249061584473}, "local_position": {"x": null, "y": null, "z": null}, "status": {"flags": 135, "velocity_variance": 0.0, "pos_horiz_variance": 0.0014323414070531726, "pos_vert_variance": 0.04133046045899391}}, "errors": ["PreArm: RC not found", "PreArm: Hardware safety switch", "PreArm: Compasses inconsistent", "PreArm: RC not found", "PreArm: Hardware safety switch", "PreArm: Compasses inconsistent"]}
{"timestamp": "2026-01-31T12:51:00.446042Z", "telemetry": {"lat": 13.3525237, "lon": 74.8647375, "satellites": 0, "altitude_rel_m": null, "groundspeed_mps": 0.005560752470046282}, "flight": {"mode": "STABILIZE", "armed": false}, "ekf": {"attitude": {"roll": -0.021949294954538345, "pitch": -0.010031405836343765, "yaw": -2.8966472148895264}, "local_position": {"x": null, "y": null, "z": null}, "status": {"flags": 135, "velocity_variance": 0.0, "pos_horiz_variance": 0.0013780222507193685, "pos_vert_variance": 0.042384784668684006}}, "errors": ["PreArm: RC not found", "PreArm: Hardware safety switch", "PreArm: Compasses inconsistent", "PreArm: RC not found", "PreArm: Hardware safety switch", "PreArm: Compasses inconsistent", "PreArm: RC not found", "PreArm: Hardware safety switch", "PreArm: Compasses inconsistent"]}
{"timestamp": "2026-01-31T12:51:01.446627Z", "telemetry": {"lat": 13.3525237, "lon": 74.8647375, "satellites": 0, "altitude_rel_m": null, "groundspeed_mps": 0.005503869149833918}, "flight": {"mode": "STABILIZE", "armed": false}, "ekf": {"attitude": {"roll": -0.02199302799999714, "pitch": -0.010099006816744804, "yaw": -2.896613121032715}, "local_position": {"x": null, "y": null, "z": null}, "status": {"flags": 135, "velocity_variance": 0.0, "pos_horiz_variance": 0.0013691079802811146, "pos_vert_variance": 0.009753050282597542}}, "errors": ["PreArm: RC not found", "PreArm: Hardware safety switch", "PreArm: Compasses inconsistent", "PreArm: RC not found", "PreArm: Hardware safety switch", "PreArm: Compasses inconsistent", "PreArm: RC not found", "PreArm: Hardware safety switch", "PreArm: Compasses inconsistent"]}
{"timestamp": "2026-01-31T12:51:02.446497Z", "telemetry": {"lat": 13.3525237, "lon": 74.8647375, "satellites": 0, "altitude_rel_m": null, "groundspeed_mps": 0.0038648564368486404}, "flight": {"mode": "STABILIZE", "armed": false}, "ekf": {"attitude": {"roll": -0.022050008177757263, "pitch": -0.010078776627779007, "yaw": -2.896719455718994}, "local_position": {"x": null, "y": null, "z": null}, "status": {"flags": 135, "velocity_variance": 0.0, "pos_horiz_variance": 0.0013827027287334204, "pos_vert_variance": 0.0034490057732909918}}, "errors": ["PreArm: RC not found", "PreArm: Hardware safety switch", "PreArm: Compasses inconsistent", "PreArm: RC not found", "PreArm: Hardware safety switch", "PreArm: Compasses inconsistent", "PreArm: RC not found", "PreArm: Hardware safety switch", "PreArm: Compasses inconsistent"]}
{"timestamp": "2026-01-31T12:51:03.446210Z", "telemetry": {"lat": 13.3525237, "lon": 74.8647375, "satellites": 0, "altitude_rel_m": null, "groundspeed_mps": 0.004053736105561256}, "flight": {"mode": "STABILIZE", "armed": false}, "ekf": {"attitude": {"roll": -0.022105349227786064, "pitch": -0.010152364149689674, "yaw": -2.8966588973999023}, "local_position": {"x": null, "y": null, "z": null}, "status": {"flags": 135, "velocity_variance": 0.0, "pos_horiz_variance": 0.0009757998050190508, "pos_vert_variance": 0.10715895146131516}}, "errors": ["PreArm: RC not found", "PreArm: Hardware safety switch", "PreArm: Compasses inconsistent", "PreArm: RC not found", "PreArm: Hardware safety switch", "PreArm: Compasses inconsistent", "PreArm: RC not found", "PreArm: Hardware safety switch", "PreArm: Compasses inconsistent"]}
{"timestamp": "2026-01-31T12:51:04.446197Z", "telemetry": {"lat": 13.3525237, "lon": 74.8647375, "satellites": 0, "altitude_rel_m": null, "groundspeed_mps": 0.002297320868819952}, "flight": {"mode": "STABILIZE", "armed": false}, "ekf": {"attitude": {"roll": -0.022136827930808067, "pitch": -0.010012250393629074, "yaw": -2.8965795040130615}, "local_position": {"x": null, "y": null, "z": null}, "status": {"flags": 135, "velocity_variance": 0.0, "pos_horiz_variance": 0.0008467240259051323, "pos_vert_variance": 0.019741594791412354}}, "errors": ["PreArm: RC not found", "PreArm: Hardware safety switch", "PreArm: Compasses inconsistent", "PreArm: RC not found", "PreArm: Hardware safety switch", "PreArm: Compasses inconsistent", "PreArm: RC not found", "PreArm: Hardware safety switch", "PreArm: Compasses inconsistent"]}
{"timestamp": "2026-01-31T12:51:05.446933Z", "telemetry": {"lat": 13.3525237, "lon": 74.8647375, "satellites": 0, "altitude_rel_m": null, "groundspeed_mps": 0.001059999573044479}, "flight": {"mode": "STABILIZE", "armed": false}, "ekf": {"attitude": {"roll": -0.022115709260106087, "pitch": -0.009986070916056633, "yaw": -2.8966357707977295}, "local_position": {"x": null, "y": null, "z": null}, "status": {"flags": 135, "velocity_variance": 0.0, "pos_horiz_variance": 0.0005931100458838046, "pos_vert_variance": 0.04639381915330887}}, "errors": ["PreArm: RC not found", "PreArm: Hardware safety switch", "PreArm: Compasses inconsistent", "PreArm: RC not found", "PreArm: Hardware safety switch", "PreArm: Compasses inconsistent", "PreArm: RC not found", "PreArm: Hardware safety switch", "PreArm: Compasses inconsistent"]}
{"timestamp": "2026-01-31T12:51:06.446362Z", "telemetry": {"lat": 13.3525237, "lon": 74.8647375, "satellites": 0, "altitude_rel_m": null, "groundspeed_mps": 0.0012135137803852558}, "flight": {"mode": "STABILIZE", "armed": false}, "ekf": {"attitude": {"roll": -0.022222207859158516, "pitch": -0.009879905730485916, "yaw": -2.8966469764709473}, "local_position": {"x": null, "y": null, "z": null}, "status": {"flags": 135, "velocity_variance": 0.0, "pos_horiz_variance": 0.0003934459818992764, "pos_vert_variance": 0.07403701543807983}}, "errors": ["PreArm: RC not found", "PreArm: Hardware safety switch", "PreArm: Compasses inconsistent", "PreArm: RC not found", "PreArm: Hardware safety switch", "PreArm: Compasses inconsistent", "PreArm: RC not found", "PreArm: Hardware safety switch", "PreArm: Compasses inconsistent"]}
{"timestamp": "2026-01-31T12:51:07.446368Z", "telemetry": {"lat": 13.3525237, "lon": 74.8647375, "satellites": 0, "altitude_rel_m": null, "groundspeed_mps": 0.00039021208067424595}, "flight": {"mode": "STABILIZE", "armed": false}, "ekf": {"attitude": {"roll": -0.02230425924062729, "pitch": -0.009870227426290512, "yaw": -2.896723508834839}, "local_position": {"x": null, "y": null, "z": null}, "status": {"flags": 135, "velocity_variance": 0.0, "pos_horiz_variance": 0.00025980372447520494, "pos_vert_variance": 0.030911516398191452}}, "errors": ["PreArm: RC not found", "PreArm: Hardware safety switch", "PreArm: Compasses inconsistent", "PreArm: RC not found", "PreArm: Hardware safety switch", "PreArm: Compasses inconsistent", "PreArm: RC not found", "PreArm: Hardware safety switch", "PreArm: Compasses inconsistent"]}
{"timestamp": "2026-01-31T12:51:08.446333Z", "telemetry": {"lat": 13.3525237, "lon": 74.8647375, "satellites": 0, "altitude_rel_m": null, "groundspeed_mps": 0.0037137113977223635}, "flight": {"mode": "STABILIZE", "armed": false}, "ekf": {"attitude": {"roll": -0.022328026592731476, "pitch": -0.009846856817603111, "yaw": -2.8968729972839355}, "local_position": {"x": null, "y": null, "z": null}, "status": {"flags": 135, "velocity_variance": 0.0, "pos_horiz_variance": 0.000230217250646092, "pos_vert_variance": 0.05255226790904999}}, "errors": ["PreArm: RC not found", "PreArm: Hardware safety switch", "PreArm: Compasses inconsistent", "PreArm: RC not found", "PreArm: Hardware safety switch", "PreArm: Compasses inconsistent", "PreArm: RC not found", "PreArm: Hardware safety switch", "PreArm: Compasses inconsistent"]}
{"timestamp": "2026-01-31T12:51:09.446207Z", "telemetry": {"lat": 13.3525237, "lon": 74.8647375, "satellites": 0, "altitude_rel_m": null, "groundspeed_mps": 0.0026455852203071117}, "flight": {"mode": "STABILIZE", "armed": false}, "ekf": {"attitude": {"roll": -0.02217083051800728, "pitch": -0.009840866550803185, "yaw": -2.8971331119537354}, "local_position": {"x": null, "y": null, "z": null}, "status": {"flags": 135, "velocity_variance": 0.0, "pos_horiz_variance": 0.0006057743448764086, "pos_vert_variance": 0.10980585217475891}}, "errors": ["PreArm: RC not found", "PreArm: Hardware safety switch", "PreArm: Compasses inconsistent", "PreArm: RC not found", "PreArm: Hardware safety switch", "PreArm: Compasses inconsistent", "PreArm: RC not found", "PreArm: Hardware safety switch", "PreArm: Compasses inconsistent"]}
{"timestamp": "2026-01-31T12:51:10.446362Z", "telemetry": {"lat": 13.3525237, "lon": 74.8647375, "satellites": 0, "altitude_rel_m": null, "groundspeed_mps": 0.002562456764280796}, "flight": {"mode": "STABILIZE", "armed": false}, "ekf": {"attitude": {"roll": -0.02227359265089035, "pitch": -0.009818973019719124, "yaw": -2.896986961364746}, "local_position": {"x": null, "y": null, "z": null}, "status": {"flags": 135, "velocity_variance": 0.0, "pos_horiz_variance": 0.00043484580237418413, "pos_vert_variance": 0.052661050111055374}}, "errors": ["PreArm: RC not found", "PreArm: Hardware safety switch", "PreArm: Compasses inconsistent", "PreArm: RC not found", "PreArm: Hardware safety switch", "PreArm: Compasses inconsistent", "PreArm: RC not found", "PreArm: Hardware safety switch", "PreArm: Compasses inconsistent"]}
{"timestamp": "2026-01-31T12:51:11.446711Z", "telemetry": {"lat": 13.3525237, "lon": 74.8647375, "satellites": 0, "altitude_rel_m": null, "groundspeed_mps": 0.003638745052739978}, "flight": {"mode": "STABILIZE", "armed": false}, "ekf": {"attitude": {"roll": -0.022325215861201286, "pitch": -0.009788911789655685, "yaw": -2.8969345092773438}, "local_position": {"x": null, "y": null, "z": null}, "status": {"flags": 135, "velocity_variance": 0.0, "pos_horiz_variance": 0.0005068700993433595, "pos_vert_variance": 0.010360615327954292}}, "errors": ["PreArm: RC not found", "PreArm: Hardware safety switch", "PreArm: Compasses inconsistent", "PreArm: RC not found", "PreArm: Hardware safety switch", "PreArm: Compasses inconsistent", "PreArm: RC not found", "PreArm: Hardware safety switch", "PreArm: Compasses inconsistent"]}
{"timestamp": "2026-01-31T12:51:12.446291Z", "telemetry": {"lat": 13.3525237, "lon": 74.8647375, "satellites": 0, "altitude_rel_m": null, "groundspeed_mps": 0.0030420732218772173}, "flight": {"mode": "STABILIZE", "armed": false}, "ekf": {"attitude": {"roll": -0.022331150248646736, "pitch": -0.009848985821008682, "yaw": -2.8969647884368896}, "local_position": {"x": null, "y": null, "z": null}, "status": {"flags": 135, "velocity_variance": 0.0, "pos_horiz_variance": 0.0006818681140430272, "pos_vert_variance": 0.00957280583679676}}, "errors": ["PreArm: RC not found", "PreArm: Hardware safety switch", "PreArm: Compasses inconsistent", "PreArm: RC not found", "PreArm: Hardware safety switch", "PreArm: Compasses inconsistent", "PreArm: RC not found", "PreArm: Hardware safety switch", "PreArm: Compasses inconsistent"]}
{"timestamp": "2026-01-31T12:51:13.446378Z", "telemetry": {"lat": 13.3525237, "lon": 74.8647375, "satellites": 0, "altitude_rel_m": null, "groundspeed_mps": 0.0016771226655691862}, "flight": {"mode": "STABILIZE", "armed": false}, "ekf": {"attitude": {"roll": -0.022159557789564133, "pitch": -0.009831242263317108, "yaw": -2.8969533443450928}, "local_position": {"x": null, "y": null, "z": null}, "status": {"flags": 135, "velocity_variance": 0.0, "pos_horiz_variance": 0.0006531522958539426, "pos_vert_variance": 0.028833553194999695}}, "errors": ["PreArm: RC not found", "PreArm: Hardware safety switch", "PreArm: Compasses inconsistent", "PreArm: RC not found", "PreArm: Hardware safety switch", "PreArm: Compasses inconsistent", "PreArm: RC not found", "PreArm: Hardware safety switch", "PreArm: Compasses inconsistent"]}
{"timestamp": "2026-01-31T12:51:14.446163Z", "telemetry": {"lat": 13.3525237, "lon": 74.8647375, "satellites": 0, "altitude_rel_m": null, "groundspeed_mps": 0.0013981236843392253}, "flight": {"mode": "STABILIZE", "armed": false}, "ekf": {"attitude": {"roll": -0.022118395194411278, "pitch": -0.009814448654651642, "yaw": -2.897019147872925}, "local_position": {"x": null, "y": null, "z": null}, "status": {"flags": 135, "velocity_variance": 0.0, "pos_horiz_variance": 0.00037196013727225363, "pos_vert_variance": 0.06862036883831024}}, "errors": ["PreArm: RC not found", "PreArm: Hardware safety switch", "PreArm: Compasses inconsistent", "PreArm: RC not found", "PreArm: Hardware safety switch", "PreArm: Compasses inconsistent", "PreArm: RC not found", "PreArm: Hardware safety switch", "PreArm: Compasses inconsistent"]}
{"timestamp": "2026-01-31T12:51:15.447059Z", "telemetry": {"lat": 13.3525237, "lon": 74.8647375, "satellites": 0, "altitude_rel_m": null, "groundspeed_mps": 0.002452254295349121}, "flight": {"mode": "STABILIZE", "armed": false}, "ekf": {"attitude": {"roll": -0.022156670689582825, "pitch": -0.009844711050391197, "yaw": -2.897113561630249}, "local_position": {"x": null, "y": null, "z": null}, "status": {"flags": 135, "velocity_variance": 0.0, "pos_horiz_variance": 0.0002086973108816892, "pos_vert_variance": 0.06944482028484344}}, "errors": ["PreArm: RC not found", "PreArm: Hardware safety switch", "PreArm: Compasses inconsistent", "PreArm: RC not found", "PreArm: Hardware safety switch", "PreArm: Compasses inconsistent", "PreArm: RC not found", "PreArm: Hardware safety switch", "PreArm: Compasses inconsistent"]}
{"timestamp": "2026-01-31T12:51:16.446764Z", "telemetry": {"lat": 13.3525237, "lon": 74.8647375, "satellites": 0, "altitude_rel_m": null, "groundspeed_mps": 0.002075535710901022}, "flight": {"mode": "STABILIZE", "armed": false}, "ekf": {"attitude": {"roll": -0.022101661190390587, "pitch": -0.009790962561964989, "yaw": -2.897151470184326}, "local_position": {"x": null, "y": null, "z": null}, "status": {"flags": 135, "velocity_variance": 0.0, "pos_horiz_variance": 0.0003758700331673026, "pos_vert_variance": 0.07757245004177094}}, "errors": ["PreArm: RC not found", "PreArm: Hardware safety switch", "PreArm: Compasses inconsistent", "PreArm: RC not found", "PreArm: Hardware safety switch", "PreArm: Compasses inconsistent", "PreArm: RC not found", "PreArm: Hardware safety switch", "PreArm: Compasses inconsistent"]}
{"timestamp": "2026-01-31T12:51:17.446469Z", "telemetry": {"lat": 13.3525237, "lon": 74.8647375, "satellites": 0, "altitude_rel_m": null, "groundspeed_mps": 0.0005689222598448396}, "flight": {"mode": "STABILIZE", "armed": false}, "ekf": {"attitude": {"roll": -0.02222900092601776, "pitch": -0.009692829102277756, "yaw": -2.897163152694702}, "local_position": {"x": null, "y": null, "z": null}, "status": {"flags": 135, "velocity_variance": 0.0, "pos_horiz_variance": 0.0003745809954125434, "pos_vert_variance": 0.0582730770111084}}, "errors": ["PreArm: RC not found", "PreArm: Hardware safety switch", "PreArm: Compasses inconsistent", "PreArm: RC not found", "PreArm: Hardware safety switch", "PreArm: Compasses inconsistent", "PreArm: RC not found", "PreArm: Hardware safety switch", "PreArm: Compasses inconsistent"]}
{"timestamp": "2026-01-31T12:51:18.445998Z", "telemetry": {"lat": 13.3525237, "lon": 74.8647375, "satellites": 0, "altitude_rel_m": null, "groundspeed_mps": 0.003985175397247076}, "flight": {"mode": "STABILIZE", "armed": false}, "ekf": {"attitude": {"roll": -0.022211438044905663, "pitch": -0.009773382917046547, "yaw": -2.8970673084259033}, "local_position": {"x": null, "y": null, "z": null}, "status": {"flags": 135, "velocity_variance": 0.0, "pos_horiz_variance": 0.0001721113658277318, "pos_vert_variance": 0.007977509871125221}}, "errors": ["PreArm: RC not found", "PreArm: Hardware safety switch", "PreArm: Compasses inconsistent", "PreArm: RC not found", "PreArm: Hardware safety switch", "PreArm: Compasses inconsistent", "PreArm: RC not found", "PreArm: Hardware safety switch", "PreArm: Compasses inconsistent"]}
{"timestamp": "2026-01-31T12:51:19.446216Z", "telemetry": {"lat": 13.3525237, "lon": 74.8647375, "satellites": 0, "altitude_rel_m": null, "groundspeed_mps": 0.004404797218739986}, "flight": {"mode": "STABILIZE", "armed": false}, "ekf": {"attitude": {"roll": -0.022327180951833725, "pitch": -0.00984877534210682, "yaw": -2.89697003364563}, "local_position": {"x": null, "y": null, "z": null}, "status": {"flags": 135, "velocity_variance": 0.0, "pos_horiz_variance": 0.0006527974619530141, "pos_vert_variance": 0.11159075796604156}}, "errors": ["PreArm: RC not found", "PreArm: Hardware safety switch", "PreArm: Compasses inconsistent", "PreArm: RC not found", "PreArm: Hardware safety switch", "PreArm: Compasses inconsistent", "PreArm: RC not found", "PreArm: Hardware safety switch", "PreArm: Compasses inconsistent"]}
