{"timestamp": "2026-01-31T07:01:58.122342Z", "telemetry": {"lat": 13.3546055, "lon": 74.8648425, "satellites": 10, "altitude_gps_m": 4360.729101739164, "groundspeed_mps": 0.010029471479356289}, "flight": {"mode": "STABILIZE", "armed": false}, "ekf": {"attitude": {"roll": -0.0341448113322258, "pitch": -0.017063822597265244, "yaw": 2.258540630340576}, "local_position": {"x": null, "y": null, "z": null}, "status": {"flags": 135, "velocity_variance": 0.0, "pos_horiz_variance": 0.0009350477484986186, "pos_vert_variance": 0.052758462727069855}}, "errors": []}
{"timestamp": "2026-01-31T07:01:59.171956Z", "telemetry": {"lat": 13.3546049, "lon": 74.8648418, "satellites": 10, "altitude_gps_m": 299012914618449.25, "groundspeed_mps": 0.010029471479356289}, "flight": {"mode": "STABILIZE", "armed": false}, "ekf": {"attitude": {"roll": -0.034228045493364334, "pitch": -0.017244800925254822, "yaw": 2.2578563690185547}, "local_position": {"x": null, "y": null, "z": null}, "status": {"flags": 135, "velocity_variance": 0.0, "pos_horiz_variance": 0.0016359899891540408, "pos_vert_variance": 0.010730493813753128}}, "errors": []}
{"timestamp": "2026-01-31T07:02:00.201854Z", "telemetry": {"lat": 13.3546045, "lon": 74.8648415, "satellites": 10, "altitude_gps_m": 18043012.623299595, "groundspeed_mps": 0.018680986016988754}, "flight": {"mode": "STABILIZE", "armed": false}, "ekf": {"attitude": {"roll": -0.034249063581228256, "pitch": -0.017323162406682968, "yaw": 2.257979154586792}, "local_position": {"x": null, "y": null, "z": null}, "status": {"flags": 135, "velocity_variance": 0.0, "pos_horiz_variance": 0.0024250089190900326, "pos_vert_variance": 0.02312418259680271}}, "errors": []}
{"timestamp": "2026-01-31T07:02:01.199610Z", "telemetry": {"lat": 13.3546038, "lon": 74.8648402, "satellites": 11, "altitude_gps_m": 14588.913155509073, "groundspeed_mps": 0.01980508863925934}, "flight": {"mode": "STABILIZE", "armed": false}, "ekf": {"attitude": {"roll": -0.03426725044846535, "pitch": -0.01763574220240116, "yaw": 2.2568256855010986}, "local_position": {"x": null, "y": null, "z": null}, "status": {"flags": 135, "velocity_variance": 0.0, "pos_horiz_variance": 0.0032637962140142918, "pos_vert_variance": 0.019074438139796257}}, "errors": []}
{"timestamp": "2026-01-31T07:02:02.198788Z", "telemetry": {"lat": 13.3546033, "lon": 74.8648397, "satellites": 11, "altitude_gps_m": 5572969.6464952035, "groundspeed_mps": 0.024178890511393547}, "flight": {"mode": "STABILIZE", "armed": false}, "ekf": {"attitude": {"roll": -0.03428103029727936, "pitch": -0.017834825441241264, "yaw": 2.2566184997558594}, "local_position": {"x": null, "y": null, "z": null}, "status": {"flags": 135, "velocity_variance": 0.0, "pos_horiz_variance": 0.003891224507242441, "pos_vert_variance": 0.01151258870959282}}, "errors": ["EKF3 IMU0 origin set", "EKF3 IMU1 origin set", "Field Elevation Set: 39m"]}
{"timestamp": "2026-01-31T07:02:03.196568Z", "telemetry": {"lat": 13.3546028, "lon": 74.8648391, "satellites": 11, "altitude_gps_m": 197551216.93595985, "groundspeed_mps": 0.026422904804348946}, "flight": {"mode": "STABILIZE", "armed": false}, "ekf": {"attitude": {"roll": -0.03427289426326752, "pitch": -0.01808455027639866, "yaw": 2.2561564445495605}, "local_position": {"x": null, "y": null, "z": null}, "status": {"flags": 167, "velocity_variance": 0.0, "pos_horiz_variance": 0.005428794305771589, "pos_vert_variance": 0.0040999166667461395}}, "errors": ["EKF3 IMU0 origin set", "EKF3 IMU1 origin set", "Field Elevation Set: 39m", "ArduCopter V4.6.1 (57591cb8)", "ChibiOS: 88b84600", "fmuv3 00240032 33385119 36353030", "IOMCU: 420 1001 411FC231", "RCOut: PWM:1-14", "IMU0: fast sampling enabled 8.0kHz/1.0kHz", "Frame: QUAD/X"]}
{"timestamp": "2026-01-31T07:02:04.194733Z", "telemetry": {"lat": 13.3546031, "lon": 74.864839, "satellites": 11, "altitude_gps_m": 127.53246649551392, "groundspeed_mps": 0.03901830315589905}, "flight": {"mode": "STABILIZE", "armed": false}, "ekf": {"attitude": {"roll": -0.03406825289130211, "pitch": -0.018609417602419853, "yaw": 2.255892038345337}, "local_position": {"x": null, "y": null, "z": null}, "status": {"flags": 167, "velocity_variance": 0.0, "pos_horiz_variance": 0.006968981586396694, "pos_vert_variance": 0.008692154660820961}}, "errors": ["EKF3 IMU0 origin set", "EKF3 IMU1 origin set", "Field Elevation Set: 39m", "ArduCopter V4.6.1 (57591cb8)", "ChibiOS: 88b84600", "fmuv3 00240032 33385119 36353030", "IOMCU: 420 1001 411FC231", "RCOut: PWM:1-14", "IMU0: fast sampling enabled 8.0kHz/1.0kHz", "Frame: QUAD/X"]}
{"timestamp": "2026-01-31T07:02:05.193084Z", "telemetry": {"lat": 13.354603, "lon": 74.8648386, "satellites": 11, "altitude_gps_m": 2665295504644.7354, "groundspeed_mps": 0.03901830315589905}, "flight": {"mode": "STABILIZE", "armed": false}, "ekf": {"attitude": {"roll": -0.03406825289130211, "pitch": -0.018609417602419853, "yaw": 2.255892038345337}, "local_position": {"x": null, "y": null, "z": null}, "status": {"flags": 167, "velocity_variance": 0.0, "pos_horiz_variance": 0.00807893369346857, "pos_vert_variance": 0.010351959615945816}}, "errors": ["EKF3 IMU0 origin set", "EKF3 IMU1 origin set", "Field Elevation Set: 39m", "ArduCopter V4.6.1 (57591cb8)", "ChibiOS: 88b84600", "fmuv3 00240032 33385119 36353030", "IOMCU: 420 1001 411FC231", "RCOut: PWM:1-14", "IMU0: fast sampling enabled 8.0kHz/1.0kHz", "Frame: QUAD/X"]}
{"timestamp": "2026-01-31T07:02:06.191327Z", "telemetry": {"lat": 13.3546025, "lon": 74.8648382, "satellites": 11, "altitude_gps_m": 199134084.62061214, "groundspeed_mps": 0.04858339577913284}, "flight": {"mode": "STABILIZE", "armed": false}, "ekf": {"attitude": {"roll": -0.0338006466627121, "pitch": -0.018802281469106674, "yaw": 2.2557692527770996}, "local_position": {"x": null, "y": null, "z": null}, "status": {"flags": 167, "velocity_variance": 0.0, "pos_horiz_variance": 0.010110893286764622, "pos_vert_variance": 0.009656128473579884}}, "errors": ["EKF3 IMU0 origin set", "EKF3 IMU1 origin set", "Field Elevation Set: 39m", "ArduCopter V4.6.1 (57591cb8)", "ChibiOS: 88b84600", "fmuv3 00240032 33385119 36353030", "IOMCU: 420 1001 411FC231", "RCOut: PWM:1-14", "IMU0: fast sampling enabled 8.0kHz/1.0kHz", "Frame: QUAD/X"]}
{"timestamp": "2026-01-31T07:02:07.190520Z", "telemetry": {"lat": 13.3546016, "lon": 74.8648375, "satellites": 11, "altitude_gps_m": 2144220221.5953615, "groundspeed_mps": 0.055021241307258606}, "flight": {"mode": "STABILIZE", "armed": false}, "ekf": {"attitude": {"roll": -0.033695288002491, "pitch": -0.019031308591365814, "yaw": 2.256343126296997}, "local_position": {"x": null, "y": null, "z": null}, "status": {"flags": 167, "velocity_variance": 0.0, "pos_horiz_variance": 0.011873424984514713, "pos_vert_variance": 0.003038617316633463}}, "errors": ["EKF3 IMU0 origin set", "EKF3 IMU1 origin set", "Field Elevation Set: 39m", "ArduCopter V4.6.1 (57591cb8)", "ChibiOS: 88b84600", "fmuv3 00240032 33385119 36353030", "IOMCU: 420 1001 411FC231", "RCOut: PWM:1-14", "IMU0: fast sampling enabled 8.0kHz/1.0kHz", "Frame: QUAD/X", "PreArm: RC not found", "PreArm: Hardware safety switch"]}
{"timestamp": "2026-01-31T07:02:08.192800Z", "telemetry": {"lat": 13.3546019, "lon": 74.8648367, "satellites": 11, "altitude_gps_m": 60988789.39982915, "groundspeed_mps": 0.05707582086324692}, "flight": {"mode": "STABILIZE", "armed": false}, "ekf": {"attitude": {"roll": -0.0335797555744648, "pitch": -0.019112451002001762, "yaw": 2.2564537525177}, "local_position": {"x": null, "y": null, "z": null}, "status": {"flags": 167, "velocity_variance": 0.0, "pos_horiz_variance": 0.013678745366632938, "pos_vert_variance": 0.006801237817853689}}, "errors": ["EKF3 IMU0 origin set", "EKF3 IMU1 origin set", "Field Elevation Set: 39m", "ArduCopter V4.6.1 (57591cb8)", "ChibiOS: 88b84600", "fmuv3 00240032 33385119 36353030", "IOMCU: 420 1001 411FC231", "RCOut: PWM:1-14", "IMU0: fast sampling enabled 8.0kHz/1.0kHz", "Frame: QUAD/X", "PreArm: RC not found", "PreArm: Hardware safety switch"]}
{"timestamp": "2026-01-31T07:02:09.197079Z", "telemetry": {"lat": 13.3546012, "lon": 74.8648365, "satellites": 11, "altitude_gps_m": 7087486229.887879, "groundspeed_mps": 0.06326967477798462}, "flight": {"mode": "STABILIZE", "armed": false}, "ekf": {"attitude": {"roll": -0.033492181450128555, "pitch": -0.019261790439486504, "yaw": 2.2567148208618164}, "local_position": {"x": null, "y": null, "z": null}, "status": {"flags": 167, "velocity_variance": 0.0, "pos_horiz_variance": 0.015100202523171902, "pos_vert_variance": 0.004227424506098032}}, "errors": ["EKF3 IMU0 origin set", "EKF3 IMU1 origin set", "Field Elevation Set: 39m", "ArduCopter V4.6.1 (57591cb8)", "ChibiOS: 88b84600", "fmuv3 00240032 33385119 36353030", "IOMCU: 420 1001 411FC231", "RCOut: PWM:1-14", "IMU0: fast sampling enabled 8.0kHz/1.0kHz", "Frame: QUAD/X", "PreArm: RC not found", "PreArm: Hardware safety switch"]}
{"timestamp": "2026-01-31T07:02:10.185967Z", "telemetry": {"lat": 13.3546008, "lon": 74.8648362, "satellites": 11, "altitude_gps_m": 2166756238.0398116, "groundspeed_mps": 0.06780941784381866}, "flight": {"mode": "STABILIZE", "armed": false}, "ekf": {"attitude": {"roll": -0.03342239186167717, "pitch": -0.019441066309809685, "yaw": 2.2571024894714355}, "local_position": {"x": null, "y": null, "z": null}, "status": {"flags": 167, "velocity_variance": 0.0, "pos_horiz_variance": 0.015100202523171902, "pos_vert_variance": 0.004227424506098032}}, "errors": ["EKF3 IMU0 origin set", "EKF3 IMU1 origin set", "Field Elevation Set: 39m", "ArduCopter V4.6.1 (57591cb8)", "ChibiOS: 88b84600", "fmuv3 00240032 33385119 36353030", "IOMCU: 420 1001 411FC231", "RCOut: PWM:1-14", "IMU0: fast sampling enabled 8.0kHz/1.0kHz", "Frame: QUAD/X", "PreArm: RC not found", "PreArm: Hardware safety switch"]}
{"timestamp": "2026-01-31T07:02:11.184976Z", "telemetry": {"lat": 13.3546006, "lon": 74.8648362, "satellites": 11, "altitude_gps_m": 7137982095.821142, "groundspeed_mps": 0.07104688882827759}, "flight": {"mode": "STABILIZE", "armed": false}, "ekf": {"attitude": {"roll": -0.0333622545003891, "pitch": -0.019630268216133118, "yaw": 2.2573843002319336}, "local_position": {"x": null, "y": null, "z": null}, "status": {"flags": 167, "velocity_variance": 0.0, "pos_horiz_variance": 0.018041232600808144, "pos_vert_variance": 0.0014925134601071477}}, "errors": ["EKF3 IMU0 origin set", "EKF3 IMU1 origin set", "Field Elevation Set: 39m", "ArduCopter V4.6.1 (57591cb8)", "ChibiOS: 88b84600", "fmuv3 00240032 33385119 36353030", "IOMCU: 420 1001 411FC231", "RCOut: PWM:1-14", "IMU0: fast sampling enabled 8.0kHz/1.0kHz", "Frame: QUAD/X", "PreArm: RC not found", "PreArm: Hardware safety switch"]}
{"timestamp": "2026-01-31T07:02:12.186025Z", "telemetry": {"lat": 13.3545999, "lon": 74.8648358, "satellites": 11, "altitude_gps_m": 663410581.9488829, "groundspeed_mps": 0.07834109663963318}, "flight": {"mode": "STABILIZE", "armed": false}, "ekf": {"attitude": {"roll": -0.03341124206781387, "pitch": -0.019885379821062088, "yaw": 2.2574172019958496}, "local_position": {"x": null, "y": null, "z": null}, "status": {"flags": 167, "velocity_variance": 0.0, "pos_horiz_variance": 0.01941508613526821, "pos_vert_variance": 0.008183019235730171}}, "errors": ["EKF3 IMU0 origin set", "EKF3 IMU1 origin set", "Field Elevation Set: 39m", "ArduCopter V4.6.1 (57591cb8)", "ChibiOS: 88b84600", "fmuv3 00240032 33385119 36353030", "IOMCU: 420 1001 411FC231", "RCOut: PWM:1-14", "IMU0: fast sampling enabled 8.0kHz/1.0kHz", "Frame: QUAD/X", "PreArm: RC not found", "PreArm: Hardware safety switch"]}
{"timestamp": "2026-01-31T07:02:13.187767Z", "telemetry": {"lat": 13.3545989, "lon": 74.8648352, "satellites": 11, "altitude_gps_m": 61517909.033121526, "groundspeed_mps": 0.08509469777345657}, "flight": {"mode": "STABILIZE", "armed": false}, "ekf": {"attitude": {"roll": -0.03351134434342384, "pitch": -0.020185306668281555, "yaw": 2.2578065395355225}, "local_position": {"x": null, "y": null, "z": null}, "status": {"flags": 167, "velocity_variance": 0.0, "pos_horiz_variance": 0.021239109337329865, "pos_vert_variance": 0.020990809425711632}}, "errors": ["EKF3 IMU0 origin set", "EKF3 IMU1 origin set", "Field Elevation Set: 39m", "ArduCopter V4.6.1 (57591cb8)", "ChibiOS: 88b84600", "fmuv3 00240032 33385119 36353030", "IOMCU: 420 1001 411FC231", "RCOut: PWM:1-14", "IMU0: fast sampling enabled 8.0kHz/1.0kHz", "Frame: QUAD/X", "PreArm: RC not found", "PreArm: Hardware safety switch"]}
{"timestamp": "2026-01-31T07:02:14.189815Z", "telemetry": {"lat": 13.3545978, "lon": 74.8648348, "satellites": 11, "altitude_gps_m": 1401.4911445656392, "groundspeed_mps": 0.09630659967660904}, "flight": {"mode": "STABILIZE", "armed": false}, "ekf": {"attitude": {"roll": -0.03356223180890083, "pitch": -0.020693808794021606, "yaw": 2.2585277557373047}, "local_position": {"x": null, "y": null, "z": null}, "status": {"flags": 167, "velocity_variance": 0.0, "pos_horiz_variance": 0.023955434560775757, "pos_vert_variance": 0.01800999604165554}}, "errors": ["EKF3 IMU0 origin set", "EKF3 IMU1 origin set", "Field Elevation Set: 39m", "ArduCopter V4.6.1 (57591cb8)", "ChibiOS: 88b84600", "fmuv3 00240032 33385119 36353030", "IOMCU: 420 1001 411FC231", "RCOut: PWM:1-14", "IMU0: fast sampling enabled 8.0kHz/1.0kHz", "Frame: QUAD/X", "PreArm: RC not found", "PreArm: Hardware safety switch"]}
{"timestamp": "2026-01-31T07:02:15.189309Z", "telemetry": {"lat": 13.3545965, "lon": 74.8648344, "satellites": 11, "altitude_gps_m": 1398.3123538425698, "groundspeed_mps": 0.10483603924512863}, "flight": {"mode": "STABILIZE", "armed": false}, "ekf": {"attitude": {"roll": -0.03372076153755188, "pitch": -0.020797215402126312, "yaw": 2.258496046066284}, "local_position": {"x": null, "y": null, "z": null}, "status": {"flags": 167, "velocity_variance": 0.0, "pos_horiz_variance": 0.026894783601164818, "pos_vert_variance": 0.032363470643758774}}, "errors": ["EKF3 IMU0 origin set", "EKF3 IMU1 origin set", "Field Elevation Set: 39m", "ArduCopter V4.6.1 (57591cb8)", "ChibiOS: 88b84600", "fmuv3 00240032 33385119 36353030", "IOMCU: 420 1001 411FC231", "RCOut: PWM:1-14", "IMU0: fast sampling enabled 8.0kHz/1.0kHz", "Frame: QUAD/X", "PreArm: RC not found", "PreArm: Hardware safety switch"]}
{"timestamp": "2026-01-31T07:02:16.187544Z", "telemetry": {"lat": 13.3545956, "lon": 74.8648345, "satellites": 11, "altitude_gps_m": 425.6465677956162, "groundspeed_mps": 0.11332511156797409}, "flight": {"mode": "STABILIZE", "armed": false}, "ekf": {"attitude": {"roll": -0.03398902714252472, "pitch": -0.020934686064720154, "yaw": 2.258732795715332}, "local_position": {"x": null, "y": null, "z": null}, "status": {"flags": 167, "velocity_variance": 0.0, "pos_horiz_variance": 0.028333012014627457, "pos_vert_variance": 0.033938322216272354}}, "errors": ["EKF3 IMU0 origin set", "EKF3 IMU1 origin set", "Field Elevation Set: 39m", "ArduCopter V4.6.1 (57591cb8)", "ChibiOS: 88b84600", "fmuv3 00240032 33385119 36353030", "IOMCU: 420 1001 411FC231", "RCOut: PWM:1-14", "IMU0: fast sampling enabled 8.0kHz/1.0kHz", "Frame: QUAD/X", "PreArm: RC not found", "PreArm: Hardware safety switch"]}
{"timestamp": "2026-01-31T07:02:17.186330Z", "telemetry": {"lat": 13.3545944, "lon": 74.8648343, "satellites": 11, "altitude_gps_m": 129.5338784980774, "groundspeed_mps": 0.11603507399559021}, "flight": {"mode": "STABILIZE", "armed": false}, "ekf": {"attitude": {"roll": -0.034087080508470535, "pitch": -0.020855015143752098, "yaw": 2.2590670585632324}, "local_position": {"x": null, "y": null, "z": null}, "status": {"flags": 167, "velocity_variance": 0.0, "pos_horiz_variance": 0.030582798644900322, "pos_vert_variance": 0.040416572242975235}}, "errors": ["EKF3 IMU0 origin set", "EKF3 IMU1 origin set", "Field Elevation Set: 39m", "ArduCopter V4.6.1 (57591cb8)", "ChibiOS: 88b84600", "fmuv3 00240032 33385119 36353030", "IOMCU: 420 1001 411FC231", "RCOut: PWM:1-14", "IMU0: fast sampling enabled 8.0kHz/1.0kHz", "Frame: QUAD/X", "PreArm: RC not found", "PreArm: Hardware safety switch"]}
{"timestamp": "2026-01-31T07:02:18.190136Z", "telemetry": {"lat": 13.3545936, "lon": 74.8648339, "satellites": 11, "altitude_gps_m": 1395.4867022067365, "groundspeed_mps": 0.11741887778043747}, "flight": {"mode": "STABILIZE", "armed": false}, "ekf": {"attitude": {"roll": -0.03415103256702423, "pitch": -0.020888812839984894, "yaw": 2.2589659690856934}, "local_position": {"x": null, "y": null, "z": null}, "status": {"flags": 167, "velocity_variance": 0.0, "pos_horiz_variance": 0.03256082534790039, "pos_vert_variance": 0.03116241656243801}}, "errors": ["EKF3 IMU0 origin set", "EKF3 IMU1 origin set", "Field Elevation Set: 39m", "ArduCopter V4.6.1 (57591cb8)", "ChibiOS: 88b84600", "fmuv3 00240032 33385119 36353030", "IOMCU: 420 1001 411FC231", "RCOut: PWM:1-14", "IMU0: fast sampling enabled 8.0kHz/1.0kHz", "Frame: QUAD/X", "PreArm: RC not found", "PreArm: Hardware safety switch"]}
{"timestamp": "2026-01-31T07:02:19.211135Z", "telemetry": {"lat": 13.3545932, "lon": 74.8648336, "satellites": 11, "altitude_gps_m": 426.93835161739736, "groundspeed_mps": 0.1186053529381752}, "flight": {"mode": "STABILIZE", "armed": false}, "ekf": {"attitude": {"roll": -0.03417946398258209, "pitch": -0.020953714847564697, "yaw": 2.2591705322265625}, "local_position": {"x": null, "y": null, "z": null}, "status": {"flags": 167, "velocity_variance": 0.0, "pos_horiz_variance": 0.0333980955183506, "pos_vert_variance": 0.020387008786201477}}, "errors": ["EKF3 IMU0 origin set", "EKF3 IMU1 origin set", "Field Elevation Set: 39m", "ArduCopter V4.6.1 (57591cb8)", "ChibiOS: 88b84600", "fmuv3 00240032 33385119 36353030", "IOMCU: 420 1001 411FC231", "RCOut: PWM:1-14", "IMU0: fast sampling enabled 8.0kHz/1.0kHz", "Frame: QUAD/X", "PreArm: RC not found", "PreArm: Hardware safety switch"]}
{"timestamp": "2026-01-31T07:02:20.185827Z", "telemetry": {"lat": 13.3545925, "lon": 74.8648338, "satellites": 11, "altitude_gps_m": 534078.9228183305, "groundspeed_mps": 0.12056514620780945}, "flight": {"mode": "STABILIZE", "armed": false}, "ekf": {"attitude": {"roll": -0.034201834350824356, "pitch": -0.02110411785542965, "yaw": 2.2591865062713623}, "local_position": {"x": null, "y": null, "z": null}, "status": {"flags": 167, "velocity_variance": 0.0, "pos_horiz_variance": 0.033907581120729446, "pos_vert_variance": 0.015849033370614052}}, "errors": ["EKF3 IMU0 origin set", "EKF3 IMU1 origin set", "Field Elevation Set: 39m", "ArduCopter V4.6.1 (57591cb8)", "ChibiOS: 88b84600", "fmuv3 00240032 33385119 36353030", "IOMCU: 420 1001 411FC231", "RCOut: PWM:1-14", "IMU0: fast sampling enabled 8.0kHz/1.0kHz", "Frame: QUAD/X", "PreArm: RC not found", "PreArm: Hardware safety switch"]}
{"timestamp": "2026-01-31T07:02:21.185976Z", "telemetry": {"lat": 13.3545926, "lon": 74.8648334, "satellites": 11, "altitude_gps_m": 1409.2614170952088, "groundspeed_mps": 0.12618587911128998}, "flight": {"mode": "STABILIZE", "armed": false}, "ekf": {"attitude": {"roll": -0.034189678728580475, "pitch": -0.021351870149374008, "yaw": 2.259267568588257}, "local_position": {"x": null, "y": null, "z": null}, "status": {"flags": 167, "velocity_variance": 0.0, "pos_horiz_variance": 0.03543327376246452, "pos_vert_variance": 0.00913818646222353}}, "errors": ["EKF3 IMU0 origin set", "EKF3 IMU1 origin set", "Field Elevation Set: 39m", "ArduCopter V4.6.1 (57591cb8)", "ChibiOS: 88b84600", "fmuv3 00240032 33385119 36353030", "IOMCU: 420 1001 411FC231", "RCOut: PWM:1-14", "IMU0: fast sampling enabled 8.0kHz/1.0kHz", "Frame: QUAD/X", "PreArm: RC not found", "PreArm: Hardware safety switch"]}
{"timestamp": "2026-01-31T07:02:22.210307Z", "telemetry": {"lat": 13.3545926, "lon": 74.8648332, "satellites": 11, "altitude_gps_m": 431.1366798369866, "groundspeed_mps": 0.13068892061710358}, "flight": {"mode": "STABILIZE", "armed": false}, "ekf": {"attitude": {"roll": -0.03408709540963173, "pitch": -0.02149089053273201, "yaw": 2.259387493133545}, "local_position": {"x": null, "y": null, "z": null}, "status": {"flags": 167, "velocity_variance": 0.0, "pos_horiz_variance": 0.035928189754486084, "pos_vert_variance": 0.005412563215941191}}, "errors": ["EKF3 IMU0 origin set", "EKF3 IMU1 origin set", "Field Elevation Set: 39m", "ArduCopter V4.6.1 (57591cb8)", "ChibiOS: 88b84600", "fmuv3 00240032 33385119 36353030", "IOMCU: 420 1001 411FC231", "RCOut: PWM:1-14", "IMU0: fast sampling enabled 8.0kHz/1.0kHz", "Frame: QUAD/X", "PreArm: RC not found", "PreArm: Hardware safety switch"]}
{"timestamp": "2026-01-31T07:02:23.178473Z", "telemetry": {"lat": 13.3545924, "lon": 74.8648327, "satellites": 11, "altitude_gps_m": 131.4368519897461, "groundspeed_mps": 0.13291035592556}, "flight": {"mode": "STABILIZE", "armed": false}, "ekf": {"attitude": {"roll": -0.03413313627243042, "pitch": -0.021498138085007668, "yaw": 2.259347438812256}, "local_position": {"x": null, "y": null, "z": null}, "status": {"flags": 167, "velocity_variance": 0.0, "pos_horiz_variance": 0.03713927045464516, "pos_vert_variance": 0.011526601389050484}}, "errors": ["EKF3 IMU0 origin set", "EKF3 IMU1 origin set", "Field Elevation Set: 39m", "ArduCopter V4.6.1 (57591cb8)", "ChibiOS: 88b84600", "fmuv3 00240032 33385119 36353030", "IOMCU: 420 1001 411FC231", "RCOut: PWM:1-14", "IMU0: fast sampling enabled 8.0kHz/1.0kHz", "Frame: QUAD/X", "PreArm: RC not found", "PreArm: Hardware safety switch"]}
{"timestamp": "2026-01-31T07:02:24.183090Z", "telemetry": {"lat": 13.3545907, "lon": 74.8648321, "satellites": 11, "altitude_gps_m": 1422.6829928964448, "groundspeed_mps": 0.14215490221977234}, "flight": {"mode": "STABILIZE", "armed": false}, "ekf": {"attitude": {"roll": -0.03409409150481224, "pitch": -0.021482344716787338, "yaw": 2.25921893119812}, "local_position": {"x": -1.3167612552642822, "y": -0.759116530418396, "z": -1.6444528102874756}, "status": {"flags": 831, "velocity_variance": 0.07820625603199005, "pos_horiz_variance": 0.0018620142946019769, "pos_vert_variance": 0.021490775048732758}}, "errors": ["EKF3 IMU0 origin set", "EKF3 IMU1 origin set", "Field Elevation Set: 39m", "ArduCopter V4.6.1 (57591cb8)", "ChibiOS: 88b84600", "fmuv3 00240032 33385119 36353030", "IOMCU: 420 1001 411FC231", "RCOut: PWM:1-14", "IMU0: fast sampling enabled 8.0kHz/1.0kHz", "Frame: QUAD/X", "PreArm: RC not found", "PreArm: Hardware safety switch", "EKF3 IMU0 is using GPS", "EKF3 IMU1 is using GPS"]}
{"timestamp": "2026-01-31T07:02:25.179999Z", "telemetry": {"lat": 13.3545899, "lon": 74.8648315, "satellites": 11, "altitude_gps_m": 163761.62752629188, "groundspeed_mps": 0.08511338382959366}, "flight": {"mode": "STABILIZE", "armed": false}, "ekf": {"attitude": {"roll": -0.03416842967271805, "pitch": -0.022103335708379745, "yaw": 2.259254217147827}, "local_position": {"x": -1.4143502712249756, "y": -0.8079613447189331, "z": -1.3272281885147095}, "status": {"flags": 831, "velocity_variance": 0.04938958212733269, "pos_horiz_variance": 0.002949048997834325, "pos_vert_variance": 0.0007363225449807942}}, "errors": ["EKF3 IMU0 origin set", "EKF3 IMU1 origin set", "Field Elevation Set: 39m", "ArduCopter V4.6.1 (57591cb8)", "ChibiOS: 88b84600", "fmuv3 00240032 33385119 36353030", "IOMCU: 420 1001 411FC231", "RCOut: PWM:1-14", "IMU0: fast sampling enabled 8.0kHz/1.0kHz", "Frame: QUAD/X", "PreArm: RC not found", "PreArm: Hardware safety switch", "EKF3 IMU0 is using GPS", "EKF3 IMU1 is using GPS"]}
{"timestamp": "2026-01-31T07:02:26.206222Z", "telemetry": {"lat": 13.3545892, "lon": 74.8648312, "satellites": 11, "altitude_gps_m": 130.5509930038452, "groundspeed_mps": 0.11048039048910141}, "flight": {"mode": "STABILIZE", "armed": false}, "ekf": {"attitude": {"roll": -0.03437605872750282, "pitch": -0.02300751954317093, "yaw": 2.2596254348754883}, "local_position": {"x": -1.4909957647323608, "y": -0.8099905848503113, "z": -1.2079428434371948}, "status": {"flags": 831, "velocity_variance": 0.07681219279766083, "pos_horiz_variance": 0.004807669203728437, "pos_vert_variance": 0.003868370782583952}}, "errors": ["EKF3 IMU0 origin set", "EKF3 IMU1 origin set", "Field Elevation Set: 39m", "ArduCopter V4.6.1 (57591cb8)", "ChibiOS: 88b84600", "fmuv3 00240032 33385119 36353030", "IOMCU: 420 1001 411FC231", "RCOut: PWM:1-14", "IMU0: fast sampling enabled 8.0kHz/1.0kHz", "Frame: QUAD/X", "PreArm: RC not found", "PreArm: Hardware safety switch", "EKF3 IMU0 is using GPS", "EKF3 IMU1 is using GPS"]}
{"timestamp": "2026-01-31T07:02:27.205521Z", "telemetry": {"lat": 13.3545881, "lon": 74.8648303, "satellites": 11, "altitude_gps_m": 1399.7250449260002, "groundspeed_mps": 0.13754983246326447}, "flight": {"mode": "STABILIZE", "armed": false}, "ekf": {"attitude": {"roll": -0.03402823209762573, "pitch": -0.02351968176662922, "yaw": 2.2603025436401367}, "local_position": {"x": -1.6082173585891724, "y": -0.8239485621452332, "z": -1.0012874603271484}, "status": {"flags": 831, "velocity_variance": 0.08694099634885788, "pos_horiz_variance": 0.008150321431457996, "pos_vert_variance": 0.014389224350452423}}, "errors": ["EKF3 IMU0 origin set", "EKF3 IMU1 origin set", "Field Elevation Set: 39m", "ArduCopter V4.6.1 (57591cb8)", "ChibiOS: 88b84600", "fmuv3 00240032 33385119 36353030", "IOMCU: 420 1001 411FC231", "RCOut: PWM:1-14", "IMU0: fast sampling enabled 8.0kHz/1.0kHz", "Frame: QUAD/X", "PreArm: RC not found", "PreArm: Hardware safety switch", "EKF3 IMU0 is using GPS", "EKF3 IMU1 is using GPS"]}
{"timestamp": "2026-01-31T07:02:28.204123Z", "telemetry": {"lat": 13.3545874, "lon": 74.8648296, "satellites": 11, "altitude_gps_m": 424.03180721958927, "groundspeed_mps": 0.2046717405319214}, "flight": {"mode": "STABILIZE", "armed": false}, "ekf": {"attitude": {"roll": -0.0295295100659132, "pitch": -0.031945716589689255, "yaw": 2.2638602256774902}, "local_position": {"x": -1.6835761070251465, "y": -0.8376336693763733, "z": -0.9032322764396667}, "status": {"flags": 831, "velocity_variance": 0.155752032995224, "pos_horiz_variance": 0.012196402996778488, "pos_vert_variance": 0.01053576823323965}}, "errors": ["EKF3 IMU0 origin set", "EKF3 IMU1 origin set", "Field Elevation Set: 39m", "ArduCopter V4.6.1 (57591cb8)", "ChibiOS: 88b84600", "fmuv3 00240032 33385119 36353030", "IOMCU: 420 1001 411FC231", "RCOut: PWM:1-14", "IMU0: fast sampling enabled 8.0kHz/1.0kHz", "Frame: QUAD/X", "PreArm: RC not found", "PreArm: Hardware safety switch", "EKF3 IMU0 is using GPS", "EKF3 IMU1 is using GPS"]}
{"timestamp": "2026-01-31T07:02:29.203067Z", "telemetry": {"lat": 13.3545843, "lon": 74.8648286, "satellites": 11, "altitude_gps_m": 1722791.8711852797, "groundspeed_mps": 0.25528818368911743}, "flight": {"mode": "STABILIZE", "armed": false}, "ekf": {"attitude": {"roll": -0.02822721377015114, "pitch": -0.03314932435750961, "yaw": 2.265817165374756}, "local_position": {"x": -1.9550800323486328, "y": -0.9021207690238953, "z": -0.5748423933982849}, "status": {"flags": 831, "velocity_variance": 0.14278392493724823, "pos_horiz_variance": 0.015649408102035522, "pos_vert_variance": 0.0028957994654774666}}, "errors": ["EKF3 IMU0 origin set", "EKF3 IMU1 origin set", "Field Elevation Set: 39m", "ArduCopter V4.6.1 (57591cb8)", "ChibiOS: 88b84600", "fmuv3 00240032 33385119 36353030", "IOMCU: 420 1001 411FC231", "RCOut: PWM:1-14", "IMU0: fast sampling enabled 8.0kHz/1.0kHz", "Frame: QUAD/X", "PreArm: RC not found", "PreArm: Hardware safety switch", "EKF3 IMU0 is using GPS", "EKF3 IMU1 is using GPS"]}
{"timestamp": "2026-01-31T07:02:30.202413Z", "telemetry": {"lat": 13.3545831, "lon": 74.864828, "satellites": 11, "altitude_gps_m": 416.6039989130135, "groundspeed_mps": 0.2470191866159439}, "flight": {"mode": "STABILIZE", "armed": false}, "ekf": {"attitude": {"roll": -0.032015133649110794, "pitch": -0.024425631389021873, "yaw": 2.2662713527679443}, "local_position": {"x": -2.151726722717285, "y": -1.0199469327926636, "z": -0.19371487200260162}, "status": {"flags": 831, "velocity_variance": 0.05844902619719505, "pos_horiz_variance": 0.012777258642017841, "pos_vert_variance": 0.0036399327218532562}}, "errors": ["EKF3 IMU0 origin set", "EKF3 IMU1 origin set", "Field Elevation Set: 39m", "ArduCopter V4.6.1 (57591cb8)", "ChibiOS: 88b84600", "fmuv3 00240032 33385119 36353030", "IOMCU: 420 1001 411FC231", "RCOut: PWM:1-14", "IMU0: fast sampling enabled 8.0kHz/1.0kHz", "Frame: QUAD/X", "PreArm: RC not found", "PreArm: Hardware safety switch", "EKF3 IMU0 is using GPS", "EKF3 IMU1 is using GPS"]}
{"timestamp": "2026-01-31T07:02:31.201085Z", "telemetry": {"lat": 13.3545822, "lon": 74.8648278, "satellites": 11, "altitude_gps_m": 415.5274781739731, "groundspeed_mps": 0.2077323943376541}, "flight": {"mode": "STABILIZE", "armed": false}, "ekf": {"attitude": {"roll": -0.03306323662400246, "pitch": -0.023374643176794052, "yaw": 2.267770767211914}, "local_position": {"x": -2.2823925018310547, "y": -1.0927449464797974, "z": -0.04770708084106445}, "status": {"flags": 831, "velocity_variance": 0.06655481457710266, "pos_horiz_variance": 0.009944707155227661, "pos_vert_variance": 0.004112303722649813}}, "errors": ["EKF3 IMU0 origin set", "EKF3 IMU1 origin set", "Field Elevation Set: 39m", "ArduCopter V4.6.1 (57591cb8)", "ChibiOS: 88b84600", "fmuv3 00240032 33385119 36353030", "IOMCU: 420 1001 411FC231", "RCOut: PWM:1-14", "IMU0: fast sampling enabled 8.0kHz/1.0kHz", "Frame: QUAD/X", "PreArm: RC not found", "PreArm: Hardware safety switch", "EKF3 IMU0 is using GPS", "EKF3 IMU1 is using GPS"]}
{"timestamp": "2026-01-31T07:02:32.200449Z", "telemetry": {"lat": 13.3545827, "lon": 74.8648279, "satellites": 11, "altitude_gps_m": 126.12163549423218, "groundspeed_mps": 0.17079882323741913}, "flight": {"mode": "STABILIZE", "armed": false}, "ekf": {"attitude": {"roll": -0.03345765173435211, "pitch": -0.02249681018292904, "yaw": 2.2690443992614746}, "local_position": {"x": -2.3485629558563232, "y": -1.173370361328125, "z": 0.13721750676631927}, "status": {"flags": 831, "velocity_variance": 0.05485844239592552, "pos_horiz_variance": 0.007251419592648745, "pos_vert_variance": 0.03067869320511818}}, "errors": ["EKF3 IMU0 origin set", "EKF3 IMU1 origin set", "Field Elevation Set: 39m", "ArduCopter V4.6.1 (57591cb8)", "ChibiOS: 88b84600", "fmuv3 00240032 33385119 36353030", "IOMCU: 420 1001 411FC231", "RCOut: PWM:1-14", "IMU0: fast sampling enabled 8.0kHz/1.0kHz", "Frame: QUAD/X", "PreArm: RC not found", "PreArm: Hardware safety switch", "EKF3 IMU0 is using GPS", "EKF3 IMU1 is using GPS"]}
{"timestamp": "2026-01-31T07:02:33.199332Z", "telemetry": {"lat": 13.3545824, "lon": 74.8648287, "satellites": 11, "altitude_gps_m": 4444.166000638293, "groundspeed_mps": 0.1392306536436081}, "flight": {"mode": "STABILIZE", "armed": false}, "ekf": {"attitude": {"roll": -0.03384394571185112, "pitch": -0.022130165249109268, "yaw": 2.2703843116760254}, "local_position": {"x": -2.374190092086792, "y": -1.2487328052520752, "z": 0.2775906026363373}, "status": {"flags": 831, "velocity_variance": 0.029619187116622925, "pos_horiz_variance": 0.007651862222701311, "pos_vert_variance": 0.07495079934597015}}, "errors": ["EKF3 IMU0 origin set", "EKF3 IMU1 origin set", "Field Elevation Set: 39m", "ArduCopter V4.6.1 (57591cb8)", "ChibiOS: 88b84600", "fmuv3 00240032 33385119 36353030", "IOMCU: 420 1001 411FC231", "RCOut: PWM:1-14", "IMU0: fast sampling enabled 8.0kHz/1.0kHz", "Frame: QUAD/X", "PreArm: RC not found", "PreArm: Hardware safety switch", "EKF3 IMU0 is using GPS", "EKF3 IMU1 is using GPS"]}
{"timestamp": "2026-01-31T07:02:34.198312Z", "telemetry": {"lat": 13.3545818, "lon": 74.8648294, "satellites": 11, "altitude_gps_m": 1357.6944873516254, "groundspeed_mps": 0.1290256232023239}, "flight": {"mode": "STABILIZE", "armed": false}, "ekf": {"attitude": {"roll": -0.03407755121588707, "pitch": -0.02198873646557331, "yaw": 2.2715091705322266}, "local_position": {"x": -2.427032232284546, "y": -1.2647782564163208, "z": 0.18644852936267853}, "status": {"flags": 831, "velocity_variance": 0.015959078446030617, "pos_horiz_variance": 0.012921289540827274, "pos_vert_variance": 0.08892910182476044}}, "errors": ["EKF3 IMU0 origin set", "EKF3 IMU1 origin set", "Field Elevation Set: 39m", "ArduCopter V4.6.1 (57591cb8)", "ChibiOS: 88b84600", "fmuv3 00240032 33385119 36353030", "IOMCU: 420 1001 411FC231", "RCOut: PWM:1-14", "IMU0: fast sampling enabled 8.0kHz/1.0kHz", "Frame: QUAD/X", "PreArm: RC not found", "PreArm: Hardware safety switch", "EKF3 IMU0 is using GPS", "EKF3 IMU1 is using GPS"]}
{"timestamp": "2026-01-31T07:02:35.197342Z", "telemetry": {"lat": 13.3545823, "lon": 74.8648293, "satellites": 11, "altitude_gps_m": 414.6663026478081, "groundspeed_mps": 0.10589990764856339}, "flight": {"mode": "STABILIZE", "armed": false}, "ekf": {"attitude": {"roll": -0.03470151871442795, "pitch": -0.02179405838251114, "yaw": 2.2727854251861572}, "local_position": {"x": -2.439336061477661, "y": -1.2453763484954834, "z": 0.12501394748687744}, "status": {"flags": 831, "velocity_variance": 0.05084598436951637, "pos_horiz_variance": 0.01505296677350998, "pos_vert_variance": 0.08583708107471466}}, "errors": ["EKF3 IMU0 origin set", "EKF3 IMU1 origin set", "Field Elevation Set: 39m", "ArduCopter V4.6.1 (57591cb8)", "ChibiOS: 88b84600", "fmuv3 00240032 33385119 36353030", "IOMCU: 420 1001 411FC231", "RCOut: PWM:1-14", "IMU0: fast sampling enabled 8.0kHz/1.0kHz", "Frame: QUAD/X", "PreArm: RC not found", "PreArm: Hardware safety switch", "EKF3 IMU0 is using GPS", "EKF3 IMU1 is using GPS"]}
{"timestamp": "2026-01-31T07:02:36.196439Z", "telemetry": {"lat": 13.3545832, "lon": 74.8648301, "satellites": 11, "altitude_gps_m": 4471.97844762595, "groundspeed_mps": 0.10704761743545532}, "flight": {"mode": "STABILIZE", "armed": false}, "ekf": {"attitude": {"roll": -0.034643273800611496, "pitch": -0.022064203396439552, "yaw": 2.2737550735473633}, "local_position": {"x": -2.447483539581299, "y": -1.1883373260498047, "z": 0.034565456211566925}, "status": {"flags": 831, "velocity_variance": 0.030455628409981728, "pos_horiz_variance": 0.02143675461411476, "pos_vert_variance": 0.11207608878612518}}, "errors": ["EKF3 IMU0 origin set", "EKF3 IMU1 origin set", "Field Elevation Set: 39m", "ArduCopter V4.6.1 (57591cb8)", "ChibiOS: 88b84600", "fmuv3 00240032 33385119 36353030", "IOMCU: 420 1001 411FC231", "RCOut: PWM:1-14", "IMU0: fast sampling enabled 8.0kHz/1.0kHz", "Frame: QUAD/X", "PreArm: RC not found", "PreArm: Hardware safety switch", "EKF3 IMU0 is using GPS", "EKF3 IMU1 is using GPS"]}
{"timestamp": "2026-01-31T07:02:37.196598Z", "telemetry": {"lat": 13.354584, "lon": 74.8648304, "satellites": 11, "altitude_gps_m": 1368.6436853387502, "groundspeed_mps": 0.09839744865894318}, "flight": {"mode": "STABILIZE", "armed": false}, "ekf": {"attitude": {"roll": -0.03482697531580925, "pitch": -0.021830545738339424, "yaw": 2.2746899127960205}, "local_position": {"x": -2.4195139408111572, "y": -1.148217797279358, "z": -0.1194852665066719}, "status": {"flags": 831, "velocity_variance": 0.05771346017718315, "pos_horiz_variance": 0.02637849561870098, "pos_vert_variance": 0.12413705140352249}}, "errors": ["EKF3 IMU0 origin set", "EKF3 IMU1 origin set", "Field Elevation Set: 39m", "ArduCopter V4.6.1 (57591cb8)", "ChibiOS: 88b84600", "fmuv3 00240032 33385119 36353030", "IOMCU: 420 1001 411FC231", "RCOut: PWM:1-14", "IMU0: fast sampling enabled 8.0kHz/1.0kHz", "Frame: QUAD/X", "PreArm: RC not found", "PreArm: Hardware safety switch", "EKF3 IMU0 is using GPS", "EKF3 IMU1 is using GPS", "PreArm: RC not found"]}
{"timestamp": "2026-01-31T07:02:38.195297Z", "telemetry": {"lat": 13.3545838, "lon": 74.8648305, "satellites": 11, "altitude_gps_m": 1717504.5772602218, "groundspeed_mps": 0.09798312187194824}, "flight": {"mode": "STABILIZE", "armed": false}, "ekf": {"attitude": {"roll": -0.034858208149671555, "pitch": -0.02190055139362812, "yaw": 2.2755706310272217}, "local_position": {"x": -2.3913440704345703, "y": -1.1129257678985596, "z": -0.3571021258831024}, "status": {"flags": 831, "velocity_variance": 0.054116394370794296, "pos_horiz_variance": 0.023993905633687973, "pos_vert_variance": 0.12290377914905548}}, "errors": ["EKF3 IMU0 origin set", "EKF3 IMU1 origin set", "Field Elevation Set: 39m", "ArduCopter V4.6.1 (57591cb8)", "ChibiOS: 88b84600", "fmuv3 00240032 33385119 36353030", "IOMCU: 420 1001 411FC231", "RCOut: PWM:1-14", "IMU0: fast sampling enabled 8.0kHz/1.0kHz", "Frame: QUAD/X", "PreArm: RC not found", "PreArm: Hardware safety switch", "EKF3 IMU0 is using GPS", "EKF3 IMU1 is using GPS", "PreArm: RC not found"]}
{"timestamp": "2026-01-31T07:02:39.193786Z", "telemetry": {"lat": 13.3545838, "lon": 74.8648305, "satellites": 11, "altitude_gps_m": 3.589405392029685e+16, "groundspeed_mps": 0.09798312187194824}, "flight": {"mode": "STABILIZE", "armed": false}, "ekf": {"attitude": {"roll": -0.034858208149671555, "pitch": -0.02190055139362812, "yaw": 2.2755706310272217}, "local_position": {"x": -2.3286046981811523, "y": -1.0427939891815186, "z": -0.678512692451477}, "status": {"flags": 831, "velocity_variance": 0.054116394370794296, "pos_horiz_variance": 0.023993905633687973, "pos_vert_variance": 0.12290377914905548}}, "errors": ["EKF3 IMU0 origin set", "EKF3 IMU1 origin set", "Field Elevation Set: 39m", "ArduCopter V4.6.1 (57591cb8)", "ChibiOS: 88b84600", "fmuv3 00240032 33385119 36353030", "IOMCU: 420 1001 411FC231", "RCOut: PWM:1-14", "IMU0: fast sampling enabled 8.0kHz/1.0kHz", "Frame: QUAD/X", "PreArm: RC not found", "PreArm: Hardware safety switch", "EKF3 IMU0 is using GPS", "EKF3 IMU1 is using GPS", "PreArm: RC not found"]}
{"timestamp": "2026-01-31T07:02:40.192915Z", "telemetry": {"lat": 13.3545847, "lon": 74.8648307, "satellites": 11, "altitude_gps_m": 1394.0738763888198, "groundspeed_mps": 0.10101223737001419}, "flight": {"mode": "STABILIZE", "armed": false}, "ekf": {"attitude": {"roll": -0.03468235209584236, "pitch": -0.021928397938609123, "yaw": 2.277966260910034}, "local_position": {"x": -2.3000802993774414, "y": -1.014417290687561, "z": -0.849560558795929}, "status": {"flags": 831, "velocity_variance": 0.07185396552085876, "pos_horiz_variance": 0.02137119323015213, "pos_vert_variance": 0.12603759765625}}, "errors": ["EKF3 IMU0 origin set", "EKF3 IMU1 origin set", "Field Elevation Set: 39m", "ArduCopter V4.6.1 (57591cb8)", "ChibiOS: 88b84600", "fmuv3 00240032 33385119 36353030", "IOMCU: 420 1001 411FC231", "RCOut: PWM:1-14", "IMU0: fast sampling enabled 8.0kHz/1.0kHz", "Frame: QUAD/X", "PreArm: RC not found", "PreArm: Hardware safety switch", "EKF3 IMU0 is using GPS", "EKF3 IMU1 is using GPS", "PreArm: RC not found"]}
{"timestamp": "2026-01-31T07:02:41.191742Z", "telemetry": {"lat": 13.354585, "lon": 74.8648308, "satellites": 11, "altitude_gps_m": 201993433.3698517, "groundspeed_mps": 0.09700093418359756}, "flight": {"mode": "STABILIZE", "armed": false}, "ekf": {"attitude": {"roll": -0.03442032262682915, "pitch": -0.02185680903494358, "yaw": 2.278590202331543}, "local_position": {"x": -2.2857043743133545, "y": -1.0140185356140137, "z": -0.9319420456886292}, "status": {"flags": 831, "velocity_variance": 0.07052084058523178, "pos_horiz_variance": 0.02315928414463997, "pos_vert_variance": 0.1331189125776291}}, "errors": ["EKF3 IMU0 origin set", "EKF3 IMU1 origin set", "Field Elevation Set: 39m", "ArduCopter V4.6.1 (57591cb8)", "ChibiOS: 88b84600", "fmuv3 00240032 33385119 36353030", "IOMCU: 420 1001 411FC231", "RCOut: PWM:1-14", "IMU0: fast sampling enabled 8.0kHz/1.0kHz", "Frame: QUAD/X", "PreArm: RC not found", "PreArm: Hardware safety switch", "EKF3 IMU0 is using GPS", "EKF3 IMU1 is using GPS", "PreArm: RC not found"]}
{"timestamp": "2026-01-31T07:02:42.191100Z", "telemetry": {"lat": 13.354585, "lon": 74.8648308, "satellites": 11, "altitude_gps_m": 4.2214520327446144e+18, "groundspeed_mps": 0.09700093418359756}, "flight": {"mode": "STABILIZE", "armed": false}, "ekf": {"attitude": {"roll": -0.03442032262682915, "pitch": -0.02185680903494358, "yaw": 2.278590202331543}, "local_position": {"x": -2.2857043743133545, "y": -1.0140185356140137, "z": -0.9319420456886292}, "status": {"flags": 831, "velocity_variance": 0.07052084058523178, "pos_horiz_variance": 0.02315928414463997, "pos_vert_variance": 0.1331189125776291}}, "errors": ["EKF3 IMU0 origin set", "EKF3 IMU1 origin set", "Field Elevation Set: 39m", "ArduCopter V4.6.1 (57591cb8)", "ChibiOS: 88b84600", "fmuv3 00240032 33385119 36353030", "IOMCU: 420 1001 411FC231", "RCOut: PWM:1-14", "IMU0: fast sampling enabled 8.0kHz/1.0kHz", "Frame: QUAD/X", "PreArm: RC not found", "PreArm: Hardware safety switch", "EKF3 IMU0 is using GPS", "EKF3 IMU1 is using GPS", "PreArm: RC not found"]}
{"timestamp": "2026-01-31T07:02:43.190412Z", "telemetry": {"lat": 13.354585, "lon": 74.8648308, "satellites": 11, "altitude_gps_m": 8.82239435582733e+28, "groundspeed_mps": 0.09700093418359756}, "flight": {"mode": "STABILIZE", "armed": false}, "ekf": {"attitude": {"roll": -0.03442032262682915, "pitch": -0.02185680903494358, "yaw": 2.278590202331543}, "local_position": {"x": -2.2857043743133545, "y": -1.0140185356140137, "z": -0.9319420456886292}, "status": {"flags": 831, "velocity_variance": 0.07052084058523178, "pos_horiz_variance": 0.02315928414463997, "pos_vert_variance": 0.1331189125776291}}, "errors": ["EKF3 IMU0 origin set", "EKF3 IMU1 origin set", "Field Elevation Set: 39m", "ArduCopter V4.6.1 (57591cb8)", "ChibiOS: 88b84600", "fmuv3 00240032 33385119 36353030", "IOMCU: 420 1001 411FC231", "RCOut: PWM:1-14", "IMU0: fast sampling enabled 8.0kHz/1.0kHz", "Frame: QUAD/X", "PreArm: RC not found", "PreArm: Hardware safety switch", "EKF3 IMU0 is using GPS", "EKF3 IMU1 is using GPS", "PreArm: RC not found"]}
{"timestamp": "2026-01-31T07:02:44.189763Z", "telemetry": {"lat": 13.3545863, "lon": 74.8648306, "satellites": 11, "altitude_gps_m": 132.38834499359132, "groundspeed_mps": 0.09718777239322662}, "flight": {"mode": "STABILIZE", "armed": false}, "ekf": {"attitude": {"roll": -0.034012630581855774, "pitch": -0.022329729050397873, "yaw": 2.2812530994415283}, "local_position": {"x": -2.12638258934021, "y": -0.9462995529174805, "z": -1.6736520528793335}, "status": {"flags": 831, "velocity_variance": 0.05690532177686691, "pos_horiz_variance": 0.02118382416665554, "pos_vert_variance": 0.13105587661266327}}, "errors": ["EKF3 IMU0 origin set", "EKF3 IMU1 origin set", "Field Elevation Set: 39m", "ArduCopter V4.6.1 (57591cb8)", "ChibiOS: 88b84600", "fmuv3 00240032 33385119 36353030", "IOMCU: 420 1001 411FC231", "RCOut: PWM:1-14", "IMU0: fast sampling enabled 8.0kHz/1.0kHz", "Frame: QUAD/X", "PreArm: RC not found", "PreArm: Hardware safety switch", "EKF3 IMU0 is using GPS", "EKF3 IMU1 is using GPS", "PreArm: RC not found"]}
{"timestamp": "2026-01-31T07:02:45.188593Z", "telemetry": {"lat": 13.3545861, "lon": 74.8648307, "satellites": 11, "altitude_gps_m": 1432.5725041528892, "groundspeed_mps": 0.107338085770607}, "flight": {"mode": "STABILIZE", "armed": false}, "ekf": {"attitude": {"roll": -0.03355073556303978, "pitch": -0.02254689671099186, "yaw": 2.2822306156158447}, "local_position": {"x": -2.085355043411255, "y": -0.9170249104499817, "z": -1.9372587203979492}, "status": {"flags": 831, "velocity_variance": 0.09841109067201614, "pos_horiz_variance": 0.01737682893872261, "pos_vert_variance": 0.12304818630218506}}, "errors": ["EKF3 IMU0 origin set", "EKF3 IMU1 origin set", "Field Elevation Set: 39m", "ArduCopter V4.6.1 (57591cb8)", "ChibiOS: 88b84600", "fmuv3 00240032 33385119 36353030", "IOMCU: 420 1001 411FC231", "RCOut: PWM:1-14", "IMU0: fast sampling enabled 8.0kHz/1.0kHz", "Frame: QUAD/X", "PreArm: RC not found", "PreArm: Hardware safety switch", "EKF3 IMU0 is using GPS", "EKF3 IMU1 is using GPS", "PreArm: RC not found"]}
{"timestamp": "2026-01-31T07:02:46.188689Z", "telemetry": {"lat": 13.3545854, "lon": 74.8648307, "satellites": 11, "altitude_gps_m": 438.8874648978081, "groundspeed_mps": 0.1104273647069931}, "flight": {"mode": "STABILIZE", "armed": false}, "ekf": {"attitude": {"roll": -0.032910965383052826, "pitch": -0.02256488986313343, "yaw": 2.2829372882843018}, "local_position": {"x": -2.0954182147979736, "y": -0.920508623123169, "z": -2.1458933353424072}, "status": {"flags": 831, "velocity_variance": 0.03105354867875576, "pos_horiz_variance": 0.01339949481189251, "pos_vert_variance": 0.12301062047481537}}, "errors": ["EKF3 IMU0 origin set", "EKF3 IMU1 origin set", "Field Elevation Set: 39m", "ArduCopter V4.6.1 (57591cb8)", "ChibiOS: 88b84600", "fmuv3 00240032 33385119 36353030", "IOMCU: 420 1001 411FC231", "RCOut: PWM:1-14", "IMU0: fast sampling enabled 8.0kHz/1.0kHz", "Frame: QUAD/X", "PreArm: RC not found", "PreArm: Hardware safety switch", "EKF3 IMU0 is using GPS", "EKF3 IMU1 is using GPS", "PreArm: RC not found"]}
{"timestamp": "2026-01-31T07:02:47.187044Z", "telemetry": {"lat": 13.354585, "lon": 74.8648306, "satellites": 11, "altitude_gps_m": 442.1169449847946, "groundspeed_mps": 0.11419767141342163}, "flight": {"mode": "STABILIZE", "armed": false}, "ekf": {"attitude": {"roll": -0.03295178338885307, "pitch": -0.0225596372038126, "yaw": 2.2834527492523193}, "local_position": {"x": -2.0959675312042236, "y": -0.9053643941879272, "z": -2.3738741874694824}, "status": {"flags": 831, "velocity_variance": 0.07344077527523041, "pos_horiz_variance": 0.008339622057974339, "pos_vert_variance": 0.11216575652360916}}, "errors": ["EKF3 IMU0 origin set", "EKF3 IMU1 origin set", "Field Elevation Set: 39m", "ArduCopter V4.6.1 (57591cb8)", "ChibiOS: 88b84600", "fmuv3 00240032 33385119 36353030", "IOMCU: 420 1001 411FC231", "RCOut: PWM:1-14", "IMU0: fast sampling enabled 8.0kHz/1.0kHz", "Frame: QUAD/X", "PreArm: RC not found", "PreArm: Hardware safety switch", "EKF3 IMU0 is using GPS", "EKF3 IMU1 is using GPS", "PreArm: RC not found"]}
{"timestamp": "2026-01-31T07:02:48.189762Z", "telemetry": {"lat": 13.3545849, "lon": 74.8648306, "satellites": 11, "altitude_gps_m": 4780.230894925242, "groundspeed_mps": 0.11185848712921143}, "flight": {"mode": "STABILIZE", "armed": false}, "ekf": {"attitude": {"roll": -0.03297624737024307, "pitch": -0.022371942177414894, "yaw": 2.284019947052002}, "local_position": {"x": -2.0823616981506348, "y": -0.8943303227424622, "z": -2.629688024520874}, "status": {"flags": 831, "velocity_variance": 0.07425262778997421, "pos_horiz_variance": 0.0060625397600233555, "pos_vert_variance": 0.10214603692293167}}, "errors": ["EKF3 IMU0 origin set", "EKF3 IMU1 origin set", "Field Elevation Set: 39m", "ArduCopter V4.6.1 (57591cb8)", "ChibiOS: 88b84600", "fmuv3 00240032 33385119 36353030", "IOMCU: 420 1001 411FC231", "RCOut: PWM:1-14", "IMU0: fast sampling enabled 8.0kHz/1.0kHz", "Frame: QUAD/X", "PreArm: RC not found", "PreArm: Hardware safety switch", "EKF3 IMU0 is using GPS", "EKF3 IMU1 is using GPS", "PreArm: RC not found"]}
{"timestamp": "2026-01-31T07:02:49.185645Z", "telemetry": {"lat": 13.354584, "lon": 74.8648304, "satellites": 11, "altitude_gps_m": 1459.7687948425976, "groundspeed_mps": 0.11650078743696213}, "flight": {"mode": "STABILIZE", "armed": false}, "ekf": {"attitude": {"roll": -0.03240276873111725, "pitch": -0.022267499938607216, "yaw": 2.2847132682800293}, "local_position": {"x": -2.1415531635284424, "y": -0.9306710958480835, "z": -2.7100234031677246}, "status": {"flags": 831, "velocity_variance": 0.08824997395277023, "pos_horiz_variance": 0.005392563529312611, "pos_vert_variance": 0.10040363669395447}}, "errors": ["EKF3 IMU0 origin set", "EKF3 IMU1 origin set", "Field Elevation Set: 39m", "ArduCopter V4.6.1 (57591cb8)", "ChibiOS: 88b84600", "fmuv3 00240032 33385119 36353030", "IOMCU: 420 1001 411FC231", "RCOut: PWM:1-14", "IMU0: fast sampling enabled 8.0kHz/1.0kHz", "Frame: QUAD/X", "PreArm: RC not found", "PreArm: Hardware safety switch", "EKF3 IMU0 is using GPS", "EKF3 IMU1 is using GPS", "PreArm: RC not found"]}
{"timestamp": "2026-01-31T07:02:50.185297Z", "telemetry": {"lat": 13.3545839, "lon": 74.8648303, "satellites": 11, "altitude_gps_m": 446.3152732043839, "groundspeed_mps": 0.11977442353963852}, "flight": {"mode": "STABILIZE", "armed": false}, "ekf": {"attitude": {"roll": -0.03242194652557373, "pitch": -0.021943550556898117, "yaw": 2.285288095474243}, "local_position": {"x": -2.18251633644104, "y": -0.9396593570709229, "z": -2.791520118713379}, "status": {"flags": 831, "velocity_variance": 0.08083402365446091, "pos_horiz_variance": 0.0058568441309034824, "pos_vert_variance": 0.1002710610628128}}, "errors": ["EKF3 IMU0 origin set", "EKF3 IMU1 origin set", "Field Elevation Set: 39m", "ArduCopter V4.6.1 (57591cb8)", "ChibiOS: 88b84600", "fmuv3 00240032 33385119 36353030", "IOMCU: 420 1001 411FC231", "RCOut: PWM:1-14", "IMU0: fast sampling enabled 8.0kHz/1.0kHz", "Frame: QUAD/X", "PreArm: RC not found", "PreArm: Hardware safety switch", "EKF3 IMU0 is using GPS", "EKF3 IMU1 is using GPS", "PreArm: RC not found", "PreArm: RC not found", "RCInput: decoding PPM(1)"]}
{"timestamp": "2026-01-31T07:02:51.197785Z", "telemetry": {"lat": 13.3545844, "lon": 74.86483, "satellites": 11, "altitude_gps_m": 4823.107993720027, "groundspeed_mps": 0.10018426924943924}, "flight": {"mode": "STABILIZE", "armed": false}, "ekf": {"attitude": {"roll": -0.03305751830339432, "pitch": -0.021738741546869278, "yaw": 2.285597324371338}, "local_position": {"x": -2.151334047317505, "y": -0.9455674886703491, "z": -2.9912912845611572}, "status": {"flags": 831, "velocity_variance": 0.05221081152558327, "pos_horiz_variance": 0.008021626621484756, "pos_vert_variance": 0.087232306599617}}, "errors": ["EKF3 IMU0 origin set", "EKF3 IMU1 origin set", "Field Elevation Set: 39m", "ArduCopter V4.6.1 (57591cb8)", "ChibiOS: 88b84600", "fmuv3 00240032 33385119 36353030", "IOMCU: 420 1001 411FC231", "RCOut: PWM:1-14", "IMU0: fast sampling enabled 8.0kHz/1.0kHz", "Frame: QUAD/X", "PreArm: RC not found", "PreArm: Hardware safety switch", "EKF3 IMU0 is using GPS", "EKF3 IMU1 is using GPS", "PreArm: RC not found", "PreArm: RC not found", "RCInput: decoding PPM(1)"]}
{"timestamp": "2026-01-31T07:02:52.183223Z", "telemetry": {"lat": 13.3545849, "lon": 74.8648298, "satellites": 11, "altitude_gps_m": 1474.9563355489865, "groundspeed_mps": 0.10083721578121185}, "flight": {"mode": "STABILIZE", "armed": false}, "ekf": {"attitude": {"roll": -0.033046621829271317, "pitch": -0.021832428872585297, "yaw": 2.2859597206115723}, "local_position": {"x": -2.1557974815368652, "y": -0.9517378211021423, "z": -3.13393497467041}, "status": {"flags": 831, "velocity_variance": 0.07138263434171677, "pos_horiz_variance": 0.013753104023635387, "pos_vert_variance": 0.07636579871177673}}, "errors": ["EKF3 IMU0 origin set", "EKF3 IMU1 origin set", "Field Elevation Set: 39m", "ArduCopter V4.6.1 (57591cb8)", "ChibiOS: 88b84600", "fmuv3 00240032 33385119 36353030", "IOMCU: 420 1001 411FC231", "RCOut: PWM:1-14", "IMU0: fast sampling enabled 8.0kHz/1.0kHz", "Frame: QUAD/X", "PreArm: RC not found", "PreArm: Hardware safety switch", "EKF3 IMU0 is using GPS", "EKF3 IMU1 is using GPS", "PreArm: RC not found", "PreArm: RC not found", "RCInput: decoding PPM(1)"]}
{"timestamp": "2026-01-31T07:02:53.185983Z", "telemetry": {"lat": 13.3545852, "lon": 74.8648295, "satellites": 11, "altitude_gps_m": 449.7600574391785, "groundspeed_mps": 0.10409469902515411}, "flight": {"mode": "STABILIZE", "armed": false}, "ekf": {"attitude": {"roll": -0.03286688029766083, "pitch": -0.02188405767083168, "yaw": 2.286522626876831}, "local_position": {"x": -2.1579418182373047, "y": -0.9629632234573364, "z": -3.157395839691162}, "status": {"flags": 831, "velocity_variance": 0.03969445824623108, "pos_horiz_variance": 0.014833210967481136, "pos_vert_variance": 0.06867273896932602}}, "errors": ["EKF3 IMU0 origin set", "EKF3 IMU1 origin set", "Field Elevation Set: 39m", "ArduCopter V4.6.1 (57591cb8)", "ChibiOS: 88b84600", "fmuv3 00240032 33385119 36353030", "IOMCU: 420 1001 411FC231", "RCOut: PWM:1-14", "IMU0: fast sampling enabled 8.0kHz/1.0kHz", "Frame: QUAD/X", "PreArm: RC not found", "PreArm: Hardware safety switch", "EKF3 IMU0 is using GPS", "EKF3 IMU1 is using GPS", "PreArm: RC not found", "PreArm: RC not found", "RCInput: decoding PPM(1)"]}
{"timestamp": "2026-01-31T07:02:54.181796Z", "telemetry": {"lat": 13.3545851, "lon": 74.8648291, "satellites": 11, "altitude_gps_m": 4838.173087591002, "groundspeed_mps": 0.12132641673088074}, "flight": {"mode": "STABILIZE", "armed": false}, "ekf": {"attitude": {"roll": -0.032729409635066986, "pitch": -0.022114824503660202, "yaw": 2.2870397567749023}, "local_position": {"x": -2.2088072299957275, "y": -0.9901259541511536, "z": -3.1268670558929443}, "status": {"flags": 831, "velocity_variance": 0.05537199229001999, "pos_horiz_variance": 0.01802932471036911, "pos_vert_variance": 0.06301258504390717}}, "errors": ["EKF3 IMU0 origin set", "EKF3 IMU1 origin set", "Field Elevation Set: 39m", "ArduCopter V4.6.1 (57591cb8)", "ChibiOS: 88b84600", "fmuv3 00240032 33385119 36353030", "IOMCU: 420 1001 411FC231", "RCOut: PWM:1-14", "IMU0: fast sampling enabled 8.0kHz/1.0kHz", "Frame: QUAD/X", "PreArm: RC not found", "PreArm: Hardware safety switch", "EKF3 IMU0 is using GPS", "EKF3 IMU1 is using GPS", "PreArm: RC not found", "PreArm: RC not found", "RCInput: decoding PPM(1)"]}
{"timestamp": "2026-01-31T07:02:55.184239Z", "telemetry": {"lat": 13.3545853, "lon": 74.8648286, "satellites": 11, "altitude_gps_m": 1476.369161366903, "groundspeed_mps": 0.11293603479862213}, "flight": {"mode": "STABILIZE", "armed": false}, "ekf": {"attitude": {"roll": -0.0330340713262558, "pitch": -0.02216256596148014, "yaw": 2.2877120971679688}, "local_position": {"x": -2.1825013160705566, "y": -0.9943791627883911, "z": -3.1608808040618896}, "status": {"flags": 831, "velocity_variance": 0.02540155127644539, "pos_horiz_variance": 0.019969934597611427, "pos_vert_variance": 0.05309884995222092}}, "errors": ["EKF3 IMU0 origin set", "EKF3 IMU1 origin set", "Field Elevation Set: 39m", "ArduCopter V4.6.1 (57591cb8)", "ChibiOS: 88b84600", "fmuv3 00240032 33385119 36353030", "IOMCU: 420 1001 411FC231", "RCOut: PWM:1-14", "IMU0: fast sampling enabled 8.0kHz/1.0kHz", "Frame: QUAD/X", "PreArm: RC not found", "PreArm: Hardware safety switch", "EKF3 IMU0 is using GPS", "EKF3 IMU1 is using GPS", "PreArm: RC not found", "PreArm: RC not found", "RCInput: decoding PPM(1)"]}
{"timestamp": "2026-01-31T07:02:56.192904Z", "telemetry": {"lat": 13.3545852, "lon": 74.8648277, "satellites": 11, "altitude_gps_m": 450.6212740304108, "groundspeed_mps": 0.10016247630119324}, "flight": {"mode": "STABILIZE", "armed": false}, "ekf": {"attitude": {"roll": -0.032639842480421066, "pitch": -0.02194162644445896, "yaw": 2.2881522178649902}, "local_position": {"x": -2.1661715507507324, "y": -1.0610042810440063, "z": -3.227588415145874}, "status": {"flags": 831, "velocity_variance": 0.03768113628029823, "pos_horiz_variance": 0.020293336361646652, "pos_vert_variance": 0.03430323675274849}}, "errors": ["EKF3 IMU0 origin set", "EKF3 IMU1 origin set", "Field Elevation Set: 39m", "ArduCopter V4.6.1 (57591cb8)", "ChibiOS: 88b84600", "fmuv3 00240032 33385119 36353030", "IOMCU: 420 1001 411FC231", "RCOut: PWM:1-14", "IMU0: fast sampling enabled 8.0kHz/1.0kHz", "Frame: QUAD/X", "PreArm: RC not found", "PreArm: Hardware safety switch", "EKF3 IMU0 is using GPS", "EKF3 IMU1 is using GPS", "PreArm: RC not found", "PreArm: RC not found", "RCInput: decoding PPM(1)"]}
{"timestamp": "2026-01-31T07:02:57.192237Z", "telemetry": {"lat": 13.3545867, "lon": 74.8648273, "satellites": 11, "altitude_gps_m": 562011.6129680382, "groundspeed_mps": 0.0968327596783638}, "flight": {"mode": "STABILIZE", "armed": false}, "ekf": {"attitude": {"roll": -0.03275215998291969, "pitch": -0.02208494395017624, "yaw": 2.2883641719818115}, "local_position": {"x": -2.1375720500946045, "y": -1.129521369934082, "z": -3.2020750045776367}, "status": {"flags": 831, "velocity_variance": 0.06215578317642212, "pos_horiz_variance": 0.029371367767453194, "pos_vert_variance": 0.03463239222764969}}, "errors": ["EKF3 IMU0 origin set", "EKF3 IMU1 origin set", "Field Elevation Set: 39m", "ArduCopter V4.6.1 (57591cb8)", "ChibiOS: 88b84600", "fmuv3 00240032 33385119 36353030", "IOMCU: 420 1001 411FC231", "RCOut: PWM:1-14", "IMU0: fast sampling enabled 8.0kHz/1.0kHz", "Frame: QUAD/X", "PreArm: RC not found", "PreArm: Hardware safety switch", "EKF3 IMU0 is using GPS", "EKF3 IMU1 is using GPS", "PreArm: RC not found", "PreArm: RC not found", "RCInput: decoding PPM(1)"]}
{"timestamp": "2026-01-31T07:02:58.270814Z", "telemetry": {"lat": 13.3545876, "lon": 74.8648267, "satellites": 11, "altitude_gps_m": 561071.5737128453, "groundspeed_mps": 0.09223031997680664}, "flight": {"mode": "LOITER", "armed": false}, "ekf": {"attitude": {"roll": -0.032761942595243454, "pitch": -0.022164717316627502, "yaw": 2.2884926795959473}, "local_position": {"x": -2.0985217094421387, "y": -1.1691521406173706, "z": -3.1515884399414062}, "status": {"flags": 831, "velocity_variance": 0.044892992824316025, "pos_horiz_variance": 0.032796382904052734, "pos_vert_variance": 0.03512566536664963}}, "errors": ["EKF3 IMU0 origin set", "EKF3 IMU1 origin set", "Field Elevation Set: 39m", "ArduCopter V4.6.1 (57591cb8)", "ChibiOS: 88b84600", "fmuv3 00240032 33385119 36353030", "IOMCU: 420 1001 411FC231", "RCOut: PWM:1-14", "IMU0: fast sampling enabled 8.0kHz/1.0kHz", "Frame: QUAD/X", "PreArm: RC not found", "PreArm: Hardware safety switch", "EKF3 IMU0 is using GPS", "EKF3 IMU1 is using GPS", "PreArm: RC not found", "PreArm: RC not found", "RCInput: decoding PPM(1)"]}
{"timestamp": "2026-01-31T07:02:59.191414Z", "telemetry": {"lat": 13.3545882, "lon": 74.864826, "satellites": 11, "altitude_gps_m": 449.54475329137045, "groundspeed_mps": 0.0801747739315033}, "flight": {"mode": "LOITER", "armed": false}, "ekf": {"attitude": {"roll": -0.03299736976623535, "pitch": -0.02210424281656742, "yaw": 2.288850784301758}, "local_position": {"x": -2.0226171016693115, "y": -1.235348105430603, "z": -3.1235430240631104}, "status": {"flags": 831, "velocity_variance": 0.04058762267231941, "pos_horiz_variance": 0.03283143788576126, "pos_vert_variance": 0.030677590519189835}}, "errors": ["EKF3 IMU0 origin set", "EKF3 IMU1 origin set", "Field Elevation Set: 39m", "ArduCopter V4.6.1 (57591cb8)", "ChibiOS: 88b84600", "fmuv3 00240032 33385119 36353030", "IOMCU: 420 1001 411FC231", "RCOut: PWM:1-14", "IMU0: fast sampling enabled 8.0kHz/1.0kHz", "Frame: QUAD/X", "PreArm: RC not found", "PreArm: Hardware safety switch", "EKF3 IMU0 is using GPS", "EKF3 IMU1 is using GPS", "PreArm: RC not found", "PreArm: RC not found", "RCInput: decoding PPM(1)"]}
{"timestamp": "2026-01-31T07:03:00.189710Z", "telemetry": {"lat": 13.354588, "lon": 74.8648258, "satellites": 11, "altitude_gps_m": 4838.173087591002, "groundspeed_mps": 0.07918492704629898}, "flight": {"mode": "LOITER", "armed": false}, "ekf": {"attitude": {"roll": -0.03309541195631027, "pitch": -0.02229064144194126, "yaw": 2.2892160415649414}, "local_position": {"x": -1.9522119760513306, "y": -1.2914443016052246, "z": -3.120250701904297}, "status": {"flags": 831, "velocity_variance": 0.05905671790242195, "pos_horiz_variance": 0.026551244780421257, "pos_vert_variance": 0.02923654392361641}}, "errors": ["EKF3 IMU0 origin set", "EKF3 IMU1 origin set", "Field Elevation Set: 39m", "ArduCopter V4.6.1 (57591cb8)", "ChibiOS: 88b84600", "fmuv3 00240032 33385119 36353030", "IOMCU: 420 1001 411FC231", "RCOut: PWM:1-14", "IMU0: fast sampling enabled 8.0kHz/1.0kHz", "Frame: QUAD/X", "PreArm: RC not found", "PreArm: Hardware safety switch", "EKF3 IMU0 is using GPS", "EKF3 IMU1 is using GPS", "PreArm: RC not found", "PreArm: RC not found", "RCInput: decoding PPM(1)"]}
